[{"reasons": {"count": 0, "items": [{"summary": "This spot is popular", "type": "general", "reasonName": "globalInteractionReason"}]}, "venue": {"id": "4b895827f964a5206c2d32e3", "name": "Pilo Arts Day Spa and Salon", "location": {"address": "8412 3rd Ave", "lat": 40.62474788273414, "lng": -74.03059056940135, "labeledLatLngs": [{"label": "display", "lat": 40.62474788273414, "lng": -74.03059056940135}, {"label": "entrance", "lat": 40.624726, "lng": -74.030697}], "distance": 117, "postalCode": "11209", "cc": "US", "city": "Brooklyn", "state": "NY", "country": "United States", "formattedAddress": ["8412 3rd Ave", "Brooklyn, NY 11209", "United States"]}, "categories": [{"id": "4bf58dd8d48988d1ed941735", "name": "Spa", "pluralName": "Spas", "shortName": "Spa", "icon": {"prefix": "https://ss3.4sqi.net/img/categories_v2/shops/spa_", "suffix": ".png"}, "primary": true}], "photos": {"count": 0, "groups": []}}, "referralId": "e-0-4b895827f964a5206c2d32e3-0"}, {"reasons": {"count": 0, "items": [{"summary": "This spot is popular", "type": "general", "reasonName": "globalInteractionReason"}]}, "venue": {"id": "4ad09cf7f964a520bed820e3", "name": "Bagel Boy", "location": {"address": "8002 3rd Ave", "crossStreet": "80th St", "lat": 40.627896, "lng": -74.029335, "labeledLatLngs": [{"label": "display", "lat": 40.627896, "lng": -74.029335}, {"label": "entrance", "lat": 40.627752, "lng": -74.02946}], "distance": 257, "postalCode": "11209", "cc": "US", "city": "Brooklyn", "state": "NY", "country": "United States", "formattedAddress": ["8002 3rd Ave (80th St)", "Brooklyn, NY 11209", "United States"]}, "categories": [{"id": "4bf58dd8d48988d179941735", "name": "Bagel Shop", "pluralName": "Bagel Shops", "shortName": "Bagels", "icon": {"prefix": "https://ss3.4sqi.net/img/categories_v2/food/bagels_", "suffix": ".png"}, "primary": true}], "delivery": {"id": "301119", "url": "https://www.seamless.com/menu/bagel-boy-8002-3rd-ave-brooklyn/301119?affiliate=1131&utm_source=foursquare-affiliate-network&utm_medium=affiliate&utm_campaign=1131&utm_content=301119", "provider": {"name": "seamless", "icon": {"prefix": "https://fastly.4sqi.net/img/general/cap/", "sizes": [40, 50], "name": "/delivery_provider_seamless_20180129.png"}}}, "photos": {"count": 0, "groups": []}, "venuePage": {"id": "64934446"}}, "referralId": "e-0-4ad09cf7f964a520bed820e3-1"}, {"reasons": {"count": 0, "items": [{"summary": "This spot is popular", "type": "general", "reasonName": "globalInteractionReason"}]}, "venue": {"id": "4a343f1ef964a520f69b1fe3", "name": "Leo's Casa Calamari", "location": {"address": "8602 3rd Ave", "crossStreet": "at 86 St", "lat": 40.6242, "lng": -74.030931, "labeledLatLngs": [{"label": "display", "lat": 40.6242, "lng": -74.030931}, {"label": "entrance", "lat": 40.623314, "lng": -74.031277}], "distance": 180, "postalCode": "11209", "cc": "US", "city": "Brooklyn", "state": "NY", "country": "United States", "formattedAddress": ["8602 3rd Ave (at 86 St)", "Brooklyn, NY 11209", "United States"]}, "categories": [{"id": "4bf58dd8d48988d1ca941735", "name": "Pizza Place", "pluralName": "Pizza Places", "shortName": "Pizza", "icon": {"prefix": "https://ss3.4sqi.net/img/categories_v2/food/pizza_", "suffix": ".png"}, "primary": true}], "delivery": {"id": "66698", "url": "https://www.seamless.com/menu/leos-casa-calamari-8502-3rd-ave-brooklyn/66698?affiliate=1131&utm_source=foursquare-affiliate-network&utm_medium=affiliate&utm_campaign=1131&utm_content=66698", "provider": {"name": "seamless", "icon": {"prefix": "https://fastly.4sqi.net/img/general/cap/", "sizes": [40, 50], "name": "/delivery_provider_seamless_20180129.png"}}}, "photos": {"count": 0, "groups": []}, "venuePage": {"id": "65130265"}}, "referralId": "e-0-4a343f1ef964a520f69b1fe3-2"}, {"reasons": {"count": 0, "items": [{"summary": "This spot is popular", "type": "general", "reasonName": "globalInteractionReason"}]}, "venue": {"id": "4abe4e84f964a520958c20e3", "name": "Pegasus Cafe", "location": {"address": "8610 3rd Ave", "crossStreet": "btw 86th & 87th", "lat": 40.623168349068536, "lng": -74.0311862390966, "labeledLatLngs": [{"label": "display", "lat": 40.623168349068536, "lng": -74.0311862390966}, {"label": "entrance", "lat": 40.623181, "lng": -74.031331}], "distance": 296, "postalCode": "11209", "cc": "US", "city": "Brooklyn", "state": "NY", "country": "United States", "formattedAddress": ["8610 3rd Ave (btw 86th & 87th)", "Brooklyn, NY 11209", "United States"]}, "categories": [{"id": "4bf58dd8d48988d143941735", "name": "Breakfast Spot", "pluralName": "Breakfast Spots", "shortName": "Breakfast", "icon": {"prefix": "https://ss3.4sqi.net/img/categories_v2/food/breakfast_", "suffix": ".png"}, "primary": true}], "photos": {"count": 0, "groups": []}}, "referralId": "e-0-4abe4e84f964a520958c20e3-3"}, {"reasons": {"count": 0, "items": [{"summary": "This spot is popular", "type": "general", "reasonName": "globalInteractionReason"}]}, "venue": {"id": "4bf5c0cebfeac92807269336", "name": "The Bookmark Shoppe", "location": {"address": "8415 3rd Ave", "crossStreet": "85th Street", "lat": 40.62457650083076, "lng": -74.0305618421461, "labeledLatLngs": [{"label": "display", "lat": 40.62457650083076, "lng": -74.0305618421461}], "distance": 136, "postalCode": "11209", "cc": "US", "city": "Brooklyn", "state": "NY", "country": "United States", "formattedAddress": ["8415 3rd Ave (85th Street)", "Brooklyn, NY 11209", "United States"]}, "categories": [{"id": "4bf58dd8d48988d114951735", "name": "Bookstore", "pluralName": "Bookstores", "shortName": "Bookstore", "icon": {"prefix": "https://ss3.4sqi.net/img/categories_v2/shops/bookstore_", "suffix": ".png"}, "primary": true}], "photos": {"count": 0, "groups": []}}, "referralId": "e-0-4bf5c0cebfeac92807269336-4"}, {"reasons": {"count": 0, "items": [{"summary": "This spot is popular", "type": "general", "reasonName": "globalInteractionReason"}]}, "venue": {"id": "4ea17d24e5facb29c6d81d6f", "name": "Ho' Brah Taco Joint", "location": {"address": "8618 3rd Ave", "crossStreet": "btwn 86th St & 87th St", "lat": 40.62295987421396, "lng": -74.03137094766794, "labeledLatLngs": [{"label": "display", "lat": 40.62295987421396, "lng": -74.03137094766794}], "distance": 322, "postalCode": "11209", "cc": "US", "city": "Brooklyn", "state": "NY", "country": "United States", "formattedAddress": ["8618 3rd Ave (btwn 86th St & 87th St)", "Brooklyn, NY 11209", "United States"]}, "categories": [{"id": "4bf58dd8d48988d151941735", "name": "Taco Place", "pluralName": "Taco Places", "shortName": "Tacos", "icon": {"prefix": "https://ss3.4sqi.net/img/categories_v2/food/taco_", "suffix": ".png"}, "primary": true}], "delivery": {"id": "1339367", "url": "https://www.seamless.com/menu/hobrah-8618-3rd-ave-brooklyn/1339367?affiliate=1131&utm_source=foursquare-affiliate-network&utm_medium=affiliate&utm_campaign=1131&utm_content=1339367", "provider": {"name": "seamless", "icon": {"prefix": "https://fastly.4sqi.net/img/general/cap/", "sizes": [40, 50], "name": "/delivery_provider_seamless_20180129.png"}}}, "photos": {"count": 0, "groups": []}, "venuePage": {"id": "69200014"}}, "referralId": "e-0-4ea17d24e5facb29c6d81d6f-5"}, {"reasons": {"count": 0, "items": [{"summary": "This spot is popular", "type": "general", "reasonName": "globalInteractionReason"}]}, "venue": {"id": "57bf2b24498e2a2800681ed3", "name": "Georgian Dream Cafe and Bakery", "location": {"address": "8309 3rd Ave", "lat": 40.625586, "lng": -74.030196, "labeledLatLngs": [{"label": "display", "lat": 40.625586, "lng": -74.030196}], "distance": 43, "postalCode": "11209", "cc": "US", "city": "Brooklyn", "state": "NY", "country": "United States", "formattedAddress": ["8309 3rd Ave", "Brooklyn, NY 11209", "United States"]}, "categories": [{"id": "5293a7d53cf9994f4e043a45", "name": "Caucasian Restaurant", "pluralName": "Caucasian Restaurants", "shortName": "Caucasian", "icon": {"prefix": "https://ss3.4sqi.net/img/categories_v2/food/caucasian_", "suffix": ".png"}, "primary": true}], "delivery": {"id": "1024692", "url": "https://www.seamless.com/menu/georgian-cuisine-8309-3rd-ave-brooklyn/1024692?affiliate=1131&utm_source=foursquare-affiliate-network&utm_medium=affiliate&utm_campaign=1131&utm_content=1024692", "provider": {"name": "seamless", "icon": {"prefix": "https://fastly.4sqi.net/img/general/cap/", "sizes": [40, 50], "name": "/delivery_provider_seamless_20180129.png"}}}, "photos": {"count": 0, "groups": []}}, "referralId": "e-0-57bf2b24498e2a2800681ed3-6"}, {"reasons": {"count": 0, "items": [{"summary": "This spot is popular", "type": "general", "reasonName": "globalInteractionReason"}]}, "venue": {"id": "538ca7d5498ec684c6387a46", "name": "Cocoa Grinder", "location": {"address": "8511 3rd Ave", "crossStreet": "85th & 86th St", "lat": 40.623966776558476, "lng": -74.0308626813129, "labeledLatLngs": [{"label": "display", "lat": 40.623966776558476, "lng": -74.0308626813129}], "distance": 205, "postalCode": "11209", "cc": "US", "city": "Brooklyn", "state": "NY", "country": "United States", "formattedAddress": ["8511 3rd Ave (85th & 86th St)", "Brooklyn, NY 11209", "United States"]}, "categories": [{"id": "4bf58dd8d48988d112941735", "name": "Juice Bar", "pluralName": "Juice Bars", "shortName": "Juice Bar", "icon": {"prefix": "https://ss3.4sqi.net/img/categories_v2/food/juicebar_", "suffix": ".png"}, "primary": true}], "delivery": {"id": "347044", "url": "https://www.seamless.com/menu/cocoa-grinder-8511-3rd-ave-brooklyn/347044?affiliate=1131&utm_source=foursquare-affiliate-network&utm_medium=affiliate&utm_campaign=1131&utm_content=347044", "provider": {"name": "seamless", "icon": {"prefix": "https://fastly.4sqi.net/img/general/cap/", "sizes": [40, 50], "name": "/delivery_provider_seamless_20180129.png"}}}, "photos": {"count": 0, "groups": []}}, "referralId": "e-0-538ca7d5498ec684c6387a46-7"}, {"reasons": {"count": 0, "items": [{"summary": "This spot is popular", "type": "general", "reasonName": "globalInteractionReason"}]}, "venue": {"id": "5127e5c7e4b0447b9f67b41d", "name": "Brooklyn Market", "location": {"address": "8102 3rd Ave", "lat": 40.626939, "lng": -74.02994799999999, "labeledLatLngs": [{"label": "display", "lat": 40.626939, "lng": -74.02994799999999}, {"label": "entrance", "lat": 40.626913, "lng": -74.029804}], "distance": 138, "postalCode": "11209", "cc": "US", "city": "Brooklyn", "state": "NY", "country": "United States", "formattedAddress": ["8102 3rd Ave", "Brooklyn, NY 11209", "United States"]}, "categories": [{"id": "4bf58dd8d48988d118951735", "name": "Grocery Store", "pluralName": "Grocery Stores", "shortName": "Grocery Store", "icon": {"prefix": "https://ss3.4sqi.net/img/categories_v2/shops/food_grocery_", "suffix": ".png"}, "primary": true}], "photos": {"count": 0, "groups": []}, "venuePage": {"id": "91918488"}}, "referralId": "e-0-5127e5c7e4b0447b9f67b41d-8"}, {"reasons": {"count": 0, "items": [{"summary": "This spot is popular", "type": "general", "reasonName": "globalInteractionReason"}]}, "venue": {"id": "4b6785d6f964a520aa532be3", "name": "Karam", "location": {"address": "8519 4th Ave", "crossStreet": "btwn 85th St & 86th St", "lat": 40.62293134278153, "lng": -74.02831552630435, "labeledLatLngs": [{"label": "display", "lat": 40.62293134278153, "lng": -74.02831552630435}, {"label": "entrance", "lat": 40.622935, "lng": -74.028106}], "distance": 374, "postalCode": "11209", "cc": "US", "city": "Brooklyn", "state": "NY", "country": "United States", "formattedAddress": ["8519 4th Ave (btwn 85th St & 86th St)", "Brooklyn, NY 11209", "United States"]}, "categories": [{"id": "4bf58dd8d48988d115941735", "name": "Middle Eastern Restaurant", "pluralName": "Middle Eastern Restaurants", "shortName": "Middle Eastern", "icon": {"prefix": "https://ss3.4sqi.net/img/categories_v2/food/middleeastern_", "suffix": ".png"}, "primary": true}], "delivery": {"id": "67693", "url": "https://www.seamless.com/menu/karam-restaurant-8519-4th-ave-brooklyn/67693?affiliate=1131&utm_source=foursquare-affiliate-network&utm_medium=affiliate&utm_campaign=1131&utm_content=67693", "provider": {"name": "seamless", "icon": {"prefix": "https://fastly.4sqi.net/img/general/cap/", "sizes": [40, 50], "name": "/delivery_provider_seamless_20180129.png"}}}, "photos": {"count": 0, "groups": []}, "venuePage": {"id": "75214247"}}, "referralId": "e-0-4b6785d6f964a520aa532be3-9"}, {"reasons": {"count": 0, "items": [{"summary": "This spot is popular", "type": "general", "reasonName": "globalInteractionReason"}]}, "venue": {"id": "512967d1e4b01eb932845b7a", "name": "Windy City Ale House", "location": {"address": "7915 3rd Ave", "crossStreet": "80th STREET", "lat": 40.62811715828623, "lng": -74.0291280171792, "labeledLatLngs": [{"label": "display", "lat": 40.62811715828623, "lng": -74.0291280171792}], "distance": 287, "postalCode": "11209", "cc": "US", "city": "Brooklyn", "state": "NY", "country": "United States", "formattedAddress": ["7915 3rd Ave (80th STREET)", "Brooklyn, NY 11209", "United States"]}, "categories": [{"id": "4bf58dd8d48988d11d941735", "name": "Sports Bar", "pluralName": "Sports Bars", "shortName": "Sports Bar", "icon": {"prefix": "https://ss3.4sqi.net/img/categories_v2/nightlife/sportsbar_", "suffix": ".png"}, "primary": true}], "photos": {"count": 0, "groups": []}, "venuePage": {"id": "54952890"}}, "referralId": "e-0-512967d1e4b01eb932845b7a-10"}, {"reasons": {"count": 0, "items": [{"summary": "This spot is popular", "type": "general", "reasonName": "globalInteractionReason"}]}, "venue": {"id": "4a9880f5f964a520692c20e3", "name": "The Kettle Black", "location": {"address": "8622 3rd Ave", "crossStreet": "at 87th St.", "lat": 40.62283909856897, "lng": -74.03141082168587, "labeledLatLngs": [{"label": "display", "lat": 40.62283909856897, "lng": -74.03141082168587}, {"label": "entrance", "lat": 40.622868, "lng": -74.031458}], "distance": 336, "postalCode": "11209", "cc": "US", "city": "Brooklyn", "state": "NY", "country": "United States", "formattedAddress": ["8622 3rd Ave (at 87th St.)", "Brooklyn, NY 11209", "United States"]}, "categories": [{"id": "4bf58dd8d48988d116941735", "name": "Bar", "pluralName": "Bars", "shortName": "Bar", "icon": {"prefix": "https://ss3.4sqi.net/img/categories_v2/nightlife/pub_", "suffix": ".png"}, "primary": true}], "delivery": {"id": "1141485", "url": "https://www.seamless.com/menu/the-kettle-black-8622-3rd-ave-brooklyn/1141485?affiliate=1131&utm_source=foursquare-affiliate-network&utm_medium=affiliate&utm_campaign=1131&utm_content=1141485", "provider": {"name": "seamless", "icon": {"prefix": "https://fastly.4sqi.net/img/general/cap/", "sizes": [40, 50], "name": "/delivery_provider_seamless_20180129.png"}}}, "photos": {"count": 0, "groups": []}, "venuePage": {"id": "151465375"}}, "referralId": "e-0-4a9880f5f964a520692c20e3-11"}, {"reasons": {"count": 0, "items": [{"summary": "This spot is popular", "type": "general", "reasonName": "globalInteractionReason"}]}, "venue": {"id": "57cb4cca498e310e8f4a2f78", "name": "Caffe Caf\u00e9", "location": {"address": "8401 3rd Ave", "lat": 40.62494582940274, "lng": -74.03040439118276, "labeledLatLngs": [{"label": "display", "lat": 40.62494582940274, "lng": -74.03040439118276}], "distance": 96, "postalCode": "11209", "cc": "US", "city": "New York", "state": "NY", "country": "United States", "formattedAddress": ["8401 3rd Ave", "New York, NY 11209", "United States"]}, "categories": [{"id": "4bf58dd8d48988d1e0931735", "name": "Coffee Shop", "pluralName": "Coffee Shops", "shortName": "Coffee Shop", "icon": {"prefix": "https://ss3.4sqi.net/img/categories_v2/food/coffeeshop_", "suffix": ".png"}, "primary": true}], "photos": {"count": 0, "groups": []}}, "referralId": "e-0-57cb4cca498e310e8f4a2f78-12"}, {"reasons": {"count": 0, "items": [{"summary": "This spot is popular", "type": "general", "reasonName": "globalInteractionReason"}]}, "venue": {"id": "4bd34524462cb7133601de07", "name": "Mimi Nails", "location": {"address": "8706 3rd Ave", "crossStreet": "at 87th St.", "lat": 40.62257064456921, "lng": -74.03147660099737, "labeledLatLngs": [{"label": "display", "lat": 40.62257064456921, "lng": -74.03147660099737}, {"label": "entrance", "lat": 40.622554, "lng": -74.031588}], "distance": 366, "postalCode": "11209", "cc": "US", "city": "Brooklyn", "state": "NY", "country": "United States", "formattedAddress": ["8706 3rd Ave (at 87th St.)", "Brooklyn, NY 11209", "United States"]}, "categories": [{"id": "4bf58dd8d48988d1ed941735", "name": "Spa", "pluralName": "Spas", "shortName": "Spa", "icon": {"prefix": "https://ss3.4sqi.net/img/categories_v2/shops/spa_", "suffix": ".png"}, "primary": true}], "photos": {"count": 0, "groups": []}}, "referralId": "e-0-4bd34524462cb7133601de07-13"}, {"reasons": {"count": 0, "items": [{"summary": "This spot is popular", "type": "general", "reasonName": "globalInteractionReason"}]}, "venue": {"id": "4d92451d5cf5236ac70c4aa3", "name": "Verrazano Vision", "location": {"address": "8421 3rd Ave", "crossStreet": "85th st", "lat": 40.624434, "lng": -74.03041, "labeledLatLngs": [{"label": "display", "lat": 40.624434, "lng": -74.03041}, {"label": "entrance", "lat": 40.624456, "lng": -74.030502}], "distance": 153, "postalCode": "11209", "cc": "US", "city": "Brooklyn", "state": "NY", "country": "United States", "formattedAddress": ["8421 3rd Ave (85th st)", "Brooklyn, NY 11209", "United States"]}, "categories": [{"id": "4d954afda243a5684865b473", "name": "Optical Shop", "pluralName": "Optical Shops", "shortName": "Optical", "icon": {"prefix": "https://ss3.4sqi.net/img/categories_v2/building/medical_opticalshop_", "suffix": ".png"}, "primary": true}], "photos": {"count": 0, "groups": []}}, "referralId": "e-0-4d92451d5cf5236ac70c4aa3-14"}, {"reasons": {"count": 0, "items": [{"summary": "This spot is popular", "type": "general", "reasonName": "globalInteractionReason"}]}, "venue": {"id": "4b19f066f964a52062e623e3", "name": "Blue Zoo Lounge", "location": {"address": "8402 3rd Avenue Brooklyn\u200e NY United States", "lat": 40.62502995433233, "lng": -74.03055409884608, "labeledLatLngs": [{"label": "display", "lat": 40.62502995433233, "lng": -74.03055409884608}], "distance": 86, "cc": "US", "city": "New York", "state": "NY", "country": "United States", "formattedAddress": ["8402 3rd Avenue Brooklyn\u200e NY United States", "New York, NY", "United States"]}, "categories": [{"id": "4bf58dd8d48988d121941735", "name": "Lounge", "pluralName": "Lounges", "shortName": "Lounge", "icon": {"prefix": "https://ss3.4sqi.net/img/categories_v2/nightlife/default_", "suffix": ".png"}, "primary": true}], "photos": {"count": 0, "groups": []}}, "referralId": "e-0-4b19f066f964a52062e623e3-15"}, {"reasons": {"count": 0, "items": [{"summary": "This spot is popular", "type": "general", "reasonName": "globalInteractionReason"}]}, "venue": {"id": "5089d4f7e4b0b2a614e157c5", "name": "A.L.C. Italian Grocery", "location": {"address": "8613 3rd Ave", "lat": 40.62305051681447, "lng": -74.03122367666245, "labeledLatLngs": [{"label": "display", "lat": 40.62305051681447, "lng": -74.03122367666245}, {"label": "entrance", "lat": 40.623015, "lng": -74.03109}], "distance": 310, "postalCode": "11209", "cc": "US", "city": "Brooklyn", "state": "NY", "country": "United States", "formattedAddress": ["8613 3rd Ave", "Brooklyn, NY 11209", "United States"]}, "categories": [{"id": "4bf58dd8d48988d118951735", "name": "Grocery Store", "pluralName": "Grocery Stores", "shortName": "Grocery Store", "icon": {"prefix": "https://ss3.4sqi.net/img/categories_v2/shops/food_grocery_", "suffix": ".png"}, "primary": true}], "delivery": {"id": "1023271", "url": "https://www.seamless.com/menu/alc-italian-grocery-8613-3rd-ave-brooklyn/1023271?affiliate=1131&utm_source=foursquare-affiliate-network&utm_medium=affiliate&utm_campaign=1131&utm_content=1023271", "provider": {"name": "seamless", "icon": {"prefix": "https://fastly.4sqi.net/img/general/cap/", "sizes": [40, 50], "name": "/delivery_provider_seamless_20180129.png"}}}, "photos": {"count": 0, "groups": []}, "venuePage": {"id": "73960102"}}, "referralId": "e-0-5089d4f7e4b0b2a614e157c5-16"}, {"reasons": {"count": 0, "items": [{"summary": "This spot is popular", "type": "general", "reasonName": "globalInteractionReason"}]}, "venue": {"id": "4bbce66da0a0c9b6b9f41a0f", "name": "Elia Restaurant", "location": {"address": "8611 3rd Ave", "crossStreet": "Near 86 street", "lat": 40.62309044402409, "lng": -74.03115569866006, "labeledLatLngs": [{"label": "display", "lat": 40.62309044402409, "lng": -74.03115569866006}], "distance": 305, "postalCode": "11209", "cc": "US", "city": "Brooklyn", "state": "NY", "country": "United States", "formattedAddress": ["8611 3rd Ave (Near 86 street)", "Brooklyn, NY 11209", "United States"]}, "categories": [{"id": "4bf58dd8d48988d10e941735", "name": "Greek Restaurant", "pluralName": "Greek Restaurants", "shortName": "Greek", "icon": {"prefix": "https://ss3.4sqi.net/img/categories_v2/food/greek_", "suffix": ".png"}, "primary": true}], "photos": {"count": 0, "groups": []}}, "referralId": "e-0-4bbce66da0a0c9b6b9f41a0f-17"}, {"reasons": {"count": 0, "items": [{"summary": "This spot is popular", "type": "general", "reasonName": "globalInteractionReason"}]}, "venue": {"id": "4b70d8dff964a52063312de3", "name": "Tuscany Grill", "location": {"address": "8620 3rd Ave", "lat": 40.62291326029698, "lng": -74.03138652017468, "labeledLatLngs": [{"label": "display", "lat": 40.62291326029698, "lng": -74.03138652017468}, {"label": "entrance", "lat": 40.622918, "lng": -74.031438}], "distance": 327, "postalCode": "11209", "cc": "US", "city": "Brooklyn", "state": "NY", "country": "United States", "formattedAddress": ["8620 3rd Ave", "Brooklyn, NY 11209", "United States"]}, "categories": [{"id": "4bf58dd8d48988d110941735", "name": "Italian Restaurant", "pluralName": "Italian Restaurants", "shortName": "Italian", "icon": {"prefix": "https://ss3.4sqi.net/img/categories_v2/food/italian_", "suffix": ".png"}, "primary": true}], "delivery": {"id": "1958115", "url": "https://www.seamless.com/menu/tuscany-grill-8620-3rd-ave-brooklyn/1958115?affiliate=1131&utm_source=foursquare-affiliate-network&utm_medium=affiliate&utm_campaign=1131&utm_content=1958115", "provider": {"name": "seamless", "icon": {"prefix": "https://fastly.4sqi.net/img/general/cap/", "sizes": [40, 50], "name": "/delivery_provider_seamless_20180129.png"}}}, "photos": {"count": 0, "groups": []}, "venuePage": {"id": "76901440"}}, "referralId": "e-0-4b70d8dff964a52063312de3-18"}, {"reasons": {"count": 0, "items": [{"summary": "This spot is popular", "type": "general", "reasonName": "globalInteractionReason"}]}, "venue": {"id": "4eee44112c5bafa619f9a8c2", "name": "RED OAK Restaurant & Bar & Hookah Lounge", "location": {"address": "8305 3rd Ave", "crossStreet": "83rd St", "lat": 40.625446614320815, "lng": -74.03024585189742, "labeledLatLngs": [{"label": "display", "lat": 40.625446614320815, "lng": -74.03024585189742}], "distance": 50, "postalCode": "11209", "cc": "US", "city": "Brooklyn", "state": "NY", "country": "United States", "formattedAddress": ["8305 3rd Ave (83rd St)", "Brooklyn, NY 11209", "United States"]}, "categories": [{"id": "4bf58dd8d48988d119941735", "name": "Hookah Bar", "pluralName": "Hookah Bars", "shortName": "Hookah Bar", "icon": {"prefix": "https://ss3.4sqi.net/img/categories_v2/nightlife/hookahbar_", "suffix": ".png"}, "primary": true}], "photos": {"count": 0, "groups": []}, "venuePage": {"id": "73521084"}}, "referralId": "e-0-4eee44112c5bafa619f9a8c2-19"}, {"reasons": {"count": 0, "items": [{"summary": "This spot is popular", "type": "general", "reasonName": "globalInteractionReason"}]}, "venue": {"id": "4b58f8f2f964a5203f7628e3", "name": "Peppino's", "location": {"address": "7708 3rd Ave", "lat": 40.6298508137169, "lng": -74.02848135082027, "labeledLatLngs": [{"label": "display", "lat": 40.6298508137169, "lng": -74.02848135082027}], "distance": 485, "postalCode": "11209", "cc": "US", "city": "Brooklyn", "state": "NY", "country": "United States", "formattedAddress": ["7708 3rd Ave", "Brooklyn, NY 11209", "United States"]}, "categories": [{"id": "4bf58dd8d48988d1ca941735", "name": "Pizza Place", "pluralName": "Pizza Places", "shortName": "Pizza", "icon": {"prefix": "https://ss3.4sqi.net/img/categories_v2/food/pizza_", "suffix": ".png"}, "primary": true}], "photos": {"count": 0, "groups": []}}, "referralId": "e-0-4b58f8f2f964a5203f7628e3-20"}, {"reasons": {"count": 0, "items": [{"summary": "This spot is popular", "type": "general", "reasonName": "globalInteractionReason"}]}, "venue": {"id": "4bff04f8480eef3b4d6a9e7f", "name": "HoM Bay Ridge", "location": {"address": "8806 3rd Ave", "crossStreet": "at 88th St", "lat": 40.62184719696941, "lng": -74.03177563511296, "labeledLatLngs": [{"label": "display", "lat": 40.62184719696941, "lng": -74.03177563511296}, {"label": "entrance", "lat": 40.621872, "lng": -74.031866}], "distance": 450, "postalCode": "11209", "cc": "US", "city": "Brooklyn", "state": "NY", "country": "United States", "formattedAddress": ["8806 3rd Ave (at 88th St)", "Brooklyn, NY 11209", "United States"]}, "categories": [{"id": "4bf58dd8d48988d1dc931735", "name": "Tea Room", "pluralName": "Tea Rooms", "shortName": "Tea Room", "icon": {"prefix": "https://ss3.4sqi.net/img/categories_v2/food/tearoom_", "suffix": ".png"}, "primary": true}], "delivery": {"id": "1013870", "url": "https://www.seamless.com/menu/hom-bay-ridge-8810-3rd-ave-brooklyn/1013870?affiliate=1131&utm_source=foursquare-affiliate-network&utm_medium=affiliate&utm_campaign=1131&utm_content=1013870", "provider": {"name": "seamless", "icon": {"prefix": "https://fastly.4sqi.net/img/general/cap/", "sizes": [40, 50], "name": "/delivery_provider_seamless_20180129.png"}}}, "photos": {"count": 0, "groups": []}}, "referralId": "e-0-4bff04f8480eef3b4d6a9e7f-21"}, {"reasons": {"count": 0, "items": [{"summary": "This spot is popular", "type": "general", "reasonName": "globalInteractionReason"}]}, "venue": {"id": "4b951b8af964a520798f34e3", "name": "Skin Institute of New York", "location": {"lat": 40.627033, "lng": -74.02649224000001, "labeledLatLngs": [{"label": "display", "lat": 40.627033, "lng": -74.02649224000001}], "distance": 374, "cc": "US", "state": "New York", "country": "United States", "formattedAddress": ["New York", "United States"]}, "categories": [{"id": "4bf58dd8d48988d1ed941735", "name": "Spa", "pluralName": "Spas", "shortName": "Spa", "icon": {"prefix": "https://ss3.4sqi.net/img/categories_v2/shops/spa_", "suffix": ".png"}, "primary": true}], "photos": {"count": 0, "groups": []}}, "referralId": "e-0-4b951b8af964a520798f34e3-22"}, {"reasons": {"count": 0, "items": [{"summary": "This spot is popular", "type": "general", "reasonName": "globalInteractionReason"}]}, "venue": {"id": "51d8a6428bbdc567c9a2442b", "name": "Nonno's Pizza", "location": {"address": "8816 3rd Ave", "crossStreet": "Btwn 88th and 89th Street", "lat": 40.62164967557811, "lng": -74.03185368050534, "labeledLatLngs": [{"label": "display", "lat": 40.62164967557811, "lng": -74.03185368050534}], "distance": 473, "postalCode": "11209", "cc": "US", "city": "Brooklyn", "state": "NY", "country": "United States", "formattedAddress": ["8816 3rd Ave (Btwn 88th and 89th Street)", "Brooklyn, NY 11209", "United States"]}, "categories": [{"id": "4bf58dd8d48988d1ca941735", "name": "Pizza Place", "pluralName": "Pizza Places", "shortName": "Pizza", "icon": {"prefix": "https://ss3.4sqi.net/img/categories_v2/food/pizza_", "suffix": ".png"}, "primary": true}], "delivery": {"id": "286595", "url": "https://www.seamless.com/menu/nonnos-pizza-8816-3rd-ave-brooklyn/286595?affiliate=1131&utm_source=foursquare-affiliate-network&utm_medium=affiliate&utm_campaign=1131&utm_content=286595", "provider": {"name": "seamless", "icon": {"prefix": "https://fastly.4sqi.net/img/general/cap/", "sizes": [40, 50], "name": "/delivery_provider_seamless_20180129.png"}}}, "photos": {"count": 0, "groups": []}}, "referralId": "e-0-51d8a6428bbdc567c9a2442b-23"}, {"reasons": {"count": 0, "items": [{"summary": "This spot is popular", "type": "general", "reasonName": "globalInteractionReason"}]}, "venue": {"id": "4b6f03f5f964a52004d72ce3", "name": "Greenhouse Cafe", "location": {"address": "7717 3rd Ave", "crossStreet": "btwn 77th & 78th St", "lat": 40.62954152835763, "lng": -74.02851357046862, "labeledLatLngs": [{"label": "display", "lat": 40.62954152835763, "lng": -74.02851357046862}, {"label": "entrance", "lat": 40.629557, "lng": -74.028422}], "distance": 452, "postalCode": "11209", "cc": "US", "city": "Brooklyn", "state": "NY", "country": "United States", "formattedAddress": ["7717 3rd Ave (btwn 77th & 78th St)", "Brooklyn, NY 11209", "United States"]}, "categories": [{"id": "4bf58dd8d48988d14e941735", "name": "American Restaurant", "pluralName": "American Restaurants", "shortName": "American", "icon": {"prefix": "https://ss3.4sqi.net/img/categories_v2/food/default_", "suffix": ".png"}, "primary": true}], "photos": {"count": 0, "groups": []}, "venuePage": {"id": "90988173"}}, "referralId": "e-0-4b6f03f5f964a52004d72ce3-24"}, {"reasons": {"count": 0, "items": [{"summary": "This spot is popular", "type": "general", "reasonName": "globalInteractionReason"}]}, "venue": {"id": "5553702c498ecb85f99d8f37", "name": "XIN", "location": {"address": "8320 3rd Ave", "lat": 40.62508203621133, "lng": -74.0304936920825, "labeledLatLngs": [{"label": "display", "lat": 40.62508203621133, "lng": -74.0304936920825}, {"label": "entrance", "lat": 40.625159, "lng": -74.030522}], "distance": 80, "postalCode": "11209", "cc": "US", "city": "Brooklyn", "state": "NY", "country": "United States", "formattedAddress": ["8320 3rd Ave", "Brooklyn, NY 11209", "United States"]}, "categories": [{"id": "4bf58dd8d48988d145941735", "name": "Chinese Restaurant", "pluralName": "Chinese Restaurants", "shortName": "Chinese", "icon": {"prefix": "https://ss3.4sqi.net/img/categories_v2/food/asian_", "suffix": ".png"}, "primary": true}], "delivery": {"id": "326915", "url": "https://www.seamless.com/menu/xin-restaurant-8320-3rd-ave-brooklyn/326915?affiliate=1131&utm_source=foursquare-affiliate-network&utm_medium=affiliate&utm_campaign=1131&utm_content=326915", "provider": {"name": "seamless", "icon": {"prefix": "https://fastly.4sqi.net/img/general/cap/", "sizes": [40, 50], "name": "/delivery_provider_seamless_20180129.png"}}}, "photos": {"count": 0, "groups": []}}, "referralId": "e-0-5553702c498ecb85f99d8f37-25"}, {"reasons": {"count": 0, "items": [{"summary": "This spot is popular", "type": "general", "reasonName": "globalInteractionReason"}]}, "venue": {"id": "58fa85be98fbfc397bafe21f", "name": "Blue Door Souvlakia", "location": {"address": "8413 3rd Ave", "lat": 40.624567, "lng": -74.030311, "labeledLatLngs": [{"label": "display", "lat": 40.624567, "lng": -74.030311}, {"label": "entrance", "lat": 40.624609, "lng": -74.030439}], "distance": 139, "postalCode": "11209", "cc": "US", "city": "Brooklyn", "state": "NY", "country": "United States", "formattedAddress": ["8413 3rd Ave", "Brooklyn, NY 11209", "United States"]}, "categories": [{"id": "4bf58dd8d48988d10e941735", "name": "Greek Restaurant", "pluralName": "Greek Restaurants", "shortName": "Greek", "icon": {"prefix": "https://ss3.4sqi.net/img/categories_v2/food/greek_", "suffix": ".png"}, "primary": true}], "delivery": {"id": "517864", "url": "https://www.seamless.com/menu/blue-door-souvlakia-8413-3rd-ave-brooklyn/517864?affiliate=1131&utm_source=foursquare-affiliate-network&utm_medium=affiliate&utm_campaign=1131&utm_content=517864", "provider": {"name": "seamless", "icon": {"prefix": "https://fastly.4sqi.net/img/general/cap/", "sizes": [40, 50], "name": "/delivery_provider_seamless_20180129.png"}}}, "photos": {"count": 0, "groups": []}, "venuePage": {"id": "428671635"}}, "referralId": "e-0-58fa85be98fbfc397bafe21f-26"}, {"reasons": {"count": 0, "items": [{"summary": "This spot is popular", "type": "general", "reasonName": "globalInteractionReason"}]}, "venue": {"id": "4dd0582622718eed7a67df6c", "name": "Uncle Louie G's", "location": {"address": "8702 3rd Ave", "crossStreet": "87th Street", "lat": 40.62278367167344, "lng": -74.03141415087794, "labeledLatLngs": [{"label": "display", "lat": 40.62278367167344, "lng": -74.03141415087794}], "distance": 342, "postalCode": "11209", "cc": "US", "city": "Brooklyn", "state": "NY", "country": "United States", "formattedAddress": ["8702 3rd Ave (87th Street)", "Brooklyn, NY 11209", "United States"]}, "categories": [{"id": "4bf58dd8d48988d1c9941735", "name": "Ice Cream Shop", "pluralName": "Ice Cream Shops", "shortName": "Ice Cream", "icon": {"prefix": "https://ss3.4sqi.net/img/categories_v2/food/icecream_", "suffix": ".png"}, "primary": true}], "photos": {"count": 0, "groups": []}}, "referralId": "e-0-4dd0582622718eed7a67df6c-27"}, {"reasons": {"count": 0, "items": [{"summary": "This spot is popular", "type": "general", "reasonName": "globalInteractionReason"}]}, "venue": {"id": "4b0f1505f964a520f45e23e3", "name": "Chadwick's Restaurant", "location": {"address": "8822 3rd Ave", "crossStreet": "3rd Ave", "lat": 40.621449623364306, "lng": -74.03196395076446, "labeledLatLngs": [{"label": "display", "lat": 40.621449623364306, "lng": -74.03196395076446}, {"label": "entrance", "lat": 40.621556, "lng": -74.031995}], "distance": 497, "postalCode": "11209", "cc": "US", "city": "Brooklyn", "state": "NY", "country": "United States", "formattedAddress": ["8822 3rd Ave (3rd Ave)", "Brooklyn, NY 11209", "United States"]}, "categories": [{"id": "4bf58dd8d48988d14e941735", "name": "American Restaurant", "pluralName": "American Restaurants", "shortName": "American", "icon": {"prefix": "https://ss3.4sqi.net/img/categories_v2/food/default_", "suffix": ".png"}, "primary": true}], "photos": {"count": 0, "groups": []}}, "referralId": "e-0-4b0f1505f964a520f45e23e3-28"}, {"reasons": {"count": 0, "items": [{"summary": "This spot is popular", "type": "general", "reasonName": "globalInteractionReason"}]}, "venue": {"id": "4c411331d691c9b6aa4a8c0a", "name": "Lamoza Hookah Lounge", "location": {"address": "7704 3rd Ave", "crossStreet": "at 77th St.", "lat": 40.62986503444392, "lng": -74.02849452703252, "labeledLatLngs": [{"label": "display", "lat": 40.62986503444392, "lng": -74.02849452703252}, {"label": "entrance", "lat": 40.629887, "lng": -74.028583}], "distance": 486, "postalCode": "11209", "cc": "US", "city": "Brooklyn", "state": "NY", "country": "United States", "formattedAddress": ["7704 3rd Ave (at 77th St.)", "Brooklyn, NY 11209", "United States"]}, "categories": [{"id": "4bf58dd8d48988d119941735", "name": "Hookah Bar", "pluralName": "Hookah Bars", "shortName": "Hookah Bar", "icon": {"prefix": "https://ss3.4sqi.net/img/categories_v2/nightlife/hookahbar_", "suffix": ".png"}, "primary": true}], "photos": {"count": 0, "groups": []}, "venuePage": {"id": "67630979"}}, "referralId": "e-0-4c411331d691c9b6aa4a8c0a-29"}, {"reasons": {"count": 0, "items": [{"summary": "This spot is popular", "type": "general", "reasonName": "globalInteractionReason"}]}, "venue": {"id": "4d3c71cafb4c5481718cd414", "name": "The Green Spa and Wellness Center", "location": {"address": "8804 3rd Ave", "lat": 40.62184635702681, "lng": -74.0316708383994, "labeledLatLngs": [{"label": "display", "lat": 40.62184635702681, "lng": -74.0316708383994}, {"label": "entrance", "lat": 40.621924, "lng": -74.031844}], "distance": 449, "postalCode": "11209", "cc": "US", "city": "Brooklyn", "state": "NY", "country": "United States", "formattedAddress": ["8804 3rd Ave", "Brooklyn, NY 11209", "United States"]}, "categories": [{"id": "4bf58dd8d48988d1ed941735", "name": "Spa", "pluralName": "Spas", "shortName": "Spa", "icon": {"prefix": "https://ss3.4sqi.net/img/categories_v2/shops/spa_", "suffix": ".png"}, "primary": true}], "photos": {"count": 0, "groups": []}}, "referralId": "e-0-4d3c71cafb4c5481718cd414-30"}, {"reasons": {"count": 0, "items": [{"summary": "This spot is popular", "type": "general", "reasonName": "globalInteractionReason"}]}, "venue": {"id": "4a7e205ef964a52012f11fe3", "name": "Sofia Restorante Italiano", "location": {"address": "8406 3rd Ave", "crossStreet": "Betw. 84th & 85th St.", "lat": 40.62484745920055, "lng": -74.03052232818622, "labeledLatLngs": [{"label": "display", "lat": 40.62484745920055, "lng": -74.03052232818622}], "distance": 106, "postalCode": "11209", "cc": "US", "city": "Brooklyn", "state": "NY", "country": "United States", "formattedAddress": ["8406 3rd Ave (Betw. 84th & 85th St.)", "Brooklyn, NY 11209", "United States"]}, "categories": [{"id": "4bf58dd8d48988d110941735", "name": "Italian Restaurant", "pluralName": "Italian Restaurants", "shortName": "Italian", "icon": {"prefix": "https://ss3.4sqi.net/img/categories_v2/food/italian_", "suffix": ".png"}, "primary": true}], "photos": {"count": 0, "groups": []}}, "referralId": "e-0-4a7e205ef964a52012f11fe3-31"}, {"reasons": {"count": 0, "items": [{"summary": "This spot is popular", "type": "general", "reasonName": "globalInteractionReason"}]}, "venue": {"id": "57f4f80ecd105476c3631bf1", "name": "Coffee Rx", "location": {"address": "276 88th St", "lat": 40.62211486513489, "lng": -74.03190841796363, "labeledLatLngs": [{"label": "display", "lat": 40.62211486513489, "lng": -74.03190841796363}, {"label": "entrance", "lat": 40.622039, "lng": -74.031964}], "distance": 424, "cc": "US", "city": "Brooklyn", "state": "NY", "country": "United States", "formattedAddress": ["276 88th St", "Brooklyn, NY", "United States"]}, "categories": [{"id": "4bf58dd8d48988d16d941735", "name": "Caf\u00e9", "pluralName": "Caf\u00e9s", "shortName": "Caf\u00e9", "icon": {"prefix": "https://ss3.4sqi.net/img/categories_v2/food/cafe_", "suffix": ".png"}, "primary": true}], "photos": {"count": 0, "groups": []}}, "referralId": "e-0-57f4f80ecd105476c3631bf1-32"}, {"reasons": {"count": 0, "items": [{"summary": "This spot is popular", "type": "general", "reasonName": "globalInteractionReason"}]}, "venue": {"id": "50e8d45ae4b06202fbe39b08", "name": "Top Thai", "location": {"address": "4th Ave.", "crossStreet": "85th St.", "lat": 40.62323607887372, "lng": -74.02817264059682, "labeledLatLngs": [{"label": "display", "lat": 40.62323607887372, "lng": -74.02817264059682}, {"label": "entrance", "lat": 40.62333, "lng": -74.028327}], "distance": 352, "postalCode": "11209", "cc": "US", "city": "Brooklyn", "state": "NY", "country": "United States", "formattedAddress": ["4th Ave. (85th St.)", "Brooklyn, NY 11209", "United States"]}, "categories": [{"id": "4bf58dd8d48988d149941735", "name": "Thai Restaurant", "pluralName": "Thai Restaurants", "shortName": "Thai", "icon": {"prefix": "https://ss3.4sqi.net/img/categories_v2/food/thai_", "suffix": ".png"}, "primary": true}], "delivery": {"id": "272608", "url": "https://www.seamless.com/menu/top-thai-8510-4th-ave-brooklyn/272608?affiliate=1131&utm_source=foursquare-affiliate-network&utm_medium=affiliate&utm_campaign=1131&utm_content=272608", "provider": {"name": "seamless", "icon": {"prefix": "https://fastly.4sqi.net/img/general/cap/", "sizes": [40, 50], "name": "/delivery_provider_seamless_20180129.png"}}}, "photos": {"count": 0, "groups": []}}, "referralId": "e-0-50e8d45ae4b06202fbe39b08-33"}, {"reasons": {"count": 0, "items": [{"summary": "This spot is popular", "type": "general", "reasonName": "globalInteractionReason"}]}, "venue": {"id": "519432c7498eae4af99449fd", "name": "Inaka", "location": {"address": "8318 3rd Ave", "crossStreet": "Between 83rd & 84th Streets", "lat": 40.625140559775616, "lng": -74.03041782134507, "labeledLatLngs": [{"label": "display", "lat": 40.625140559775616, "lng": -74.03041782134507}], "distance": 75, "postalCode": "11209", "cc": "US", "city": "Brooklyn", "state": "NY", "country": "United States", "formattedAddress": ["8318 3rd Ave (Between 83rd & 84th Streets)", "Brooklyn, NY 11209", "United States"]}, "categories": [{"id": "4bf58dd8d48988d1d2941735", "name": "Sushi Restaurant", "pluralName": "Sushi Restaurants", "shortName": "Sushi", "icon": {"prefix": "https://ss3.4sqi.net/img/categories_v2/food/sushi_", "suffix": ".png"}, "primary": true}], "photos": {"count": 0, "groups": []}}, "referralId": "e-0-519432c7498eae4af99449fd-34"}, {"reasons": {"count": 0, "items": [{"summary": "This spot is popular", "type": "general", "reasonName": "globalInteractionReason"}]}, "venue": {"id": "4fc7b2e7e4b06e4ecff13da1", "name": "Latoue Nail Spa", "location": {"lat": 40.6262390783683, "lng": -74.03001544766258, "labeledLatLngs": [{"label": "display", "lat": 40.6262390783683, "lng": -74.03001544766258}, {"label": "entrance", "lat": 40.62619, "lng": -74.030101}], "distance": 70, "postalCode": "11209", "cc": "US", "city": "Brooklyn", "state": "NY", "country": "United States", "formattedAddress": ["Brooklyn, NY 11209", "United States"]}, "categories": [{"id": "4bf58dd8d48988d1ed941735", "name": "Spa", "pluralName": "Spas", "shortName": "Spa", "icon": {"prefix": "https://ss3.4sqi.net/img/categories_v2/shops/spa_", "suffix": ".png"}, "primary": true}], "photos": {"count": 0, "groups": []}}, "referralId": "e-0-4fc7b2e7e4b06e4ecff13da1-35"}, {"reasons": {"count": 0, "items": [{"summary": "This spot is popular", "type": "general", "reasonName": "globalInteractionReason"}]}, "venue": {"id": "42accc80f964a52036251fe3", "name": "The Pearl Room", "location": {"address": "8518 3rd Ave", "crossStreet": "at 82nd St", "lat": 40.62393563143695, "lng": -74.03097905585743, "labeledLatLngs": [{"label": "display", "lat": 40.62393563143695, "lng": -74.03097905585743}, {"label": "entrance", "lat": 40.623931, "lng": -74.03102}], "distance": 209, "postalCode": "11209", "cc": "US", "city": "Brooklyn", "state": "NY", "country": "United States", "formattedAddress": ["8518 3rd Ave (at 82nd St)", "Brooklyn, NY 11209", "United States"]}, "categories": [{"id": "4bf58dd8d48988d1ce941735", "name": "Seafood Restaurant", "pluralName": "Seafood Restaurants", "shortName": "Seafood", "icon": {"prefix": "https://ss3.4sqi.net/img/categories_v2/food/seafood_", "suffix": ".png"}, "primary": true}], "delivery": {"id": "559495", "url": "https://www.seamless.com/menu/the-pearl-room-8518-3rd-ave-brooklyn/559495?affiliate=1131&utm_source=foursquare-affiliate-network&utm_medium=affiliate&utm_campaign=1131&utm_content=559495", "provider": {"name": "seamless", "icon": {"prefix": "https://fastly.4sqi.net/img/general/cap/", "sizes": [40, 50], "name": "/delivery_provider_seamless_20180129.png"}}}, "photos": {"count": 0, "groups": []}, "venuePage": {"id": "146331140"}}, "referralId": "e-0-42accc80f964a52036251fe3-36"}, {"reasons": {"count": 0, "items": [{"summary": "This spot is popular", "type": "general", "reasonName": "globalInteractionReason"}]}, "venue": {"id": "510d519ce4b0809a833ffc9e", "name": "Kathy's Dumplings", "location": {"address": "7924 3rd Ave", "lat": 40.627893600787424, "lng": -74.02927534109664, "labeledLatLngs": [{"label": "display", "lat": 40.627893600787424, "lng": -74.02927534109664}], "distance": 259, "postalCode": "11209", "cc": "US", "city": "Brooklyn", "state": "NY", "country": "United States", "formattedAddress": ["7924 3rd Ave", "Brooklyn, NY 11209", "United States"]}, "categories": [{"id": "4bf58dd8d48988d1f5931735", "name": "Dim Sum Restaurant", "pluralName": "Dim Sum Restaurants", "shortName": "Dim Sum", "icon": {"prefix": "https://ss3.4sqi.net/img/categories_v2/food/dimsum_", "suffix": ".png"}, "primary": true}], "delivery": {"id": "813532", "url": "https://www.seamless.com/menu/kathys-dumplings-7924-3rd-ave-brooklyn/813532?affiliate=1131&utm_source=foursquare-affiliate-network&utm_medium=affiliate&utm_campaign=1131&utm_content=813532", "provider": {"name": "seamless", "icon": {"prefix": "https://fastly.4sqi.net/img/general/cap/", "sizes": [40, 50], "name": "/delivery_provider_seamless_20180129.png"}}}, "photos": {"count": 0, "groups": []}, "venuePage": {"id": "76453254"}}, "referralId": "e-0-510d519ce4b0809a833ffc9e-37"}, {"reasons": {"count": 0, "items": [{"summary": "This spot is popular", "type": "general", "reasonName": "globalInteractionReason"}]}, "venue": {"id": "4bbe4ea96a93b7135712ebd2", "name": "Pink & White Nails", "location": {"address": "8705 3rd Ave", "lat": 40.622532797931896, "lng": -74.03146307176664, "labeledLatLngs": [{"label": "display", "lat": 40.622532797931896, "lng": -74.03146307176664}, {"label": "entrance", "lat": 40.622487, "lng": -74.031306}], "distance": 370, "postalCode": "11209", "cc": "US", "city": "Brooklyn", "state": "NY", "country": "United States", "formattedAddress": ["8705 3rd Ave", "Brooklyn, NY 11209", "United States"]}, "categories": [{"id": "4bf58dd8d48988d1ed941735", "name": "Spa", "pluralName": "Spas", "shortName": "Spa", "icon": {"prefix": "https://ss3.4sqi.net/img/categories_v2/shops/spa_", "suffix": ".png"}, "primary": true}], "photos": {"count": 0, "groups": []}}, "referralId": "e-0-4bbe4ea96a93b7135712ebd2-38"}, {"reasons": {"count": 0, "items": [{"summary": "This spot is popular", "type": "general", "reasonName": "globalInteractionReason"}]}, "venue": {"id": "4ad62c95f964a5208d0521e3", "name": "Zio Toto", "location": {"address": "8407 3rd Ave", "crossStreet": "btwn 84th & 85th St", "lat": 40.62479085034183, "lng": -74.03055087900958, "labeledLatLngs": [{"label": "display", "lat": 40.62479085034183, "lng": -74.03055087900958}], "distance": 112, "postalCode": "11209", "cc": "US", "city": "Brooklyn", "state": "NY", "country": "United States", "formattedAddress": ["8407 3rd Ave (btwn 84th & 85th St)", "Brooklyn, NY 11209", "United States"]}, "categories": [{"id": "4bf58dd8d48988d110941735", "name": "Italian Restaurant", "pluralName": "Italian Restaurants", "shortName": "Italian", "icon": {"prefix": "https://ss3.4sqi.net/img/categories_v2/food/italian_", "suffix": ".png"}, "primary": true}], "delivery": {"id": "1162205", "url": "https://www.seamless.com/menu/zio-toto-8407-3rd-ave-brooklyn/1162205?affiliate=1131&utm_source=foursquare-affiliate-network&utm_medium=affiliate&utm_campaign=1131&utm_content=1162205", "provider": {"name": "seamless", "icon": {"prefix": "https://fastly.4sqi.net/img/general/cap/", "sizes": [40, 50], "name": "/delivery_provider_seamless_20180129.png"}}}, "photos": {"count": 0, "groups": []}, "venuePage": {"id": "73152660"}}, "referralId": "e-0-4ad62c95f964a5208d0521e3-39"}, {"reasons": {"count": 0, "items": [{"summary": "This spot is popular", "type": "general", "reasonName": "globalInteractionReason"}]}, "venue": {"id": "4e732dff45dd41e9ccce1987", "name": "Giacomo's Wood Fired Pizza & Trattoria", "location": {"address": "7902 3rd Ave", "lat": 40.62853486510589, "lng": -74.02905124266296, "labeledLatLngs": [{"label": "display", "lat": 40.62853486510589, "lng": -74.02905124266296}, {"label": "entrance", "lat": 40.628483, "lng": -74.029154}], "distance": 331, "postalCode": "11209", "cc": "US", "city": "Staten Island", "state": "NY", "country": "United States", "formattedAddress": ["7902 3rd Ave", "Staten Island, NY 11209", "United States"]}, "categories": [{"id": "4bf58dd8d48988d110941735", "name": "Italian Restaurant", "pluralName": "Italian Restaurants", "shortName": "Italian", "icon": {"prefix": "https://ss3.4sqi.net/img/categories_v2/food/italian_", "suffix": ".png"}, "primary": true}], "delivery": {"id": "1186622", "url": "https://www.seamless.com/menu/lulianos-wood-fired-pizza-7902-3rd-ave-brooklyn/1186622?affiliate=1131&utm_source=foursquare-affiliate-network&utm_medium=affiliate&utm_campaign=1131&utm_content=1186622", "provider": {"name": "seamless", "icon": {"prefix": "https://fastly.4sqi.net/img/general/cap/", "sizes": [40, 50], "name": "/delivery_provider_seamless_20180129.png"}}}, "photos": {"count": 0, "groups": []}}, "referralId": "e-0-4e732dff45dd41e9ccce1987-40"}, {"reasons": {"count": 0, "items": [{"summary": "This spot is popular", "type": "general", "reasonName": "globalInteractionReason"}]}, "venue": {"id": "4b92e9b0f964a520742634e3", "name": "Kaleidoscope Toy Store", "location": {"address": "8722 3rd Ave", "lat": 40.622179846597675, "lng": -74.03164945621701, "labeledLatLngs": [{"label": "display", "lat": 40.622179846597675, "lng": -74.03164945621701}, {"label": "entrance", "lat": 40.622238, "lng": -74.031717}], "distance": 412, "postalCode": "11209", "cc": "US", "city": "Brooklyn", "state": "NY", "country": "United States", "formattedAddress": ["8722 3rd Ave", "Brooklyn, NY 11209", "United States"]}, "categories": [{"id": "4bf58dd8d48988d1f3941735", "name": "Toy / Game Store", "pluralName": "Toy / Game Stores", "shortName": "Toys & Games", "icon": {"prefix": "https://ss3.4sqi.net/img/categories_v2/shops/toys_", "suffix": ".png"}, "primary": true}], "photos": {"count": 0, "groups": []}, "venuePage": {"id": "60944063"}}, "referralId": "e-0-4b92e9b0f964a520742634e3-41"}, {"reasons": {"count": 0, "items": [{"summary": "This spot is popular", "type": "general", "reasonName": "globalInteractionReason"}]}, "venue": {"id": "4d4aff01b73fb1f74eb1b732", "name": "DII (Deals and Discounts Store #29)", "location": {"address": "8701 4th Ave", "lat": 40.621941586790875, "lng": -74.02866517672703, "labeledLatLngs": [{"label": "display", "lat": 40.621941586790875, "lng": -74.02866517672703}], "distance": 460, "postalCode": "11209", "cc": "US", "city": "Brooklyn", "state": "NY", "country": "United States", "formattedAddress": ["8701 4th Ave", "Brooklyn, NY 11209", "United States"]}, "categories": [{"id": "4bf58dd8d48988d1f6941735", "name": "Department Store", "pluralName": "Department Stores", "shortName": "Department Store", "icon": {"prefix": "https://ss3.4sqi.net/img/categories_v2/shops/departmentstore_", "suffix": ".png"}, "primary": true}], "photos": {"count": 0, "groups": []}}, "referralId": "e-0-4d4aff01b73fb1f74eb1b732-42"}, {"reasons": {"count": 0, "items": [{"summary": "This spot is popular", "type": "general", "reasonName": "globalInteractionReason"}]}, "venue": {"id": "5796884c498eef49acc7f06e", "name": "Lobo Loco", "location": {"address": "3rd ave", "crossStreet": "86th street", "lat": 40.62356257001225, "lng": -74.03104678221119, "labeledLatLngs": [{"label": "display", "lat": 40.62356257001225, "lng": -74.03104678221119}], "distance": 251, "postalCode": "11209", "cc": "US", "city": "Brooklyn", "state": "NY", "country": "United States", "formattedAddress": ["3rd ave (86th street)", "Brooklyn, NY 11209", "United States"]}, "categories": [{"id": "4bf58dd8d48988d1c1941735", "name": "Mexican Restaurant", "pluralName": "Mexican Restaurants", "shortName": "Mexican", "icon": {"prefix": "https://ss3.4sqi.net/img/categories_v2/food/mexican_", "suffix": ".png"}, "primary": true}], "photos": {"count": 0, "groups": []}}, "referralId": "e-0-5796884c498eef49acc7f06e-43"}, {"reasons": {"count": 0, "items": [{"summary": "This spot is popular", "type": "general", "reasonName": "globalInteractionReason"}]}, "venue": {"id": "4a9f1f91f964a5209b3c20e3", "name": "Cebu' Bar & Bistro", "location": {"address": "8801 3rd Ave", "crossStreet": "at 88th St", "lat": 40.62181234249646, "lng": -74.03172698590136, "labeledLatLngs": [{"label": "display", "lat": 40.62181234249646, "lng": -74.03172698590136}, {"label": "entrance", "lat": 40.62191, "lng": -74.031542}], "distance": 453, "postalCode": "11209", "cc": "US", "city": "Brooklyn", "state": "NY", "country": "United States", "formattedAddress": ["8801 3rd Ave (at 88th St)", "Brooklyn, NY 11209", "United States"]}, "categories": [{"id": "4bf58dd8d48988d157941735", "name": "New American Restaurant", "pluralName": "New American Restaurants", "shortName": "New American", "icon": {"prefix": "https://ss3.4sqi.net/img/categories_v2/food/newamerican_", "suffix": ".png"}, "primary": true}], "delivery": {"id": "321014", "url": "https://www.seamless.com/menu/cebu-bistro-8801-3rd-ave-brooklyn/321014?affiliate=1131&utm_source=foursquare-affiliate-network&utm_medium=affiliate&utm_campaign=1131&utm_content=321014", "provider": {"name": "seamless", "icon": {"prefix": "https://fastly.4sqi.net/img/general/cap/", "sizes": [40, 50], "name": "/delivery_provider_seamless_20180129.png"}}}, "photos": {"count": 0, "groups": []}, "venuePage": {"id": "81894946"}}, "referralId": "e-0-4a9f1f91f964a5209b3c20e3-44"}, {"reasons": {"count": 0, "items": [{"summary": "This spot is popular", "type": "general", "reasonName": "globalInteractionReason"}]}, "venue": {"id": "4a5beec3f964a52006bc1fe3", "name": "86 Noodles", "location": {"address": "8608 4th Ave", "crossStreet": "86th St.", "lat": 40.622572519884045, "lng": -74.02842260569763, "labeledLatLngs": [{"label": "display", "lat": 40.622572519884045, "lng": -74.02842260569763}, {"label": "entrance", "lat": 40.622597, "lng": -74.028627}], "distance": 404, "postalCode": "11209", "cc": "US", "city": "Brooklyn", "state": "NY", "country": "United States", "formattedAddress": ["8608 4th Ave (86th St.)", "Brooklyn, NY 11209", "United States"]}, "categories": [{"id": "4bf58dd8d48988d145941735", "name": "Chinese Restaurant", "pluralName": "Chinese Restaurants", "shortName": "Chinese", "icon": {"prefix": "https://ss3.4sqi.net/img/categories_v2/food/asian_", "suffix": ".png"}, "primary": true}], "photos": {"count": 0, "groups": []}}, "referralId": "e-0-4a5beec3f964a52006bc1fe3-45"}, {"reasons": {"count": 0, "items": [{"summary": "This spot is popular", "type": "general", "reasonName": "globalInteractionReason"}]}, "venue": {"id": "4af861e3f964a520bc0c22e3", "name": "Pho Hoai Bay Ridge", "location": {"address": "8616 4th Ave", "crossStreet": "86th St.", "lat": 40.62237907678971, "lng": -74.02855610991112, "labeledLatLngs": [{"label": "display", "lat": 40.62237907678971, "lng": -74.02855610991112}, {"label": "entrance", "lat": 40.622388, "lng": -74.028712}], "distance": 418, "postalCode": "11209", "cc": "US", "city": "Brooklyn", "state": "NY", "country": "United States", "formattedAddress": ["8616 4th Ave (86th St.)", "Brooklyn, NY 11209", "United States"]}, "categories": [{"id": "4bf58dd8d48988d14a941735", "name": "Vietnamese Restaurant", "pluralName": "Vietnamese Restaurants", "shortName": "Vietnamese", "icon": {"prefix": "https://ss3.4sqi.net/img/categories_v2/food/vietnamese_", "suffix": ".png"}, "primary": true}], "photos": {"count": 0, "groups": []}, "venuePage": {"id": "73675407"}}, "referralId": "e-0-4af861e3f964a520bc0c22e3-46"}, {"reasons": {"count": 0, "items": [{"summary": "This spot is popular", "type": "general", "reasonName": "globalInteractionReason"}]}, "venue": {"id": "4aec784cf964a52084c721e3", "name": "GameStop", "location": {"address": "443 86th St", "crossStreet": "btwn 4th & 5th Ave", "lat": 40.622195328982905, "lng": -74.02720246900225, "labeledLatLngs": [{"label": "display", "lat": 40.622195328982905, "lng": -74.02720246900225}, {"label": "entrance", "lat": 40.622249, "lng": -74.027174}], "distance": 494, "postalCode": "11209", "cc": "US", "neighborhood": "Bay Ridge", "city": "Brooklyn", "state": "NY", "country": "United States", "formattedAddress": ["443 86th St (btwn 4th & 5th Ave)", "Brooklyn, NY 11209", "United States"]}, "categories": [{"id": "4bf58dd8d48988d10b951735", "name": "Video Game Store", "pluralName": "Video Game Stores", "shortName": "Video Games", "icon": {"prefix": "https://ss3.4sqi.net/img/categories_v2/shops/videogames_", "suffix": ".png"}, "primary": true}], "photos": {"count": 0, "groups": []}}, "referralId": "e-0-4aec784cf964a52084c721e3-47"}, {"reasons": {"count": 0, "items": [{"summary": "This spot is popular", "type": "general", "reasonName": "globalInteractionReason"}]}, "venue": {"id": "545835a1498e820edc6f636f", "name": "Bombay Grill", "location": {"address": "8716 3rd Ave", "lat": 40.622371, "lng": -74.03179899999999, "labeledLatLngs": [{"label": "display", "lat": 40.622371, "lng": -74.03179899999999}, {"label": "entrance", "lat": 40.622344, "lng": -74.031673}], "distance": 394, "postalCode": "11209", "cc": "US", "city": "Brooklyn", "state": "NY", "country": "United States", "formattedAddress": ["8716 3rd Ave", "Brooklyn, NY 11209", "United States"]}, "categories": [{"id": "4bf58dd8d48988d10f941735", "name": "Indian Restaurant", "pluralName": "Indian Restaurants", "shortName": "Indian", "icon": {"prefix": "https://ss3.4sqi.net/img/categories_v2/food/indian_", "suffix": ".png"}, "primary": true}], "delivery": {"id": "300559", "url": "https://www.seamless.com/menu/bombay-grill-8716-3rd-ave-brooklyn/300559?affiliate=1131&utm_source=foursquare-affiliate-network&utm_medium=affiliate&utm_campaign=1131&utm_content=300559", "provider": {"name": "seamless", "icon": {"prefix": "https://fastly.4sqi.net/img/general/cap/", "sizes": [40, 50], "name": "/delivery_provider_seamless_20180129.png"}}}, "photos": {"count": 0, "groups": []}}, "referralId": "e-0-545835a1498e820edc6f636f-48"}, {"reasons": {"count": 0, "items": [{"summary": "This spot is popular", "type": "general", "reasonName": "globalInteractionReason"}]}, "venue": {"id": "4bb946b253649c747eea47fb", "name": "Carvel Ice Cream", "location": {"address": "8612 3rd Ave", "lat": 40.623094645120126, "lng": -74.03124488518532, "labeledLatLngs": [{"label": "display", "lat": 40.623094645120126, "lng": -74.03124488518532}], "distance": 305, "postalCode": "11209", "cc": "US", "city": "Brooklyn", "state": "NY", "country": "United States", "formattedAddress": ["8612 3rd Ave", "Brooklyn, NY 11209", "United States"]}, "categories": [{"id": "4bf58dd8d48988d1c9941735", "name": "Ice Cream Shop", "pluralName": "Ice Cream Shops", "shortName": "Ice Cream", "icon": {"prefix": "https://ss3.4sqi.net/img/categories_v2/food/icecream_", "suffix": ".png"}, "primary": true}], "photos": {"count": 0, "groups": []}}, "referralId": "e-0-4bb946b253649c747eea47fb-49"}, {"reasons": {"count": 0, "items": [{"summary": "This spot is popular", "type": "general", "reasonName": "globalInteractionReason"}]}, "venue": {"id": "4dc4ca87d4c0ad9c0f786b0c", "name": "The Pour House of Bay Ridge", "location": {"address": "7901 3rd Ave", "lat": 40.62851661943293, "lng": -74.0289634772342, "labeledLatLngs": [{"label": "display", "lat": 40.62851661943293, "lng": -74.0289634772342}], "distance": 333, "postalCode": "11209", "cc": "US", "city": "Brooklyn", "state": "NY", "country": "United States", "formattedAddress": ["7901 3rd Ave", "Brooklyn, NY 11209", "United States"]}, "categories": [{"id": "4bf58dd8d48988d116941735", "name": "Bar", "pluralName": "Bars", "shortName": "Bar", "icon": {"prefix": "https://ss3.4sqi.net/img/categories_v2/nightlife/pub_", "suffix": ".png"}, "primary": true}], "photos": {"count": 0, "groups": []}, "venuePage": {"id": "67630563"}}, "referralId": "e-0-4dc4ca87d4c0ad9c0f786b0c-50"}, {"reasons": {"count": 0, "items": [{"summary": "This spot is popular", "type": "general", "reasonName": "globalInteractionReason"}]}, "venue": {"id": "4bc09001461576b0ee487a32", "name": "H & L Bagels", "location": {"address": "8818 3rd Ave", "lat": 40.621624684758785, "lng": -74.03183112853934, "labeledLatLngs": [{"label": "display", "lat": 40.621624684758785, "lng": -74.03183112853934}, {"label": "entrance", "lat": 40.621608, "lng": -74.031973}], "distance": 476, "postalCode": "11209", "cc": "US", "city": "Brooklyn", "state": "NY", "country": "United States", "formattedAddress": ["8818 3rd Ave", "Brooklyn, NY 11209", "United States"]}, "categories": [{"id": "4bf58dd8d48988d179941735", "name": "Bagel Shop", "pluralName": "Bagel Shops", "shortName": "Bagels", "icon": {"prefix": "https://ss3.4sqi.net/img/categories_v2/food/bagels_", "suffix": ".png"}, "primary": true}], "photos": {"count": 0, "groups": []}}, "referralId": "e-0-4bc09001461576b0ee487a32-51"}, {"reasons": {"count": 0, "items": [{"summary": "This spot is popular", "type": "general", "reasonName": "globalInteractionReason"}]}, "venue": {"id": "4bb7c65e53649c74ca4146fb", "name": "Plaka Taverna", "location": {"address": "406 86th St", "crossStreet": "4th Avenue", "lat": 40.62248624337034, "lng": -74.02846542169956, "labeledLatLngs": [{"label": "display", "lat": 40.62248624337034, "lng": -74.02846542169956}, {"label": "entrance", "lat": 40.622536, "lng": -74.02824}], "distance": 411, "postalCode": "11209", "cc": "US", "city": "Brooklyn", "state": "NY", "country": "United States", "formattedAddress": ["406 86th St (4th Avenue)", "Brooklyn, NY 11209", "United States"]}, "categories": [{"id": "4bf58dd8d48988d10e941735", "name": "Greek Restaurant", "pluralName": "Greek Restaurants", "shortName": "Greek", "icon": {"prefix": "https://ss3.4sqi.net/img/categories_v2/food/greek_", "suffix": ".png"}, "primary": true}], "photos": {"count": 0, "groups": []}}, "referralId": "e-0-4bb7c65e53649c74ca4146fb-52"}, {"reasons": {"count": 0, "items": [{"summary": "This spot is popular", "type": "general", "reasonName": "globalInteractionReason"}]}, "venue": {"id": "4a73a072f964a520fbdc1fe3", "name": "Omiya", "location": {"address": "8618 4th Ave", "crossStreet": "Betw. 86th & 87th St.", "lat": 40.622329157515146, "lng": -74.02857550374559, "labeledLatLngs": [{"label": "display", "lat": 40.622329157515146, "lng": -74.02857550374559}, {"label": "entrance", "lat": 40.622336, "lng": -74.028733}], "distance": 423, "postalCode": "11209", "cc": "US", "city": "Brooklyn", "state": "NY", "country": "United States", "formattedAddress": ["8618 4th Ave (Betw. 86th & 87th St.)", "Brooklyn, NY 11209", "United States"]}, "categories": [{"id": "4bf58dd8d48988d1d2941735", "name": "Sushi Restaurant", "pluralName": "Sushi Restaurants", "shortName": "Sushi", "icon": {"prefix": "https://ss3.4sqi.net/img/categories_v2/food/sushi_", "suffix": ".png"}, "primary": true}], "delivery": {"id": "305796", "url": "https://www.seamless.com/menu/omiya-japanese-restaurant-8618-4th-ave-brooklyn/305796?affiliate=1131&utm_source=foursquare-affiliate-network&utm_medium=affiliate&utm_campaign=1131&utm_content=305796", "provider": {"name": "seamless", "icon": {"prefix": "https://fastly.4sqi.net/img/general/cap/", "sizes": [40, 50], "name": "/delivery_provider_seamless_20180129.png"}}}, "photos": {"count": 0, "groups": []}}, "referralId": "e-0-4a73a072f964a520fbdc1fe3-53"}, {"reasons": {"count": 0, "items": [{"summary": "This spot is popular", "type": "general", "reasonName": "globalInteractionReason"}]}, "venue": {"id": "55257261498e10153680e3b8", "name": "Victoria's Secret", "location": {"address": "447 86th St", "crossStreet": "86th Street between 4th & 5th Avenues", "lat": 40.62224, "lng": -74.027033, "labeledLatLngs": [{"label": "display", "lat": 40.62224, "lng": -74.027033}, {"label": "entrance", "lat": 40.622181, "lng": -74.027061}], "distance": 499, "postalCode": "11209", "cc": "US", "city": "Brooklyn", "state": "NY", "country": "United States", "formattedAddress": ["447 86th St (86th Street between 4th & 5th Avenues)", "Brooklyn, NY 11209", "United States"]}, "categories": [{"id": "4bf58dd8d48988d109951735", "name": "Lingerie Store", "pluralName": "Lingerie Stores", "shortName": "Lingerie", "icon": {"prefix": "https://ss3.4sqi.net/img/categories_v2/shops/apparel_lingerie_", "suffix": ".png"}, "primary": true}], "photos": {"count": 0, "groups": []}}, "referralId": "e-0-55257261498e10153680e3b8-54"}, {"reasons": {"count": 0, "items": [{"summary": "This spot is popular", "type": "general", "reasonName": "globalInteractionReason"}]}, "venue": {"id": "4e3c55c9ae6045423656396d", "name": "The Children's Place", "location": {"address": "417-419 86th St", "crossStreet": "5th Ave", "lat": 40.622522679371755, "lng": -74.02771480654002, "labeledLatLngs": [{"label": "display", "lat": 40.622522679371755, "lng": -74.02771480654002}, {"label": "entrance", "lat": 40.622594, "lng": -74.027747}], "distance": 439, "postalCode": "11209", "cc": "US", "city": "Brooklyn", "state": "NY", "country": "United States", "formattedAddress": ["417-419 86th St (5th Ave)", "Brooklyn, NY 11209", "United States"]}, "categories": [{"id": "4bf58dd8d48988d105951735", "name": "Kids Store", "pluralName": "Kids Stores", "shortName": "Kids Store", "icon": {"prefix": "https://ss3.4sqi.net/img/categories_v2/shops/apparel_kids_", "suffix": ".png"}, "primary": true}], "photos": {"count": 0, "groups": []}}, "referralId": "e-0-4e3c55c9ae6045423656396d-55"}, {"reasons": {"count": 0, "items": [{"summary": "This spot is popular", "type": "general", "reasonName": "globalInteractionReason"}]}, "venue": {"id": "5145f54de4b0c11f7f74de13", "name": "Subway", "location": {"address": "8711 3rd Ave", "lat": 40.622358, "lng": -74.031248, "labeledLatLngs": [{"label": "display", "lat": 40.622358, "lng": -74.031248}, {"label": "entrance", "lat": 40.622382, "lng": -74.031348}], "distance": 386, "postalCode": "11209", "cc": "US", "city": "Brooklyn", "state": "NY", "country": "United States", "formattedAddress": ["8711 3rd Ave", "Brooklyn, NY 11209", "United States"]}, "categories": [{"id": "4bf58dd8d48988d1c5941735", "name": "Sandwich Place", "pluralName": "Sandwich Places", "shortName": "Sandwiches", "icon": {"prefix": "https://ss3.4sqi.net/img/categories_v2/food/deli_", "suffix": ".png"}, "primary": true}], "delivery": {"id": "1701731", "url": "https://www.seamless.com/menu/subway-8711-3rd-ave-brooklyn/1701731?affiliate=1131&utm_source=foursquare-affiliate-network&utm_medium=affiliate&utm_campaign=1131&utm_content=1701731", "provider": {"name": "seamless", "icon": {"prefix": "https://fastly.4sqi.net/img/general/cap/", "sizes": [40, 50], "name": "/delivery_provider_seamless_20180129.png"}}}, "photos": {"count": 0, "groups": []}}, "referralId": "e-0-5145f54de4b0c11f7f74de13-56"}, {"reasons": {"count": 0, "items": [{"summary": "This spot is popular", "type": "general", "reasonName": "globalInteractionReason"}]}, "venue": {"id": "4af5b0a0f964a5204cfb21e3", "name": "New York Sports Clubs", "location": {"address": "439 86th St", "crossStreet": "btwn 4th & 5th Ave.", "lat": 40.6223643, "lng": -74.0271629, "labeledLatLngs": [{"label": "display", "lat": 40.6223643, "lng": -74.0271629}], "distance": 481, "postalCode": "11209", "cc": "US", "city": "Brooklyn", "state": "NY", "country": "United States", "formattedAddress": ["439 86th St (btwn 4th & 5th Ave.)", "Brooklyn, NY 11209", "United States"]}, "categories": [{"id": "4bf58dd8d48988d175941735", "name": "Gym / Fitness Center", "pluralName": "Gyms or Fitness Centers", "shortName": "Gym / Fitness", "icon": {"prefix": "https://ss3.4sqi.net/img/categories_v2/building/gym_", "suffix": ".png"}, "primary": true}], "photos": {"count": 0, "groups": []}}, "referralId": "e-0-4af5b0a0f964a5204cfb21e3-57"}, {"reasons": {"count": 0, "items": [{"summary": "This spot is popular", "type": "general", "reasonName": "globalInteractionReason"}]}, "venue": {"id": "4b6481cef964a52027b92ae3", "name": "Gap Factory Store", "location": {"address": "423 86th St", "crossStreet": "btw 4th & 5th ave", "lat": 40.62247628018282, "lng": -74.02770231903379, "labeledLatLngs": [{"label": "display", "lat": 40.62247628018282, "lng": -74.02770231903379}, {"label": "entrance", "lat": 40.62253, "lng": -74.027642}], "distance": 444, "postalCode": "11209", "cc": "US", "city": "Brooklyn", "state": "NY", "country": "United States", "formattedAddress": ["423 86th St (btw 4th & 5th ave)", "Brooklyn, NY 11209", "United States"]}, "categories": [{"id": "4bf58dd8d48988d103951735", "name": "Clothing Store", "pluralName": "Clothing Stores", "shortName": "Apparel", "icon": {"prefix": "https://ss3.4sqi.net/img/categories_v2/shops/apparel_", "suffix": ".png"}, "primary": true}], "photos": {"count": 0, "groups": []}}, "referralId": "e-0-4b6481cef964a52027b92ae3-58"}, {"reasons": {"count": 0, "items": [{"summary": "This spot is popular", "type": "general", "reasonName": "globalInteractionReason"}]}, "venue": {"id": "51c07d43b5896d0c80c53690", "name": "Auntie Anne's", "location": {"address": "416 86th St", "lat": 40.622291, "lng": -74.028121, "labeledLatLngs": [{"label": "display", "lat": 40.622291, "lng": -74.028121}], "distance": 444, "postalCode": "11209", "cc": "US", "city": "Brooklyn", "state": "NY", "country": "United States", "formattedAddress": ["416 86th St", "Brooklyn, NY 11209", "United States"]}, "categories": [{"id": "4bf58dd8d48988d1c7941735", "name": "Snack Place", "pluralName": "Snack Places", "shortName": "Snacks", "icon": {"prefix": "https://ss3.4sqi.net/img/categories_v2/food/snacks_", "suffix": ".png"}, "primary": true}], "photos": {"count": 0, "groups": []}}, "referralId": "e-0-51c07d43b5896d0c80c53690-59"}, {"reasons": {"count": 0, "items": [{"summary": "This spot is popular", "type": "general", "reasonName": "globalInteractionReason"}]}, "venue": {"id": "5ad668111987ec2a793c05bf", "name": "Walgreens", "location": {"address": "7821 3rd Ave", "lat": 40.6286858, "lng": -74.0285723, "labeledLatLngs": [{"label": "display", "lat": 40.6286858, "lng": -74.0285723}], "distance": 364, "postalCode": "11209", "cc": "US", "city": "Brooklyn", "state": "NY", "country": "United States", "formattedAddress": ["7821 3rd Ave", "Brooklyn, NY 11209", "United States"]}, "categories": [{"id": "4bf58dd8d48988d10f951735", "name": "Pharmacy", "pluralName": "Pharmacies", "shortName": "Pharmacy", "icon": {"prefix": "https://ss3.4sqi.net/img/categories_v2/shops/pharmacy_", "suffix": ".png"}, "primary": true}], "photos": {"count": 0, "groups": []}}, "referralId": "e-0-5ad668111987ec2a793c05bf-60"}, {"reasons": {"count": 0, "items": [{"summary": "This spot is popular", "type": "general", "reasonName": "globalInteractionReason"}]}, "venue": {"id": "4d4be373a79a6a3189e077a3", "name": "Cinnabon", "location": {"address": "8612 3rd Ave.", "crossStreet": "86th St", "lat": 40.623156, "lng": -74.031459, "labeledLatLngs": [{"label": "display", "lat": 40.623156, "lng": -74.031459}, {"label": "entrance", "lat": 40.623131, "lng": -74.031351}], "distance": 302, "postalCode": "11209", "cc": "US", "city": "Brooklyn", "state": "NY", "country": "United States", "formattedAddress": ["8612 3rd Ave. (86th St)", "Brooklyn, NY 11209", "United States"]}, "categories": [{"id": "4bf58dd8d48988d1c5941735", "name": "Sandwich Place", "pluralName": "Sandwich Places", "shortName": "Sandwiches", "icon": {"prefix": "https://ss3.4sqi.net/img/categories_v2/food/deli_", "suffix": ".png"}, "primary": true}], "delivery": {"id": "1472016", "url": "https://www.seamless.com/menu/carvel--cinnabon-8612-3rd-ave-brooklyn/1472016?affiliate=1131&utm_source=foursquare-affiliate-network&utm_medium=affiliate&utm_campaign=1131&utm_content=1472016", "provider": {"name": "seamless", "icon": {"prefix": "https://fastly.4sqi.net/img/general/cap/", "sizes": [40, 50], "name": "/delivery_provider_seamless_20180129.png"}}}, "photos": {"count": 0, "groups": []}}, "referralId": "e-0-4d4be373a79a6a3189e077a3-61"}, {"reasons": {"count": 0, "items": [{"summary": "This spot is popular", "type": "general", "reasonName": "globalInteractionReason"}]}, "venue": {"id": "4cc725bf806246880204462f", "name": "T-Mobile", "location": {"address": "5517 5th Ave", "crossStreet": "86th & 5th", "lat": 40.62226887183027, "lng": -74.02727819913603, "labeledLatLngs": [{"label": "display", "lat": 40.62226887183027, "lng": -74.02727819913603}], "distance": 484, "postalCode": "11220", "cc": "US", "city": "Brooklyn", "state": "NY", "country": "United States", "formattedAddress": ["5517 5th Ave (86th & 5th)", "Brooklyn, NY 11220", "United States"]}, "categories": [{"id": "4f04afc02fb6e1c99f3db0bc", "name": "Mobile Phone Shop", "pluralName": "Mobile Phone Shops", "shortName": "Mobile Phones", "icon": {"prefix": "https://ss3.4sqi.net/img/categories_v2/shops/mobilephoneshop_", "suffix": ".png"}, "primary": true}], "photos": {"count": 0, "groups": []}}, "referralId": "e-0-4cc725bf806246880204462f-62"}, {"reasons": {"count": 0, "items": [{"summary": "This spot is popular", "type": "general", "reasonName": "globalInteractionReason"}]}, "venue": {"id": "4bc73adcaf07a593b1bb7e2d", "name": "Status Q", "location": {"address": "8218 3rd Ave", "lat": 40.62590607124746, "lng": -74.03019217924287, "labeledLatLngs": [{"label": "display", "lat": 40.62590607124746, "lng": -74.03019217924287}, {"label": "entrance", "lat": 40.625942, "lng": -74.030202}], "distance": 38, "postalCode": "11209", "cc": "US", "city": "Brooklyn", "state": "NY", "country": "United States", "formattedAddress": ["8218 3rd Ave", "Brooklyn, NY 11209", "United States"]}, "categories": [{"id": "4bf58dd8d48988d1e3931735", "name": "Pool Hall", "pluralName": "Pool Halls", "shortName": "Billiards", "icon": {"prefix": "https://ss3.4sqi.net/img/categories_v2/arts_entertainment/billiards_", "suffix": ".png"}, "primary": true}], "photos": {"count": 0, "groups": []}}, "referralId": "e-0-4bc73adcaf07a593b1bb7e2d-63"}, {"reasons": {"count": 0, "items": [{"summary": "This spot is popular", "type": "general", "reasonName": "globalInteractionReason"}]}, "venue": {"id": "4f94568c7bebe789688b5958", "name": "Mattress Firm", "location": {"address": "8500 4th Ave", "lat": 40.623571, "lng": -74.028008, "labeledLatLngs": [{"label": "display", "lat": 40.623571, "lng": -74.028008}, {"label": "entrance", "lat": 40.623694, "lng": -74.028406}], "distance": 332, "postalCode": "11209", "cc": "US", "city": "Brooklyn", "state": "NY", "country": "United States", "formattedAddress": ["8500 4th Ave", "Brooklyn, NY 11209", "United States"]}, "categories": [{"id": "52f2ab2ebcbc57f1066b8b27", "name": "Mattress Store", "pluralName": "Mattress Stores", "shortName": "Mattress Store", "icon": {"prefix": "https://ss3.4sqi.net/img/categories_v2/shops/default_", "suffix": ".png"}, "primary": true}], "photos": {"count": 0, "groups": []}}, "referralId": "e-0-4f94568c7bebe789688b5958-64"}, {"reasons": {"count": 0, "items": [{"summary": "This spot is popular", "type": "general", "reasonName": "globalInteractionReason"}]}, "venue": {"id": "4f1c35c2e4b0a62719d21f15", "name": "Harp Bar Brooklyn", "location": {"address": "7710 3rd Ave", "crossStreet": "btwn 77th St & 78th St", "lat": 40.62978871192184, "lng": -74.02853333491446, "labeledLatLngs": [{"label": "display", "lat": 40.62978871192184, "lng": -74.02853333491446}, {"label": "entrance", "lat": 40.629781, "lng": -74.028626}], "distance": 477, "postalCode": "11209", "cc": "US", "city": "Brooklyn", "state": "NY", "country": "United States", "formattedAddress": ["7710 3rd Ave (btwn 77th St & 78th St)", "Brooklyn, NY 11209", "United States"]}, "categories": [{"id": "4bf58dd8d48988d116941735", "name": "Bar", "pluralName": "Bars", "shortName": "Bar", "icon": {"prefix": "https://ss3.4sqi.net/img/categories_v2/nightlife/pub_", "suffix": ".png"}, "primary": true}], "photos": {"count": 0, "groups": []}, "venuePage": {"id": "67606265"}}, "referralId": "e-0-4f1c35c2e4b0a62719d21f15-65"}, {"reasons": {"count": 0, "items": [{"summary": "This spot is popular", "type": "general", "reasonName": "globalInteractionReason"}]}, "venue": {"id": "4ba6c529f964a520a46e39e3", "name": "Ben's Pizzeria", "location": {"address": "8125 3rd Ave", "crossStreet": "82nd St.", "lat": 40.62640416738638, "lng": -74.02975174836288, "labeledLatLngs": [{"label": "display", "lat": 40.62640416738638, "lng": -74.02975174836288}], "distance": 99, "postalCode": "11209", "cc": "US", "city": "Brooklyn", "state": "NY", "country": "United States", "formattedAddress": ["8125 3rd Ave (82nd St.)", "Brooklyn, NY 11209", "United States"]}, "categories": [{"id": "4bf58dd8d48988d1ca941735", "name": "Pizza Place", "pluralName": "Pizza Places", "shortName": "Pizza", "icon": {"prefix": "https://ss3.4sqi.net/img/categories_v2/food/pizza_", "suffix": ".png"}, "primary": true}], "delivery": {"id": "274796", "url": "https://www.seamless.com/menu/bens-pizzeria-8125-3rd-ave-brooklyn/274796?affiliate=1131&utm_source=foursquare-affiliate-network&utm_medium=affiliate&utm_campaign=1131&utm_content=274796", "provider": {"name": "seamless", "icon": {"prefix": "https://fastly.4sqi.net/img/general/cap/", "sizes": [40, 50], "name": "/delivery_provider_seamless_20180129.png"}}}, "photos": {"count": 0, "groups": []}, "venuePage": {"id": "67630847"}}, "referralId": "e-0-4ba6c529f964a520a46e39e3-66"}, {"reasons": {"count": 0, "items": [{"summary": "This spot is popular", "type": "general", "reasonName": "globalInteractionReason"}]}, "venue": {"id": "548a634c498e2d4a1321d6a2", "name": "Taco Bell", "location": {"address": "8625 4th Ave", "crossStreet": "87th St", "lat": 40.62191824000764, "lng": -74.02853373126436, "labeledLatLngs": [{"label": "display", "lat": 40.62191824000764, "lng": -74.02853373126436}], "distance": 466, "postalCode": "11209", "cc": "US", "city": "Brooklyn", "state": "NY", "country": "United States", "formattedAddress": ["8625 4th Ave (87th St)", "Brooklyn, NY 11209", "United States"]}, "categories": [{"id": "4bf58dd8d48988d16e941735", "name": "Fast Food Restaurant", "pluralName": "Fast Food Restaurants", "shortName": "Fast Food", "icon": {"prefix": "https://ss3.4sqi.net/img/categories_v2/food/fastfood_", "suffix": ".png"}, "primary": true}], "delivery": {"id": "1016951", "url": "https://www.seamless.com/menu/taco-bell-8625-4th-ave-brooklyn/1016951?affiliate=1131&utm_source=foursquare-affiliate-network&utm_medium=affiliate&utm_campaign=1131&utm_content=1016951", "provider": {"name": "seamless", "icon": {"prefix": "https://fastly.4sqi.net/img/general/cap/", "sizes": [40, 50], "name": "/delivery_provider_seamless_20180129.png"}}}, "photos": {"count": 0, "groups": []}}, "referralId": "e-0-548a634c498e2d4a1321d6a2-67"}, {"reasons": {"count": 0, "items": [{"summary": "This spot is popular", "type": "general", "reasonName": "globalInteractionReason"}]}, "venue": {"id": "4b5beedef964a520da1d29e3", "name": "Duane Reade", "location": {"address": "436 86th St", "lat": 40.6220933, "lng": -74.0276287, "labeledLatLngs": [{"label": "display", "lat": 40.6220933, "lng": -74.0276287}], "distance": 484, "postalCode": "11209", "cc": "US", "city": "Brooklyn", "state": "NY", "country": "United States", "formattedAddress": ["436 86th St", "Brooklyn, NY 11209", "United States"]}, "categories": [{"id": "4bf58dd8d48988d10f951735", "name": "Pharmacy", "pluralName": "Pharmacies", "shortName": "Pharmacy", "icon": {"prefix": "https://ss3.4sqi.net/img/categories_v2/shops/pharmacy_", "suffix": ".png"}, "primary": true}], "photos": {"count": 0, "groups": []}}, "referralId": "e-0-4b5beedef964a520da1d29e3-68"}, {"reasons": {"count": 0, "items": [{"summary": "This spot is popular", "type": "general", "reasonName": "globalInteractionReason"}]}, "venue": {"id": "4ba27541f964a520bbfa37e3", "name": "My Thai Restaurant", "location": {"address": "7803 3rd Ave", "crossStreet": "78th St", "lat": 40.62916001953864, "lng": -74.02868914475027, "labeledLatLngs": [{"label": "display", "lat": 40.62916001953864, "lng": -74.02868914475027}, {"label": "entrance", "lat": 40.629111, "lng": -74.028598}], "distance": 407, "postalCode": "11209", "cc": "US", "city": "Brooklyn", "state": "NY", "country": "United States", "formattedAddress": ["7803 3rd Ave (78th St)", "Brooklyn, NY 11209", "United States"]}, "categories": [{"id": "4bf58dd8d48988d149941735", "name": "Thai Restaurant", "pluralName": "Thai Restaurants", "shortName": "Thai", "icon": {"prefix": "https://ss3.4sqi.net/img/categories_v2/food/thai_", "suffix": ".png"}, "primary": true}], "photos": {"count": 0, "groups": []}}, "referralId": "e-0-4ba27541f964a520bbfa37e3-69"}, {"reasons": {"count": 0, "items": [{"summary": "This spot is popular", "type": "general", "reasonName": "globalInteractionReason"}]}, "venue": {"id": "519553e7498efc8c2d5fb58a", "name": "Key Food Fresh & Natural", "location": {"address": "7918 3rd Ave", "lat": 40.628204, "lng": -74.029461, "labeledLatLngs": [{"label": "display", "lat": 40.628204, "lng": -74.029461}, {"label": "entrance", "lat": 40.628136, "lng": -74.029301}], "distance": 284, "postalCode": "11209", "cc": "US", "city": "Brooklyn", "state": "NY", "country": "United States", "formattedAddress": ["7918 3rd Ave", "Brooklyn, NY 11209", "United States"]}, "categories": [{"id": "52f2ab2ebcbc57f1066b8b46", "name": "Supermarket", "pluralName": "Supermarkets", "shortName": "Supermarket", "icon": {"prefix": "https://ss3.4sqi.net/img/categories_v2/shops/food_grocery_", "suffix": ".png"}, "primary": true}], "photos": {"count": 0, "groups": []}}, "referralId": "e-0-519553e7498efc8c2d5fb58a-70"}, {"reasons": {"count": 0, "items": [{"summary": "This spot is popular", "type": "general", "reasonName": "globalInteractionReason"}]}, "venue": {"id": "4bc3abc4dce4eee11cb4719d", "name": "Best Western Gregory Hotel", "location": {"address": "8315 4th Ave", "lat": 40.62435700608523, "lng": -74.02735953514821, "labeledLatLngs": [{"label": "display", "lat": 40.62435700608523, "lng": -74.02735953514821}, {"label": "entrance", "lat": 40.624438, "lng": -74.027492}], "distance": 318, "postalCode": "11209", "cc": "US", "city": "Brooklyn", "state": "NY", "country": "United States", "formattedAddress": ["8315 4th Ave", "Brooklyn, NY 11209", "United States"]}, "categories": [{"id": "4bf58dd8d48988d1fa931735", "name": "Hotel", "pluralName": "Hotels", "shortName": "Hotel", "icon": {"prefix": "https://ss3.4sqi.net/img/categories_v2/travel/hotel_", "suffix": ".png"}, "primary": true}], "photos": {"count": 0, "groups": []}}, "referralId": "e-0-4bc3abc4dce4eee11cb4719d-71"}, {"reasons": {"count": 0, "items": [{"summary": "This spot is popular", "type": "general", "reasonName": "globalInteractionReason"}]}, "venue": {"id": "5071f049e4b05fb6c443ec8e", "name": "Zitelli's Thin Crust Pizza and Bar", "location": {"address": "8530-3rd Avenue", "crossStreet": "86st & 3ave Corner", "lat": 40.62355539009036, "lng": -74.03096914529038, "labeledLatLngs": [{"label": "display", "lat": 40.62355539009036, "lng": -74.03096914529038}], "distance": 251, "postalCode": "11209", "cc": "US", "city": "Brooklyn", "state": "NY", "country": "United States", "formattedAddress": ["8530-3rd Avenue (86st & 3ave Corner)", "Brooklyn, NY 11209", "United States"]}, "categories": [{"id": "4bf58dd8d48988d110941735", "name": "Italian Restaurant", "pluralName": "Italian Restaurants", "shortName": "Italian", "icon": {"prefix": "https://ss3.4sqi.net/img/categories_v2/food/italian_", "suffix": ".png"}, "primary": true}], "photos": {"count": 0, "groups": []}, "venuePage": {"id": "74015030"}}, "referralId": "e-0-5071f049e4b05fb6c443ec8e-72"}, {"reasons": {"count": 0, "items": [{"summary": "This spot is popular", "type": "general", "reasonName": "globalInteractionReason"}]}, "venue": {"id": "4a9892a0f964a520be2c20e3", "name": "Cappuccino Cafe", "location": {"address": "7721 3rd Ave", "lat": 40.62951041286022, "lng": -74.02853892492205, "labeledLatLngs": [{"label": "display", "lat": 40.62951041286022, "lng": -74.02853892492205}, {"label": "entrance", "lat": 40.62946, "lng": -74.028462}], "distance": 448, "postalCode": "11209", "cc": "US", "city": "Brooklyn", "state": "NY", "country": "United States", "formattedAddress": ["7721 3rd Ave", "Brooklyn, NY 11209", "United States"]}, "categories": [{"id": "4bf58dd8d48988d14e941735", "name": "American Restaurant", "pluralName": "American Restaurants", "shortName": "American", "icon": {"prefix": "https://ss3.4sqi.net/img/categories_v2/food/default_", "suffix": ".png"}, "primary": true}], "photos": {"count": 0, "groups": []}}, "referralId": "e-0-4a9892a0f964a520be2c20e3-73"}, {"reasons": {"count": 0, "items": [{"summary": "This spot is popular", "type": "general", "reasonName": "globalInteractionReason"}]}, "venue": {"id": "4c6702e98e9120a1a3a1d964", "name": "Pearl of China", "location": {"address": "8411 3rd Ave", "crossStreet": "at 85th St.", "lat": 40.624631, "lng": -74.030301, "labeledLatLngs": [{"label": "display", "lat": 40.624631, "lng": -74.030301}, {"label": "entrance", "lat": 40.62466, "lng": -74.030418}], "distance": 133, "postalCode": "11209", "cc": "US", "city": "Brooklyn", "state": "NY", "country": "United States", "formattedAddress": ["8411 3rd Ave (at 85th St.)", "Brooklyn, NY 11209", "United States"]}, "categories": [{"id": "4bf58dd8d48988d145941735", "name": "Chinese Restaurant", "pluralName": "Chinese Restaurants", "shortName": "Chinese", "icon": {"prefix": "https://ss3.4sqi.net/img/categories_v2/food/asian_", "suffix": ".png"}, "primary": true}], "delivery": {"id": "274951", "url": "https://www.seamless.com/menu/pearl-of-china-8411-3rd-ave-brooklyn/274951?affiliate=1131&utm_source=foursquare-affiliate-network&utm_medium=affiliate&utm_campaign=1131&utm_content=274951", "provider": {"name": "seamless", "icon": {"prefix": "https://fastly.4sqi.net/img/general/cap/", "sizes": [40, 50], "name": "/delivery_provider_seamless_20180129.png"}}}, "photos": {"count": 0, "groups": []}}, "referralId": "e-0-4c6702e98e9120a1a3a1d964-74"}, {"reasons": {"count": 0, "items": [{"summary": "This spot is popular", "type": "general", "reasonName": "globalInteractionReason"}]}, "venue": {"id": "4cbd075cadcd5481bcc631a2", "name": "Kings Cellars", "location": {"address": "8304 3rd Ave", "lat": 40.625589, "lng": -74.030462, "labeledLatLngs": [{"label": "display", "lat": 40.625589, "lng": -74.030462}, {"label": "entrance", "lat": 40.625565, "lng": -74.030367}], "distance": 27, "postalCode": "11209", "cc": "US", "city": "Brooklyn", "state": "NY", "country": "United States", "formattedAddress": ["8304 3rd Ave", "Brooklyn, NY 11209", "United States"]}, "categories": [{"id": "4bf58dd8d48988d186941735", "name": "Liquor Store", "pluralName": "Liquor Stores", "shortName": "Liquor Store", "icon": {"prefix": "https://ss3.4sqi.net/img/categories_v2/shops/food_liquor_", "suffix": ".png"}, "primary": true}], "photos": {"count": 0, "groups": []}}, "referralId": "e-0-4cbd075cadcd5481bcc631a2-75"}, {"reasons": {"count": 0, "items": [{"summary": "This spot is popular", "type": "general", "reasonName": "globalInteractionReason"}]}, "venue": {"id": "4ba13d11f964a520e0a437e3", "name": "Suzy's Nails", "location": {"address": "8519 3rd Ave", "crossStreet": "86th st", "lat": 40.623675, "lng": -74.030661, "labeledLatLngs": [{"label": "display", "lat": 40.623675, "lng": -74.030661}, {"label": "entrance", "lat": 40.62376, "lng": -74.030785}], "distance": 236, "postalCode": "11209", "cc": "US", "city": "Brooklyn", "state": "NY", "country": "United States", "formattedAddress": ["8519 3rd Ave (86th st)", "Brooklyn, NY 11209", "United States"]}, "categories": [{"id": "4bf58dd8d48988d10c951735", "name": "Cosmetics Shop", "pluralName": "Cosmetics Shops", "shortName": "Cosmetics", "icon": {"prefix": "https://ss3.4sqi.net/img/categories_v2/shops/beauty_cosmetic_", "suffix": ".png"}, "primary": true}], "photos": {"count": 0, "groups": []}, "venuePage": {"id": "73153417"}}, "referralId": "e-0-4ba13d11f964a520e0a437e3-76"}, {"reasons": {"count": 0, "items": [{"summary": "This spot is popular", "type": "general", "reasonName": "globalInteractionReason"}]}, "venue": {"id": "4bb644f72f70c9b6c0268530", "name": "Dragon China", "location": {"address": "7917 3rd Ave", "lat": 40.628007000000004, "lng": -74.028929, "labeledLatLngs": [{"label": "display", "lat": 40.628007000000004, "lng": -74.028929}, {"label": "entrance", "lat": 40.628034, "lng": -74.029043}], "distance": 284, "postalCode": "11209", "cc": "US", "city": "Brooklyn", "state": "NY", "country": "United States", "formattedAddress": ["7917 3rd Ave", "Brooklyn, NY 11209", "United States"]}, "categories": [{"id": "4bf58dd8d48988d145941735", "name": "Chinese Restaurant", "pluralName": "Chinese Restaurants", "shortName": "Chinese", "icon": {"prefix": "https://ss3.4sqi.net/img/categories_v2/food/asian_", "suffix": ".png"}, "primary": true}], "delivery": {"id": "66790", "url": "https://www.seamless.com/menu/dragon-china-7917-3rd-ave-brooklyn/66790?affiliate=1131&utm_source=foursquare-affiliate-network&utm_medium=affiliate&utm_campaign=1131&utm_content=66790", "provider": {"name": "seamless", "icon": {"prefix": "https://fastly.4sqi.net/img/general/cap/", "sizes": [40, 50], "name": "/delivery_provider_seamless_20180129.png"}}}, "photos": {"count": 0, "groups": []}}, "referralId": "e-0-4bb644f72f70c9b6c0268530-77"}, {"reasons": {"count": 0, "items": [{"summary": "This spot is popular", "type": "general", "reasonName": "globalInteractionReason"}]}, "venue": {"id": "4ba52b24f964a520ebe638e3", "name": "Fort Hamilton Playground", "location": {"lat": 40.62651334866671, "lng": -74.03602782815183, "labeledLatLngs": [{"label": "display", "lat": 40.62651334866671, "lng": -74.03602782815183}], "distance": 463, "postalCode": "11209", "cc": "US", "city": "Brooklyn", "state": "NY", "country": "United States", "formattedAddress": ["Brooklyn, NY 11209", "United States"]}, "categories": [{"id": "4bf58dd8d48988d1e7941735", "name": "Playground", "pluralName": "Playgrounds", "shortName": "Playground", "icon": {"prefix": "https://ss3.4sqi.net/img/categories_v2/parks_outdoors/playground_", "suffix": ".png"}, "primary": true}], "photos": {"count": 0, "groups": []}}, "referralId": "e-0-4ba52b24f964a520ebe638e3-78"}, {"reasons": {"count": 0, "items": [{"summary": "This spot is popular", "type": "general", "reasonName": "globalInteractionReason"}]}, "venue": {"id": "4e80f946be7b2056ab19520a", "name": "Russell Pedersen Playground", "location": {"lat": 40.62653498751833, "lng": -74.03607812698527, "labeledLatLngs": [{"label": "display", "lat": 40.62653498751833, "lng": -74.03607812698527}], "distance": 468, "cc": "US", "state": "New York", "country": "United States", "formattedAddress": ["New York", "United States"]}, "categories": [{"id": "4bf58dd8d48988d1e7941735", "name": "Playground", "pluralName": "Playgrounds", "shortName": "Playground", "icon": {"prefix": "https://ss3.4sqi.net/img/categories_v2/parks_outdoors/playground_", "suffix": ".png"}, "primary": true}], "photos": {"count": 0, "groups": []}}, "referralId": "e-0-4e80f946be7b2056ab19520a-79"}, {"reasons": {"count": 0, "items": [{"summary": "This spot is popular", "type": "general", "reasonName": "globalInteractionReason"}]}, "venue": {"id": "522b9fcb498e7ffcee849299", "name": "Fort Hamtilton Handball Court", "location": {"lat": 40.62599136462126, "lng": -74.03629783558613, "labeledLatLngs": [{"label": "display", "lat": 40.62599136462126, "lng": -74.03629783558613}], "distance": 480, "cc": "US", "city": "Brooklyn", "state": "NY", "country": "United States", "formattedAddress": ["Brooklyn, NY", "United States"]}, "categories": [{"id": "4bf58dd8d48988d163941735", "name": "Park", "pluralName": "Parks", "shortName": "Park", "icon": {"prefix": "https://ss3.4sqi.net/img/categories_v2/parks_outdoors/park_", "suffix": ".png"}, "primary": true}], "photos": {"count": 0, "groups": []}}, "referralId": "e-0-522b9fcb498e7ffcee849299-80"}]