[{"reasons": {"count": 0, "items": [{"summary": "This spot is popular", "type": "general", "reasonName": "globalInteractionReason"}]}, "venue": {"id": "4b579c0df964a520623928e3", "name": "The Panorama Cafe", "location": {"address": "84-73 Parsons Blvd", "crossStreet": "at 85th Ave.", "lat": 40.71231715293416, "lng": -73.80652704968954, "labeledLatLngs": [{"label": "display", "lat": 40.71231715293416, "lng": -73.80652704968954}], "distance": 466, "postalCode": "11432", "cc": "US", "city": "Jamaica", "state": "NY", "country": "United States", "formattedAddress": ["84-73 Parsons Blvd (at 85th Ave.)", "Jamaica, NY 11432", "United States"]}, "categories": [{"id": "4bf58dd8d48988d1e0931735", "name": "Coffee Shop", "pluralName": "Coffee Shops", "shortName": "Coffee Shop", "icon": {"prefix": "https://ss3.4sqi.net/img/categories_v2/food/coffeeshop_", "suffix": ".png"}, "primary": true}], "photos": {"count": 0, "groups": []}}, "referralId": "e-0-4b579c0df964a520623928e3-0"}, {"reasons": {"count": 0, "items": [{"summary": "This spot is popular", "type": "general", "reasonName": "globalInteractionReason"}]}, "venue": {"id": "4bb85306cf2fc9b69d799f02", "name": "Double J Deli", "location": {"address": "168-02 Union Tpke", "crossStreet": "at 168 St.", "lat": 40.70973794108642, "lng": -73.8075117068079, "labeledLatLngs": [{"label": "display", "lat": 40.70973794108642, "lng": -73.8075117068079}], "distance": 381, "postalCode": "11366", "cc": "US", "city": "Fresh Meadows", "state": "NY", "country": "United States", "formattedAddress": ["168-02 Union Tpke (at 168 St.)", "Fresh Meadows, NY 11366", "United States"]}, "categories": [{"id": "4bf58dd8d48988d146941735", "name": "Deli / Bodega", "pluralName": "Delis / Bodegas", "shortName": "Deli / Bodega", "icon": {"prefix": "https://ss3.4sqi.net/img/categories_v2/food/deli_", "suffix": ".png"}, "primary": true}], "photos": {"count": 0, "groups": []}}, "referralId": "e-0-4bb85306cf2fc9b69d799f02-1"}, {"reasons": {"count": 0, "items": [{"summary": "This spot is popular", "type": "general", "reasonName": "globalInteractionReason"}]}, "venue": {"id": "4f3299c019836c91c7e7a319", "name": "McDonald's", "location": {"address": "18125 Hillside Ave", "lat": 40.713037, "lng": -73.812779, "labeledLatLngs": [{"label": "display", "lat": 40.713037, "lng": -73.812779}], "distance": 249, "postalCode": "11432", "cc": "US", "city": "Jamaica", "state": "NY", "country": "United States", "formattedAddress": ["18125 Hillside Ave", "Jamaica, NY 11432", "United States"]}, "categories": [{"id": "4bf58dd8d48988d16e941735", "name": "Fast Food Restaurant", "pluralName": "Fast Food Restaurants", "shortName": "Fast Food", "icon": {"prefix": "https://ss3.4sqi.net/img/categories_v2/food/fastfood_", "suffix": ".png"}, "primary": true}], "photos": {"count": 0, "groups": []}}, "referralId": "e-0-4f3299c019836c91c7e7a319-2"}, {"reasons": {"count": 0, "items": [{"summary": "This spot is popular", "type": "general", "reasonName": "globalInteractionReason"}]}, "venue": {"id": "4d978a16af3d236a09c326c7", "name": "Briarwood Playground", "location": {"crossStreet": "85th Ave & 148th Street", "lat": 40.70965005721214, "lng": -73.81001980204677, "labeledLatLngs": [{"label": "display", "lat": 40.70965005721214, "lng": -73.81001980204677}], "distance": 204, "postalCode": "11435", "cc": "US", "city": "Briarwood", "state": "NY", "country": "United States", "formattedAddress": ["85th Ave & 148th Street", "Briarwood, NY 11435", "United States"]}, "categories": [{"id": "4bf58dd8d48988d1e7941735", "name": "Playground", "pluralName": "Playgrounds", "shortName": "Playground", "icon": {"prefix": "https://ss3.4sqi.net/img/categories_v2/parks_outdoors/playground_", "suffix": ".png"}, "primary": true}], "photos": {"count": 0, "groups": []}}, "referralId": "e-0-4d978a16af3d236a09c326c7-3"}, {"reasons": {"count": 0, "items": [{"summary": "This spot is popular", "type": "general", "reasonName": "globalInteractionReason"}]}, "venue": {"id": "4c158d0c77cea593fc76d260", "name": "84th Deli Grocery", "location": {"address": "138-54 84th Dr", "lat": 40.71057492063447, "lng": -73.81573658228892, "labeledLatLngs": [{"label": "display", "lat": 40.71057492063447, "lng": -73.81573658228892}], "distance": 338, "postalCode": "11435", "cc": "US", "city": "Jamaica", "state": "NY", "country": "United States", "formattedAddress": ["138-54 84th Dr", "Jamaica, NY 11435", "United States"]}, "categories": [{"id": "4bf58dd8d48988d146941735", "name": "Deli / Bodega", "pluralName": "Delis / Bodegas", "shortName": "Deli / Bodega", "icon": {"prefix": "https://ss3.4sqi.net/img/categories_v2/food/deli_", "suffix": ".png"}, "primary": true}], "photos": {"count": 0, "groups": []}}, "referralId": "e-0-4c158d0c77cea593fc76d260-4"}, {"reasons": {"count": 0, "items": [{"summary": "This spot is popular", "type": "general", "reasonName": "globalInteractionReason"}]}, "venue": {"id": "4c953d1658d4b60c8c923029", "name": "El Palacio del Taco", "location": {"address": "8769 Parsons Blvd", "lat": 40.70969957301742, "lng": -73.8075103773224, "labeledLatLngs": [{"label": "display", "lat": 40.70969957301742, "lng": -73.8075103773224}], "distance": 383, "postalCode": "11432", "cc": "US", "city": "Jamaica", "state": "NY", "country": "United States", "formattedAddress": ["8769 Parsons Blvd", "Jamaica, NY 11432", "United States"]}, "categories": [{"id": "4bf58dd8d48988d1c1941735", "name": "Mexican Restaurant", "pluralName": "Mexican Restaurants", "shortName": "Mexican", "icon": {"prefix": "https://ss3.4sqi.net/img/categories_v2/food/mexican_", "suffix": ".png"}, "primary": true}], "photos": {"count": 0, "groups": []}}, "referralId": "e-0-4c953d1658d4b60c8c923029-5"}, {"reasons": {"count": 0, "items": [{"summary": "This spot is popular", "type": "general", "reasonName": "globalInteractionReason"}]}, "venue": {"id": "4c1fe968920076b0227cc5e9", "name": "Sweat Box Gym", "location": {"address": "Parsons Blvd", "lat": 40.709734, "lng": -73.80746, "labeledLatLngs": [{"label": "display", "lat": 40.709734, "lng": -73.80746}], "distance": 385, "postalCode": "11435", "cc": "US", "city": "Jamaica", "state": "NY", "country": "United States", "formattedAddress": ["Parsons Blvd", "Jamaica, NY 11435", "United States"]}, "categories": [{"id": "4bf58dd8d48988d176941735", "name": "Gym", "pluralName": "Gyms", "shortName": "Gym", "icon": {"prefix": "https://ss3.4sqi.net/img/categories_v2/building/gym_", "suffix": ".png"}, "primary": true}], "photos": {"count": 0, "groups": []}}, "referralId": "e-0-4c1fe968920076b0227cc5e9-6"}, {"reasons": {"count": 0, "items": [{"summary": "This spot is popular", "type": "general", "reasonName": "globalInteractionReason"}]}, "venue": {"id": "4c34fe127cc0c9b6a04af49a", "name": "Dollar Store", "location": {"address": "Parson Blvd.", "crossStreet": "at 84th Rd.", "lat": 40.713841, "lng": -73.809174, "labeledLatLngs": [{"label": "display", "lat": 40.713841, "lng": -73.809174}], "distance": 389, "cc": "US", "city": "Jamaica", "state": "NY", "country": "United States", "formattedAddress": ["Parson Blvd. (at 84th Rd.)", "Jamaica, NY", "United States"]}, "categories": [{"id": "4bf58dd8d48988d127951735", "name": "Arts & Crafts Store", "pluralName": "Arts & Crafts Stores", "shortName": "Arts & Crafts", "icon": {"prefix": "https://ss3.4sqi.net/img/categories_v2/shops/artstore_", "suffix": ".png"}, "primary": true}], "photos": {"count": 0, "groups": []}}, "referralId": "e-0-4c34fe127cc0c9b6a04af49a-7"}, {"reasons": {"count": 0, "items": [{"summary": "This spot is popular", "type": "general", "reasonName": "globalInteractionReason"}]}, "venue": {"id": "4e10d7031f6e671dd9e2a6d3", "name": "MTABus Q25, Q34 (Parsons Blvd/84th Rd-Hoover Ave.)", "location": {"address": "Parsons Blvd", "lat": 40.712209282312195, "lng": -73.8067742843469, "labeledLatLngs": [{"label": "display", "lat": 40.712209282312195, "lng": -73.8067742843469}], "distance": 443, "postalCode": "11432", "cc": "US", "city": "Jamaica", "state": "NY", "country": "United States", "formattedAddress": ["Parsons Blvd", "Jamaica, NY 11432", "United States"]}, "categories": [{"id": "4bf58dd8d48988d1fe931735", "name": "Bus Station", "pluralName": "Bus Stations", "shortName": "Bus Station", "icon": {"prefix": "https://ss3.4sqi.net/img/categories_v2/travel/busstation_", "suffix": ".png"}, "primary": true}], "photos": {"count": 0, "groups": []}}, "referralId": "e-0-4e10d7031f6e671dd9e2a6d3-8"}, {"reasons": {"count": 0, "items": [{"summary": "This spot is popular", "type": "general", "reasonName": "globalInteractionReason"}]}, "venue": {"id": "4cb4a712db32f04dcb5adf4d", "name": "Moon Tikka", "location": {"address": "87-16 Parsons Blvd", "lat": 40.713202, "lng": -73.807214, "labeledLatLngs": [{"label": "display", "lat": 40.713202, "lng": -73.807214}], "distance": 458, "postalCode": "11432", "cc": "US", "city": "Jamaica", "state": "NY", "country": "United States", "formattedAddress": ["87-16 Parsons Blvd", "Jamaica, NY 11432", "United States"]}, "categories": [{"id": "4bf58dd8d48988d10f941735", "name": "Indian Restaurant", "pluralName": "Indian Restaurants", "shortName": "Indian", "icon": {"prefix": "https://ss3.4sqi.net/img/categories_v2/food/indian_", "suffix": ".png"}, "primary": true}], "photos": {"count": 0, "groups": []}}, "referralId": "e-0-4cb4a712db32f04dcb5adf4d-9"}]