[{"reasons": {"count": 0, "items": [{"summary": "This spot is popular", "type": "general", "reasonName": "globalInteractionReason"}]}, "venue": {"id": "58d933702f91cb026f478e38", "name": "East One Coffee Roasters", "location": {"address": "384 Court St", "crossStreet": "at Carroll St", "lat": 40.681128035266816, "lng": -73.99652634325895, "labeledLatLngs": [{"label": "display", "lat": 40.681128035266816, "lng": -73.99652634325895}], "distance": 171, "postalCode": "11231", "cc": "US", "neighborhood": "Carroll Gardens", "city": "Brooklyn", "state": "NY", "country": "United States", "formattedAddress": ["384 Court St (at Carroll St)", "Brooklyn, NY 11231", "United States"]}, "categories": [{"id": "4bf58dd8d48988d1e0931735", "name": "Coffee Shop", "pluralName": "Coffee Shops", "shortName": "Coffee Shop", "icon": {"prefix": "https://ss3.4sqi.net/img/categories_v2/food/coffeeshop_", "suffix": ".png"}, "primary": true}], "delivery": {"id": "1153265", "url": "https://www.seamless.com/menu/east-one-coffee-384-court-st-brooklyn/1153265?affiliate=1131&utm_source=foursquare-affiliate-network&utm_medium=affiliate&utm_campaign=1131&utm_content=1153265", "provider": {"name": "seamless", "icon": {"prefix": "https://fastly.4sqi.net/img/general/cap/", "sizes": [40, 50], "name": "/delivery_provider_seamless_20180129.png"}}}, "photos": {"count": 0, "groups": []}}, "referralId": "e-0-58d933702f91cb026f478e38-0"}, {"reasons": {"count": 0, "items": [{"summary": "This spot is popular", "type": "general", "reasonName": "globalInteractionReason"}]}, "venue": {"id": "5d7ce692b4fc9c0008394021", "name": "Hungry Ghost", "location": {"address": "343 Smith St", "lat": 40.680281, "lng": -73.994678, "labeledLatLngs": [{"label": "display", "lat": 40.680281, "lng": -73.994678}], "distance": 28, "postalCode": "11231", "cc": "US", "city": "New York", "state": "NY", "country": "United States", "formattedAddress": ["343 Smith St", "New York, NY 11231", "United States"]}, "categories": [{"id": "4bf58dd8d48988d1e0931735", "name": "Coffee Shop", "pluralName": "Coffee Shops", "shortName": "Coffee Shop", "icon": {"prefix": "https://ss3.4sqi.net/img/categories_v2/food/coffeeshop_", "suffix": ".png"}, "primary": true}], "photos": {"count": 0, "groups": []}}, "referralId": "e-0-5d7ce692b4fc9c0008394021-1"}, {"reasons": {"count": 0, "items": [{"summary": "This spot is popular", "type": "general", "reasonName": "globalInteractionReason"}]}, "venue": {"id": "4a54e08bf964a52060b31fe3", "name": "G Esposito & Sons", "location": {"address": "357 Court St", "crossStreet": "btwn Union & President St", "lat": 40.681945082807104, "lng": -73.99610874436799, "labeledLatLngs": [{"label": "display", "lat": 40.681945082807104, "lng": -73.99610874436799}, {"label": "entrance", "lat": 40.681903, "lng": -73.995983}], "distance": 198, "postalCode": "11231", "cc": "US", "city": "Brooklyn", "state": "NY", "country": "United States", "formattedAddress": ["357 Court St (btwn Union & President St)", "Brooklyn, NY 11231", "United States"]}, "categories": [{"id": "4bf58dd8d48988d11d951735", "name": "Butcher", "pluralName": "Butchers", "shortName": "Butcher", "icon": {"prefix": "https://ss3.4sqi.net/img/categories_v2/shops/food_butcher_", "suffix": ".png"}, "primary": true}], "photos": {"count": 0, "groups": []}}, "referralId": "e-0-4a54e08bf964a52060b31fe3-2"}, {"reasons": {"count": 0, "items": [{"summary": "This spot is popular", "type": "general", "reasonName": "globalInteractionReason"}]}, "venue": {"id": "511316aee4b036fd387843fb", "name": "Avlee Greek Kitchen", "location": {"address": "349 Smith St", "lat": 40.679975303933674, "lng": -73.99498828355762, "labeledLatLngs": [{"label": "display", "lat": 40.679975303933674, "lng": -73.99498828355762}, {"label": "entrance", "lat": 40.679919, "lng": -73.994957}], "distance": 68, "postalCode": "11231", "cc": "US", "city": "Brooklyn", "state": "NY", "country": "United States", "formattedAddress": ["349 Smith St", "Brooklyn, NY 11231", "United States"]}, "categories": [{"id": "4bf58dd8d48988d10e941735", "name": "Greek Restaurant", "pluralName": "Greek Restaurants", "shortName": "Greek", "icon": {"prefix": "https://ss3.4sqi.net/img/categories_v2/food/greek_", "suffix": ".png"}, "primary": true}], "delivery": {"id": "277874", "url": "https://www.seamless.com/menu/avlee-greek-kitchen-349-smith-st-brooklyn/277874?affiliate=1131&utm_source=foursquare-affiliate-network&utm_medium=affiliate&utm_campaign=1131&utm_content=277874", "provider": {"name": "seamless", "icon": {"prefix": "https://fastly.4sqi.net/img/general/cap/", "sizes": [40, 50], "name": "/delivery_provider_seamless_20180129.png"}}}, "photos": {"count": 0, "groups": []}, "venuePage": {"id": "51279426"}}, "referralId": "e-0-511316aee4b036fd387843fb-3"}, {"reasons": {"count": 0, "items": [{"summary": "This spot is popular", "type": "general", "reasonName": "globalInteractionReason"}]}, "venue": {"id": "4a635eb5f964a520e5c41fe3", "name": "Carroll Gardens Greenmarket", "location": {"address": "252 Carroll Street", "crossStreet": "Smith St.", "lat": 40.68058328929679, "lng": -73.99476444056779, "labeledLatLngs": [{"label": "display", "lat": 40.68058328929679, "lng": -73.99476444056779}], "distance": 10, "postalCode": "11231", "cc": "US", "city": "Brooklyn", "state": "NY", "country": "United States", "formattedAddress": ["252 Carroll Street (Smith St.)", "Brooklyn, NY 11231", "United States"]}, "categories": [{"id": "4bf58dd8d48988d1fa941735", "name": "Farmers Market", "pluralName": "Farmers Markets", "shortName": "Farmer's Market", "icon": {"prefix": "https://ss3.4sqi.net/img/categories_v2/shops/food_farmersmarket_", "suffix": ".png"}, "primary": true}], "photos": {"count": 0, "groups": []}}, "referralId": "e-0-4a635eb5f964a520e5c41fe3-4"}, {"reasons": {"count": 0, "items": [{"summary": "This spot is popular", "type": "general", "reasonName": "globalInteractionReason"}]}, "venue": {"id": "40da1980f964a5206d011fe3", "name": "Brooklyn Social", "location": {"address": "335 Smith St", "crossStreet": "at Carroll St", "lat": 40.6805555056908, "lng": -73.99469005211638, "labeledLatLngs": [{"label": "display", "lat": 40.6805555056908, "lng": -73.99469005211638}, {"label": "entrance", "lat": 40.680494, "lng": -73.994566}], "distance": 3, "postalCode": "11231", "cc": "US", "city": "Brooklyn", "state": "NY", "country": "United States", "formattedAddress": ["335 Smith St (at Carroll St)", "Brooklyn, NY 11231", "United States"]}, "categories": [{"id": "4bf58dd8d48988d11e941735", "name": "Cocktail Bar", "pluralName": "Cocktail Bars", "shortName": "Cocktail", "icon": {"prefix": "https://ss3.4sqi.net/img/categories_v2/nightlife/cocktails_", "suffix": ".png"}, "primary": true}], "photos": {"count": 0, "groups": []}, "venuePage": {"id": "80502443"}}, "referralId": "e-0-40da1980f964a5206d011fe3-5"}, {"reasons": {"count": 0, "items": [{"summary": "This spot is popular", "type": "general", "reasonName": "globalInteractionReason"}]}, "venue": {"id": "4a2aab17f964a52033961fe3", "name": "Carroll Park", "location": {"address": "290 President St", "crossStreet": "btwn Smith & Court", "lat": 40.68090072479618, "lng": -73.99498436689395, "labeledLatLngs": [{"label": "display", "lat": 40.68090072479618, "lng": -73.99498436689395}, {"label": "entrance", "lat": 40.681288, "lng": -73.994805}], "distance": 48, "postalCode": "11231", "cc": "US", "city": "Brooklyn", "state": "NY", "country": "United States", "formattedAddress": ["290 President St (btwn Smith & Court)", "Brooklyn, NY 11231", "United States"]}, "categories": [{"id": "4bf58dd8d48988d163941735", "name": "Park", "pluralName": "Parks", "shortName": "Park", "icon": {"prefix": "https://ss3.4sqi.net/img/categories_v2/parks_outdoors/park_", "suffix": ".png"}, "primary": true}], "photos": {"count": 0, "groups": []}}, "referralId": "e-0-4a2aab17f964a52033961fe3-6"}, {"reasons": {"count": 0, "items": [{"summary": "This spot is popular", "type": "general", "reasonName": "globalInteractionReason"}]}, "venue": {"id": "4a69cfeaf964a52015cc1fe3", "name": "Monteleone's Bakery", "location": {"address": "355 Court St", "crossStreet": "btwn Union & President St", "lat": 40.68194002100747, "lng": -73.99609790259039, "labeledLatLngs": [{"label": "display", "lat": 40.68194002100747, "lng": -73.99609790259039}, {"label": "entrance", "lat": 40.681959, "lng": -73.995956}], "distance": 197, "postalCode": "11231", "cc": "US", "city": "Brooklyn", "state": "NY", "country": "United States", "formattedAddress": ["355 Court St (btwn Union & President St)", "Brooklyn, NY 11231", "United States"]}, "categories": [{"id": "4bf58dd8d48988d16a941735", "name": "Bakery", "pluralName": "Bakeries", "shortName": "Bakery", "icon": {"prefix": "https://ss3.4sqi.net/img/categories_v2/food/bakery_", "suffix": ".png"}, "primary": true}], "photos": {"count": 0, "groups": []}}, "referralId": "e-0-4a69cfeaf964a52015cc1fe3-7"}, {"reasons": {"count": 0, "items": [{"summary": "This spot is popular", "type": "general", "reasonName": "globalInteractionReason"}]}, "venue": {"id": "46ad9342f964a52079491fe3", "name": "Black Mountain Wine House", "location": {"address": "415 Union St", "crossStreet": "at Hoyt", "lat": 40.68088122945771, "lng": -73.9916760049903, "labeledLatLngs": [{"label": "display", "lat": 40.68088122945771, "lng": -73.9916760049903}, {"label": "entrance", "lat": 40.680842, "lng": -73.991547}], "distance": 254, "postalCode": "11231", "cc": "US", "city": "Brooklyn", "state": "NY", "country": "United States", "formattedAddress": ["415 Union St (at Hoyt)", "Brooklyn, NY 11231", "United States"]}, "categories": [{"id": "4bf58dd8d48988d123941735", "name": "Wine Bar", "pluralName": "Wine Bars", "shortName": "Wine Bar", "icon": {"prefix": "https://ss3.4sqi.net/img/categories_v2/food/winery_", "suffix": ".png"}, "primary": true}], "delivery": {"id": "2029640", "url": "https://www.seamless.com/menu/black-mountain-wine-house-415-union-st-brooklyn/2029640?affiliate=1131&utm_source=foursquare-affiliate-network&utm_medium=affiliate&utm_campaign=1131&utm_content=2029640", "provider": {"name": "seamless", "icon": {"prefix": "https://fastly.4sqi.net/img/general/cap/", "sizes": [40, 50], "name": "/delivery_provider_seamless_20180129.png"}}}, "photos": {"count": 0, "groups": []}}, "referralId": "e-0-46ad9342f964a52079491fe3-8"}, {"reasons": {"count": 0, "items": [{"summary": "This spot is popular", "type": "general", "reasonName": "globalInteractionReason"}]}, "venue": {"id": "4f42a95ee4b01e8250101ad2", "name": "The Brooklyn Strategist", "location": {"address": "333 Court St", "crossStreet": "btwn Union & Sackett", "lat": 40.682813350401155, "lng": -73.99567975137234, "labeledLatLngs": [{"label": "display", "lat": 40.682813350401155, "lng": -73.99567975137234}], "distance": 267, "postalCode": "11231", "cc": "US", "neighborhood": "Carroll Gardens", "city": "Brooklyn", "state": "NY", "country": "United States", "formattedAddress": ["333 Court St (btwn Union & Sackett)", "Brooklyn, NY 11231", "United States"]}, "categories": [{"id": "4bf58dd8d48988d18d941735", "name": "Gaming Cafe", "pluralName": "Gaming Cafes", "shortName": "Gaming Cafe", "icon": {"prefix": "https://ss3.4sqi.net/img/categories_v2/shops/gamingcafe_", "suffix": ".png"}, "primary": true}], "photos": {"count": 0, "groups": []}}, "referralId": "e-0-4f42a95ee4b01e8250101ad2-9"}, {"reasons": {"count": 0, "items": [{"summary": "This spot is popular", "type": "general", "reasonName": "globalInteractionReason"}]}, "venue": {"id": "49c4ff90f964a520da561fe3", "name": "Fragole", "location": {"address": "394 Court St", "crossStreet": "btwn 1st Pl & Carroll St.", "lat": 40.680805, "lng": -73.99689, "labeledLatLngs": [{"label": "display", "lat": 40.680805, "lng": -73.99689}], "distance": 191, "postalCode": "11231", "cc": "US", "city": "Brooklyn", "state": "NY", "country": "United States", "formattedAddress": ["394 Court St (btwn 1st Pl & Carroll St.)", "Brooklyn, NY 11231", "United States"]}, "categories": [{"id": "4bf58dd8d48988d110941735", "name": "Italian Restaurant", "pluralName": "Italian Restaurants", "shortName": "Italian", "icon": {"prefix": "https://ss3.4sqi.net/img/categories_v2/food/italian_", "suffix": ".png"}, "primary": true}], "delivery": {"id": "509330", "url": "https://www.seamless.com/menu/fragole-ristorante-394-court-st-brooklyn/509330?affiliate=1131&utm_source=foursquare-affiliate-network&utm_medium=affiliate&utm_campaign=1131&utm_content=509330", "provider": {"name": "seamless", "icon": {"prefix": "https://fastly.4sqi.net/img/general/cap/", "sizes": [40, 50], "name": "/delivery_provider_seamless_20180129.png"}}}, "photos": {"count": 0, "groups": []}, "venuePage": {"id": "56938800"}}, "referralId": "e-0-49c4ff90f964a520da561fe3-10"}, {"reasons": {"count": 0, "items": [{"summary": "This spot is popular", "type": "general", "reasonName": "globalInteractionReason"}]}, "venue": {"id": "4afcb52ef964a5203e2522e3", "name": "The Painted Pot", "location": {"address": "339 Smith St", "lat": 40.680446049433954, "lng": -73.99469724346402, "labeledLatLngs": [{"label": "display", "lat": 40.680446049433954, "lng": -73.99469724346402}, {"label": "entrance", "lat": 40.680399, "lng": -73.994631}], "distance": 11, "postalCode": "11231", "cc": "US", "city": "Brooklyn", "state": "NY", "country": "United States", "formattedAddress": ["339 Smith St", "Brooklyn, NY 11231", "United States"]}, "categories": [{"id": "4bf58dd8d48988d127951735", "name": "Arts & Crafts Store", "pluralName": "Arts & Crafts Stores", "shortName": "Arts & Crafts", "icon": {"prefix": "https://ss3.4sqi.net/img/categories_v2/shops/artstore_", "suffix": ".png"}, "primary": true}], "photos": {"count": 0, "groups": []}}, "referralId": "e-0-4afcb52ef964a5203e2522e3-11"}, {"reasons": {"count": 0, "items": [{"summary": "This spot is popular", "type": "general", "reasonName": "globalInteractionReason"}]}, "venue": {"id": "3fd66200f964a52085f11ee3", "name": "Gowanus Yacht Club", "location": {"address": "323 Smith St", "crossStreet": "at President St", "lat": 40.680927562562744, "lng": -73.99443935393407, "labeledLatLngs": [{"label": "display", "lat": 40.680927562562744, "lng": -73.99443935393407}, {"label": "entrance", "lat": 40.681025, "lng": -73.994208}], "distance": 46, "postalCode": "11231", "cc": "US", "neighborhood": "Carroll Gardens", "city": "Brooklyn", "state": "NY", "country": "United States", "formattedAddress": ["323 Smith St (at President St)", "Brooklyn, NY 11231", "United States"]}, "categories": [{"id": "4bf58dd8d48988d117941735", "name": "Beer Garden", "pluralName": "Beer Gardens", "shortName": "Beer Garden", "icon": {"prefix": "https://ss3.4sqi.net/img/categories_v2/nightlife/beergarden_", "suffix": ".png"}, "primary": true}], "photos": {"count": 0, "groups": []}}, "referralId": "e-0-3fd66200f964a52085f11ee3-12"}, {"reasons": {"count": 0, "items": [{"summary": "This spot is popular", "type": "general", "reasonName": "globalInteractionReason"}]}, "venue": {"id": "5afda093012358002cfdbd9b", "name": "Planted", "location": {"address": "333 Smith St", "lat": 40.680558, "lng": -73.994584, "labeledLatLngs": [{"label": "display", "lat": 40.680558, "lng": -73.994584}], "distance": 6, "postalCode": "11231", "cc": "US", "city": "Brooklyn", "state": "NY", "country": "United States", "formattedAddress": ["333 Smith St", "Brooklyn, NY 11231", "United States"]}, "categories": [{"id": "4bf58dd8d48988d1e0931735", "name": "Coffee Shop", "pluralName": "Coffee Shops", "shortName": "Coffee Shop", "icon": {"prefix": "https://ss3.4sqi.net/img/categories_v2/food/coffeeshop_", "suffix": ".png"}, "primary": true}], "delivery": {"id": "1142314", "url": "https://www.seamless.com/menu/planted-community-cafe-333-smith-st-brooklyn/1142314?affiliate=1131&utm_source=foursquare-affiliate-network&utm_medium=affiliate&utm_campaign=1131&utm_content=1142314", "provider": {"name": "seamless", "icon": {"prefix": "https://fastly.4sqi.net/img/general/cap/", "sizes": [40, 50], "name": "/delivery_provider_seamless_20180129.png"}}}, "photos": {"count": 0, "groups": []}}, "referralId": "e-0-5afda093012358002cfdbd9b-13"}, {"reasons": {"count": 0, "items": [{"summary": "This spot is popular", "type": "general", "reasonName": "globalInteractionReason"}]}, "venue": {"id": "4a5be707f964a520f5bb1fe3", "name": "Smith & Vine", "location": {"address": "317 Smith St", "crossStreet": "btwn Sackett & DeGraw St", "lat": 40.681161, "lng": -73.994105, "labeledLatLngs": [{"label": "display", "lat": 40.681161, "lng": -73.994105}, {"label": "entrance", "lat": 40.681169, "lng": -73.994112}], "distance": 83, "postalCode": "11231", "cc": "US", "city": "Brooklyn", "state": "NY", "country": "United States", "formattedAddress": ["317 Smith St (btwn Sackett & DeGraw St)", "Brooklyn, NY 11231", "United States"]}, "categories": [{"id": "4bf58dd8d48988d119951735", "name": "Wine Shop", "pluralName": "Wine Shops", "shortName": "Wine Shop", "icon": {"prefix": "https://ss3.4sqi.net/img/categories_v2/shops/food_wineshop_", "suffix": ".png"}, "primary": true}], "photos": {"count": 0, "groups": []}}, "referralId": "e-0-4a5be707f964a520f5bb1fe3-14"}, {"reasons": {"count": 0, "items": [{"summary": "This spot is popular", "type": "general", "reasonName": "globalInteractionReason"}]}, "venue": {"id": "5782375a498e99a1c3a553a3", "name": "A*line PILATES", "location": {"lat": 40.68100689530773, "lng": -73.99645638416673, "labeledLatLngs": [{"label": "display", "lat": 40.68100689530773, "lng": -73.99645638416673}], "distance": 160, "cc": "US", "city": "Brooklyn", "state": "NY", "country": "United States", "formattedAddress": ["Brooklyn, NY", "United States"]}, "categories": [{"id": "5744ccdfe4b0c0459246b4b2", "name": "Pilates Studio", "pluralName": "Pilates Studios", "shortName": "Pilates Studio", "icon": {"prefix": "https://ss3.4sqi.net/img/categories_v2/shops/gym_yogastudio_", "suffix": ".png"}, "primary": true}], "photos": {"count": 0, "groups": []}}, "referralId": "e-0-5782375a498e99a1c3a553a3-15"}, {"reasons": {"count": 0, "items": [{"summary": "This spot is popular", "type": "general", "reasonName": "globalInteractionReason"}]}, "venue": {"id": "475b9b74f964a520d34c1fe3", "name": "Bar Great Harry", "location": {"address": "280 Smith St", "crossStreet": "at Sackett St", "lat": 40.682337792970536, "lng": -73.99352293676533, "labeledLatLngs": [{"label": "display", "lat": 40.682337792970536, "lng": -73.99352293676533}, {"label": "entrance", "lat": 40.682406, "lng": -73.993509}], "distance": 221, "postalCode": "11231", "cc": "US", "city": "Brooklyn", "state": "NY", "country": "United States", "formattedAddress": ["280 Smith St (at Sackett St)", "Brooklyn, NY 11231", "United States"]}, "categories": [{"id": "4bf58dd8d48988d116941735", "name": "Bar", "pluralName": "Bars", "shortName": "Bar", "icon": {"prefix": "https://ss3.4sqi.net/img/categories_v2/nightlife/pub_", "suffix": ".png"}, "primary": true}], "photos": {"count": 0, "groups": []}, "venuePage": {"id": "73872953"}}, "referralId": "e-0-475b9b74f964a520d34c1fe3-16"}, {"reasons": {"count": 0, "items": [{"summary": "This spot is popular", "type": "general", "reasonName": "globalInteractionReason"}]}, "venue": {"id": "50a539d9e4b0762127c43eac", "name": "Martinez Grocery", "location": {"address": "370 Court St", "crossStreet": "President", "lat": 40.68154941237919, "lng": -73.99624070747305, "labeledLatLngs": [{"label": "display", "lat": 40.68154941237919, "lng": -73.99624070747305}, {"label": "entrance", "lat": 40.681608, "lng": -73.996398}], "distance": 174, "postalCode": "11231", "cc": "US", "city": "Brooklyn", "state": "NY", "country": "United States", "formattedAddress": ["370 Court St (President)", "Brooklyn, NY 11231", "United States"]}, "categories": [{"id": "4bf58dd8d48988d146941735", "name": "Deli / Bodega", "pluralName": "Delis / Bodegas", "shortName": "Deli / Bodega", "icon": {"prefix": "https://ss3.4sqi.net/img/categories_v2/food/deli_", "suffix": ".png"}, "primary": true}], "photos": {"count": 0, "groups": []}}, "referralId": "e-0-50a539d9e4b0762127c43eac-17"}, {"reasons": {"count": 0, "items": [{"summary": "This spot is popular", "type": "general", "reasonName": "globalInteractionReason"}]}, "venue": {"id": "4aa85f31f964a520075120e3", "name": "Vinny's of Carroll Gardens", "location": {"address": "295 Smith St", "crossStreet": "Btw. Union & Sacket", "lat": 40.681885, "lng": -73.99357, "labeledLatLngs": [{"label": "display", "lat": 40.681885, "lng": -73.99357}, {"label": "entrance", "lat": 40.681897, "lng": -73.993624}], "distance": 175, "postalCode": "11231", "cc": "US", "city": "Brooklyn", "state": "NY", "country": "United States", "formattedAddress": ["295 Smith St (Btw. Union & Sacket)", "Brooklyn, NY 11231", "United States"]}, "categories": [{"id": "4bf58dd8d48988d110941735", "name": "Italian Restaurant", "pluralName": "Italian Restaurants", "shortName": "Italian", "icon": {"prefix": "https://ss3.4sqi.net/img/categories_v2/food/italian_", "suffix": ".png"}, "primary": true}], "photos": {"count": 0, "groups": []}}, "referralId": "e-0-4aa85f31f964a520075120e3-18"}, {"reasons": {"count": 0, "items": [{"summary": "This spot is popular", "type": "general", "reasonName": "globalInteractionReason"}]}, "venue": {"id": "59fbc622a5a3157842e16b19", "name": "Barely Disfigured", "location": {"address": "257 Smith Street", "lat": 40.68309199473837, "lng": -73.9928962274326, "labeledLatLngs": [{"label": "display", "lat": 40.68309199473837, "lng": -73.9928962274326}], "distance": 320, "postalCode": "11231", "cc": "US", "city": "New York", "state": "NY", "country": "United States", "formattedAddress": ["257 Smith Street", "New York, NY 11231", "United States"]}, "categories": [{"id": "4bf58dd8d48988d116941735", "name": "Bar", "pluralName": "Bars", "shortName": "Bar", "icon": {"prefix": "https://ss3.4sqi.net/img/categories_v2/nightlife/pub_", "suffix": ".png"}, "primary": true}], "photos": {"count": 0, "groups": []}}, "referralId": "e-0-59fbc622a5a3157842e16b19-19"}, {"reasons": {"count": 0, "items": [{"summary": "This spot is popular", "type": "general", "reasonName": "globalInteractionReason"}]}, "venue": {"id": "59985da3da5e5606a926b53d", "name": "Ugly Baby", "location": {"address": "407 Smith St", "lat": 40.67801930527555, "lng": -73.99613921080501, "labeledLatLngs": [{"label": "display", "lat": 40.67801930527555, "lng": -73.99613921080501}], "distance": 307, "postalCode": "11231", "cc": "US", "neighborhood": "Carroll Gardens", "city": "Brooklyn", "state": "NY", "country": "United States", "formattedAddress": ["407 Smith St", "Brooklyn, NY 11231", "United States"]}, "categories": [{"id": "4bf58dd8d48988d149941735", "name": "Thai Restaurant", "pluralName": "Thai Restaurants", "shortName": "Thai", "icon": {"prefix": "https://ss3.4sqi.net/img/categories_v2/food/thai_", "suffix": ".png"}, "primary": true}], "photos": {"count": 0, "groups": []}, "venuePage": {"id": "449866574"}}, "referralId": "e-0-59985da3da5e5606a926b53d-20"}, {"reasons": {"count": 0, "items": [{"summary": "This spot is popular", "type": "general", "reasonName": "globalInteractionReason"}]}, "venue": {"id": "4cc46d4991413704abbcc255", "name": "Shen Beauty", "location": {"address": "315 Court St", "lat": 40.68339250309319, "lng": -73.99539426218895, "labeledLatLngs": [{"label": "display", "lat": 40.68339250309319, "lng": -73.99539426218895}, {"label": "entrance", "lat": 40.683335, "lng": -73.995286}], "distance": 323, "postalCode": "11231", "cc": "US", "city": "Brooklyn", "state": "NY", "country": "United States", "formattedAddress": ["315 Court St", "Brooklyn, NY 11231", "United States"]}, "categories": [{"id": "4bf58dd8d48988d10c951735", "name": "Cosmetics Shop", "pluralName": "Cosmetics Shops", "shortName": "Cosmetics", "icon": {"prefix": "https://ss3.4sqi.net/img/categories_v2/shops/beauty_cosmetic_", "suffix": ".png"}, "primary": true}], "photos": {"count": 0, "groups": []}}, "referralId": "e-0-4cc46d4991413704abbcc255-21"}, {"reasons": {"count": 0, "items": [{"summary": "This spot is popular", "type": "general", "reasonName": "globalInteractionReason"}]}, "venue": {"id": "506cb4a8e4b02db545b4bf5c", "name": "Claudine's", "location": {"address": "311 Smith St", "crossStreet": "Smith St & Union St", "lat": 40.681352187513205, "lng": -73.99410672670723, "labeledLatLngs": [{"label": "display", "lat": 40.681352187513205, "lng": -73.99410672670723}, {"label": "entrance", "lat": 40.681307, "lng": -73.99402}], "distance": 101, "postalCode": "11231", "cc": "US", "city": "Brooklyn", "state": "NY", "country": "United States", "formattedAddress": ["311 Smith St (Smith St & Union St)", "Brooklyn, NY 11231", "United States"]}, "categories": [{"id": "4bf58dd8d48988d110941735", "name": "Italian Restaurant", "pluralName": "Italian Restaurants", "shortName": "Italian", "icon": {"prefix": "https://ss3.4sqi.net/img/categories_v2/food/italian_", "suffix": ".png"}, "primary": true}], "delivery": {"id": "288965", "url": "https://www.seamless.com/menu/claudines-311-smith-st-brooklyn/288965?affiliate=1131&utm_source=foursquare-affiliate-network&utm_medium=affiliate&utm_campaign=1131&utm_content=288965", "provider": {"name": "seamless", "icon": {"prefix": "https://fastly.4sqi.net/img/general/cap/", "sizes": [40, 50], "name": "/delivery_provider_seamless_20180129.png"}}}, "photos": {"count": 0, "groups": []}, "venuePage": {"id": "45552579"}}, "referralId": "e-0-506cb4a8e4b02db545b4bf5c-22"}, {"reasons": {"count": 0, "items": [{"summary": "This spot is popular", "type": "general", "reasonName": "globalInteractionReason"}]}, "venue": {"id": "5afc95d5356b49002c368958", "name": "Emma\u2019s Torch", "location": {"address": "345 Smith St", "crossStreet": "Carroll St", "lat": 40.679993, "lng": -73.994853, "labeledLatLngs": [{"label": "display", "lat": 40.679993, "lng": -73.994853}], "distance": 63, "postalCode": "11231", "cc": "US", "city": "New York", "state": "NY", "country": "United States", "formattedAddress": ["345 Smith St (Carroll St)", "New York, NY 11231", "United States"]}, "categories": [{"id": "4bf58dd8d48988d1c4941735", "name": "Restaurant", "pluralName": "Restaurants", "shortName": "Restaurant", "icon": {"prefix": "https://ss3.4sqi.net/img/categories_v2/food/default_", "suffix": ".png"}, "primary": true}], "photos": {"count": 0, "groups": []}}, "referralId": "e-0-5afc95d5356b49002c368958-23"}, {"reasons": {"count": 0, "items": [{"summary": "This spot is popular", "type": "general", "reasonName": "globalInteractionReason"}]}, "venue": {"id": "4b772b16f964a52048842ee3", "name": "Relaxing On Smith", "location": {"address": "289 Smith St", "lat": 40.682052682471564, "lng": -73.9936405246949, "labeledLatLngs": [{"label": "display", "lat": 40.682052682471564, "lng": -73.9936405246949}, {"label": "entrance", "lat": 40.682042, "lng": -73.993525}], "distance": 188, "postalCode": "11231", "cc": "US", "city": "Brooklyn", "state": "NY", "country": "United States", "formattedAddress": ["289 Smith St", "Brooklyn, NY 11231", "United States"]}, "categories": [{"id": "4bf58dd8d48988d1ed941735", "name": "Spa", "pluralName": "Spas", "shortName": "Spa", "icon": {"prefix": "https://ss3.4sqi.net/img/categories_v2/shops/spa_", "suffix": ".png"}, "primary": true}], "photos": {"count": 0, "groups": []}}, "referralId": "e-0-4b772b16f964a52048842ee3-24"}, {"reasons": {"count": 0, "items": [{"summary": "This spot is popular", "type": "general", "reasonName": "globalInteractionReason"}]}, "venue": {"id": "4decca141f6e3ddebe06c5ef", "name": "Smith Canteen", "location": {"address": "343 Smith St", "crossStreet": "at Carroll St", "lat": 40.6803319104188, "lng": -73.99480141086987, "labeledLatLngs": [{"label": "display", "lat": 40.6803319104188, "lng": -73.99480141086987}, {"label": "entrance", "lat": 40.680304, "lng": -73.994694}], "distance": 26, "postalCode": "11231", "cc": "US", "city": "Brooklyn", "state": "NY", "country": "United States", "formattedAddress": ["343 Smith St (at Carroll St)", "Brooklyn, NY 11231", "United States"]}, "categories": [{"id": "4bf58dd8d48988d16d941735", "name": "Caf\u00e9", "pluralName": "Caf\u00e9s", "shortName": "Caf\u00e9", "icon": {"prefix": "https://ss3.4sqi.net/img/categories_v2/food/cafe_", "suffix": ".png"}, "primary": true}], "photos": {"count": 0, "groups": []}, "venuePage": {"id": "41626544"}}, "referralId": "e-0-4decca141f6e3ddebe06c5ef-25"}, {"reasons": {"count": 0, "items": [{"summary": "This spot is popular", "type": "general", "reasonName": "globalInteractionReason"}]}, "venue": {"id": "55620df6498e7c166d2fcf06", "name": "Lift / Next Level Floats (Brooklyn)", "location": {"address": "320 Court St, 2nd Fl", "crossStreet": "at Sackett St", "lat": 40.683241578458706, "lng": -73.99568796157837, "labeledLatLngs": [{"label": "display", "lat": 40.683241578458706, "lng": -73.99568796157837}], "distance": 313, "postalCode": "11231", "cc": "US", "city": "Brooklyn", "state": "NY", "country": "United States", "formattedAddress": ["320 Court St, 2nd Fl (at Sackett St)", "Brooklyn, NY 11231", "United States"]}, "categories": [{"id": "4bf58dd8d48988d1ed941735", "name": "Spa", "pluralName": "Spas", "shortName": "Spa", "icon": {"prefix": "https://ss3.4sqi.net/img/categories_v2/shops/spa_", "suffix": ".png"}, "primary": true}], "photos": {"count": 0, "groups": []}}, "referralId": "e-0-55620df6498e7c166d2fcf06-26"}, {"reasons": {"count": 0, "items": [{"summary": "This spot is popular", "type": "general", "reasonName": "globalInteractionReason"}]}, "venue": {"id": "580bbed438faa26bf0ed9bf2", "name": "White Maize", "location": {"address": "277 Smith St", "crossStreet": "Smith and Sackett", "lat": 40.68249983837224, "lng": -73.99331251555338, "labeledLatLngs": [{"label": "display", "lat": 40.68249983837224, "lng": -73.99331251555338}], "distance": 245, "postalCode": "11231", "cc": "US", "city": "New York", "state": "NY", "country": "United States", "formattedAddress": ["277 Smith St (Smith and Sackett)", "New York, NY 11231", "United States"]}, "categories": [{"id": "4bf58dd8d48988d1be941735", "name": "Latin American Restaurant", "pluralName": "Latin American Restaurants", "shortName": "Latin American", "icon": {"prefix": "https://ss3.4sqi.net/img/categories_v2/food/latinamerican_", "suffix": ".png"}, "primary": true}], "delivery": {"id": "913978", "url": "https://www.seamless.com/menu/white-maize-277-smith-st-brooklyn/913978?affiliate=1131&utm_source=foursquare-affiliate-network&utm_medium=affiliate&utm_campaign=1131&utm_content=913978", "provider": {"name": "seamless", "icon": {"prefix": "https://fastly.4sqi.net/img/general/cap/", "sizes": [40, 50], "name": "/delivery_provider_seamless_20180129.png"}}}, "photos": {"count": 0, "groups": []}}, "referralId": "e-0-580bbed438faa26bf0ed9bf2-27"}, {"reasons": {"count": 0, "items": [{"summary": "This spot is popular", "type": "general", "reasonName": "globalInteractionReason"}]}, "venue": {"id": "4ccda769c9b84688034ac4c3", "name": "Carroll Park Playground", "location": {"address": "230 Carroll St", "lat": 40.68100242392356, "lng": -73.9950814070307, "labeledLatLngs": [{"label": "display", "lat": 40.68100242392356, "lng": -73.9950814070307}, {"label": "entrance", "lat": 40.681079, "lng": -73.996931}], "distance": 62, "postalCode": "11231", "cc": "US", "city": "Brooklyn", "state": "NY", "country": "United States", "formattedAddress": ["230 Carroll St", "Brooklyn, NY 11231", "United States"]}, "categories": [{"id": "4bf58dd8d48988d1e7941735", "name": "Playground", "pluralName": "Playgrounds", "shortName": "Playground", "icon": {"prefix": "https://ss3.4sqi.net/img/categories_v2/parks_outdoors/playground_", "suffix": ".png"}, "primary": true}], "photos": {"count": 0, "groups": []}}, "referralId": "e-0-4ccda769c9b84688034ac4c3-28"}, {"reasons": {"count": 0, "items": [{"summary": "This spot is popular", "type": "general", "reasonName": "globalInteractionReason"}]}, "venue": {"id": "5df42352f93ca9000762ff64", "name": "Bar B\u00eate", "location": {"address": "263 Smith St", "crossStreet": "at Degraw St", "lat": 40.682922, "lng": -73.992907, "labeledLatLngs": [{"label": "display", "lat": 40.682922, "lng": -73.992907}], "distance": 303, "postalCode": "11231", "cc": "US", "city": "New York", "state": "NY", "country": "United States", "formattedAddress": ["263 Smith St (at Degraw St)", "New York, NY 11231", "United States"]}, "categories": [{"id": "4bf58dd8d48988d10c941735", "name": "French Restaurant", "pluralName": "French Restaurants", "shortName": "French", "icon": {"prefix": "https://ss3.4sqi.net/img/categories_v2/food/french_", "suffix": ".png"}, "primary": true}], "photos": {"count": 0, "groups": []}}, "referralId": "e-0-5df42352f93ca9000762ff64-29"}, {"reasons": {"count": 0, "items": [{"summary": "This spot is popular", "type": "general", "reasonName": "globalInteractionReason"}]}, "venue": {"id": "4a17030ff964a5202e791fe3", "name": "Caputo's Fine Foods", "location": {"address": "460 Court St", "crossStreet": "4th Place", "lat": 40.67818502499354, "lng": -73.99791756559839, "labeledLatLngs": [{"label": "display", "lat": 40.67818502499354, "lng": -73.99791756559839}, {"label": "entrance", "lat": 40.678249, "lng": -73.998017}], "distance": 380, "postalCode": "11231", "cc": "US", "city": "Brooklyn", "state": "NY", "country": "United States", "formattedAddress": ["460 Court St (4th Place)", "Brooklyn, NY 11231", "United States"]}, "categories": [{"id": "4bf58dd8d48988d1f5941735", "name": "Gourmet Shop", "pluralName": "Gourmet Shops", "shortName": "Gourmet", "icon": {"prefix": "https://ss3.4sqi.net/img/categories_v2/shops/food_gourmet_", "suffix": ".png"}, "primary": true}], "photos": {"count": 0, "groups": []}}, "referralId": "e-0-4a17030ff964a5202e791fe3-30"}, {"reasons": {"count": 0, "items": [{"summary": "This spot is popular", "type": "general", "reasonName": "globalInteractionReason"}]}, "venue": {"id": "4b0c277df964a520fa3723e3", "name": "St Paul's Episcopal Church", "location": {"address": "199 Carroll St", "crossStreet": "Clinton", "lat": 40.68181186080849, "lng": -73.99815957153156, "labeledLatLngs": [{"label": "display", "lat": 40.68181186080849, "lng": -73.99815957153156}], "distance": 328, "cc": "US", "neighborhood": "Carroll Gardens", "city": "New York", "state": "NY", "country": "United States", "formattedAddress": ["199 Carroll St (Clinton)", "New York, NY", "United States"]}, "categories": [{"id": "4bf58dd8d48988d132941735", "name": "Church", "pluralName": "Churches", "shortName": "Church", "icon": {"prefix": "https://ss3.4sqi.net/img/categories_v2/building/religious_church_", "suffix": ".png"}, "primary": true}], "photos": {"count": 0, "groups": []}}, "referralId": "e-0-4b0c277df964a520fa3723e3-31"}, {"reasons": {"count": 0, "items": [{"summary": "This spot is popular", "type": "general", "reasonName": "globalInteractionReason"}]}, "venue": {"id": "4a6ef6bef964a5201dd51fe3", "name": "Body Elite Gym", "location": {"address": "348 Court St", "crossStreet": "at Union St.", "lat": 40.68230640174873, "lng": -73.99599575567169, "labeledLatLngs": [{"label": "display", "lat": 40.68230640174873, "lng": -73.99599575567169}], "distance": 226, "postalCode": "11231", "cc": "US", "city": "Brooklyn", "state": "NY", "country": "United States", "formattedAddress": ["348 Court St (at Union St.)", "Brooklyn, NY 11231", "United States"]}, "categories": [{"id": "4bf58dd8d48988d175941735", "name": "Gym / Fitness Center", "pluralName": "Gyms or Fitness Centers", "shortName": "Gym / Fitness", "icon": {"prefix": "https://ss3.4sqi.net/img/categories_v2/building/gym_", "suffix": ".png"}, "primary": true}], "photos": {"count": 0, "groups": []}, "venuePage": {"id": "43302213"}}, "referralId": "e-0-4a6ef6bef964a5201dd51fe3-32"}, {"reasons": {"count": 0, "items": [{"summary": "This spot is popular", "type": "general", "reasonName": "globalInteractionReason"}]}, "venue": {"id": "591e55677247502fb9514269", "name": "Fob Restaurant", "location": {"address": "271 Smith St", "crossStreet": "Degraw and Sackett", "lat": 40.68265981062246, "lng": -73.99316582968643, "labeledLatLngs": [{"label": "display", "lat": 40.68265981062246, "lng": -73.99316582968643}, {"label": "entrance", "lat": 40.68263, "lng": -73.993127}], "distance": 267, "postalCode": "11231", "cc": "US", "city": "Brooklyn", "state": "NY", "country": "United States", "formattedAddress": ["271 Smith St (Degraw and Sackett)", "Brooklyn, NY 11231", "United States"]}, "categories": [{"id": "4eb1bd1c3b7b55596b4a748f", "name": "Filipino Restaurant", "pluralName": "Filipino Restaurants", "shortName": "Filipino", "icon": {"prefix": "https://ss3.4sqi.net/img/categories_v2/food/filipino_", "suffix": ".png"}, "primary": true}], "delivery": {"id": "358177", "url": "https://www.seamless.com/menu/fob-brooklyn-271-smith-st-brooklyn/358177?affiliate=1131&utm_source=foursquare-affiliate-network&utm_medium=affiliate&utm_campaign=1131&utm_content=358177", "provider": {"name": "seamless", "icon": {"prefix": "https://fastly.4sqi.net/img/general/cap/", "sizes": [40, 50], "name": "/delivery_provider_seamless_20180129.png"}}}, "photos": {"count": 0, "groups": []}, "venuePage": {"id": "421021490"}}, "referralId": "e-0-591e55677247502fb9514269-33"}, {"reasons": {"count": 0, "items": [{"summary": "This spot is popular", "type": "general", "reasonName": "globalInteractionReason"}]}, "venue": {"id": "5b760f531fa763002c6a624f", "name": "Malai", "location": {"address": "268 Smith St", "lat": 40.68267220643183, "lng": -73.99321534955325, "labeledLatLngs": [{"label": "display", "lat": 40.68267220643183, "lng": -73.99321534955325}], "distance": 266, "postalCode": "11231", "cc": "US", "city": "New York", "state": "NY", "country": "United States", "formattedAddress": ["268 Smith St", "New York, NY 11231", "United States"]}, "categories": [{"id": "4bf58dd8d48988d1c9941735", "name": "Ice Cream Shop", "pluralName": "Ice Cream Shops", "shortName": "Ice Cream", "icon": {"prefix": "https://ss3.4sqi.net/img/categories_v2/food/icecream_", "suffix": ".png"}, "primary": true}], "photos": {"count": 0, "groups": []}}, "referralId": "e-0-5b760f531fa763002c6a624f-34"}, {"reasons": {"count": 0, "items": [{"summary": "This spot is popular", "type": "general", "reasonName": "globalInteractionReason"}]}, "venue": {"id": "4a564295f964a520dfb41fe3", "name": "Cobble Hill Coffee Shop", "location": {"address": "314 Court St", "crossStreet": "at Sackett St.", "lat": 40.683433578031774, "lng": -73.99542632829885, "labeledLatLngs": [{"label": "display", "lat": 40.683433578031774, "lng": -73.99542632829885}, {"label": "entrance", "lat": 40.68344, "lng": -73.995517}], "distance": 328, "postalCode": "11231", "cc": "US", "city": "Brooklyn", "state": "NY", "country": "United States", "formattedAddress": ["314 Court St (at Sackett St.)", "Brooklyn, NY 11231", "United States"]}, "categories": [{"id": "4bf58dd8d48988d147941735", "name": "Diner", "pluralName": "Diners", "shortName": "Diner", "icon": {"prefix": "https://ss3.4sqi.net/img/categories_v2/food/diner_", "suffix": ".png"}, "primary": true}], "delivery": {"id": "345123", "url": "https://www.seamless.com/menu/cobble-hill-coffee-shop-314-court-st-brooklyn/345123?affiliate=1131&utm_source=foursquare-affiliate-network&utm_medium=affiliate&utm_campaign=1131&utm_content=345123", "provider": {"name": "seamless", "icon": {"prefix": "https://fastly.4sqi.net/img/general/cap/", "sizes": [40, 50], "name": "/delivery_provider_seamless_20180129.png"}}}, "photos": {"count": 0, "groups": []}}, "referralId": "e-0-4a564295f964a520dfb41fe3-35"}, {"reasons": {"count": 0, "items": [{"summary": "This spot is popular", "type": "general", "reasonName": "globalInteractionReason"}]}, "venue": {"id": "4a59edcaf964a52091b91fe3", "name": "K&Y Fruit and Veggie", "location": {"address": "291 Court St", "crossStreet": "btwn Douglass & Degraw St", "lat": 40.68420389756621, "lng": -73.99500092336736, "labeledLatLngs": [{"label": "display", "lat": 40.68420389756621, "lng": -73.99500092336736}, {"label": "entrance", "lat": 40.684116, "lng": -73.994915}], "distance": 408, "postalCode": "11231", "cc": "US", "city": "Brooklyn", "state": "NY", "country": "United States", "formattedAddress": ["291 Court St (btwn Douglass & Degraw St)", "Brooklyn, NY 11231", "United States"]}, "categories": [{"id": "4bf58dd8d48988d1f9941735", "name": "Food & Drink Shop", "pluralName": "Food & Drink Shops", "shortName": "Food & Drink", "icon": {"prefix": "https://ss3.4sqi.net/img/categories_v2/shops/foodanddrink_", "suffix": ".png"}, "primary": true}], "photos": {"count": 0, "groups": []}}, "referralId": "e-0-4a59edcaf964a52091b91fe3-36"}, {"reasons": {"count": 0, "items": [{"summary": "This spot is popular", "type": "general", "reasonName": "globalInteractionReason"}]}, "venue": {"id": "596ab0631de7657c78f4251b", "name": "Brooklyn Pizza Market", "location": {"address": "267 Smith St", "crossStreet": "Degraw", "lat": 40.682695629565806, "lng": -73.9931911856768, "labeledLatLngs": [{"label": "display", "lat": 40.682695629565806, "lng": -73.9931911856768}, {"label": "entrance", "lat": 40.682724, "lng": -73.993064}], "distance": 269, "postalCode": "11231", "cc": "US", "neighborhood": "Carroll Gardens", "city": "Brooklyn", "state": "NY", "country": "United States", "formattedAddress": ["267 Smith St (Degraw)", "Brooklyn, NY 11231", "United States"]}, "categories": [{"id": "4bf58dd8d48988d1ca941735", "name": "Pizza Place", "pluralName": "Pizza Places", "shortName": "Pizza", "icon": {"prefix": "https://ss3.4sqi.net/img/categories_v2/food/pizza_", "suffix": ".png"}, "primary": true}], "delivery": {"id": "486793", "url": "https://www.seamless.com/menu/brooklyn-pizza-market-269-smith-st-brooklyn/486793?affiliate=1131&utm_source=foursquare-affiliate-network&utm_medium=affiliate&utm_campaign=1131&utm_content=486793", "provider": {"name": "seamless", "icon": {"prefix": "https://fastly.4sqi.net/img/general/cap/", "sizes": [40, 50], "name": "/delivery_provider_seamless_20180129.png"}}}, "photos": {"count": 0, "groups": []}}, "referralId": "e-0-596ab0631de7657c78f4251b-37"}, {"reasons": {"count": 0, "items": [{"summary": "This spot is popular", "type": "general", "reasonName": "globalInteractionReason"}]}, "venue": {"id": "5d081f1e8346be002331a324", "name": "East Wind Snack Shop", "location": {"address": "253 Smith St", "crossStreet": "Degraw", "lat": 40.683247, "lng": -73.992662, "labeledLatLngs": [{"label": "display", "lat": 40.683247, "lng": -73.992662}], "distance": 345, "postalCode": "11231", "cc": "US", "city": "New York", "state": "NY", "country": "United States", "formattedAddress": ["253 Smith St (Degraw)", "New York, NY 11231", "United States"]}, "categories": [{"id": "4bf58dd8d48988d108941735", "name": "Dumpling Restaurant", "pluralName": "Dumpling Restaurants", "shortName": "Dumplings", "icon": {"prefix": "https://ss3.4sqi.net/img/categories_v2/food/dumplings_", "suffix": ".png"}, "primary": true}], "delivery": {"id": "1265000", "url": "https://www.seamless.com/menu/east-wind-snack-shop-253-smith-st-brooklyn/1265000?affiliate=1131&utm_source=foursquare-affiliate-network&utm_medium=affiliate&utm_campaign=1131&utm_content=1265000", "provider": {"name": "seamless", "icon": {"prefix": "https://fastly.4sqi.net/img/general/cap/", "sizes": [40, 50], "name": "/delivery_provider_seamless_20180129.png"}}}, "photos": {"count": 0, "groups": []}}, "referralId": "e-0-5d081f1e8346be002331a324-38"}, {"reasons": {"count": 0, "items": [{"summary": "This spot is popular", "type": "general", "reasonName": "globalInteractionReason"}]}, "venue": {"id": "5970b104b9ac383dd3f059c2", "name": "Velvette Brew", "location": {"address": "251 Smith St", "lat": 40.68326476849194, "lng": -73.99275423214551, "labeledLatLngs": [{"label": "display", "lat": 40.68326476849194, "lng": -73.99275423214551}], "distance": 343, "postalCode": "11231", "cc": "US", "city": "New York", "state": "NY", "country": "United States", "formattedAddress": ["251 Smith St", "New York, NY 11231", "United States"]}, "categories": [{"id": "4bf58dd8d48988d1e0931735", "name": "Coffee Shop", "pluralName": "Coffee Shops", "shortName": "Coffee Shop", "icon": {"prefix": "https://ss3.4sqi.net/img/categories_v2/food/coffeeshop_", "suffix": ".png"}, "primary": true}], "photos": {"count": 0, "groups": []}, "venuePage": {"id": "536407102"}}, "referralId": "e-0-5970b104b9ac383dd3f059c2-39"}, {"reasons": {"count": 0, "items": [{"summary": "This spot is popular", "type": "general", "reasonName": "globalInteractionReason"}]}, "venue": {"id": "5a959bf0646e38268740806b", "name": "Boran", "location": {"address": "462 Court St", "lat": 40.67816088984144, "lng": -73.9979304582126, "labeledLatLngs": [{"label": "display", "lat": 40.67816088984144, "lng": -73.9979304582126}], "distance": 382, "postalCode": "11231", "cc": "US", "city": "Brooklyn", "state": "NY", "country": "United States", "formattedAddress": ["462 Court St", "Brooklyn, NY 11231", "United States"]}, "categories": [{"id": "4bf58dd8d48988d149941735", "name": "Thai Restaurant", "pluralName": "Thai Restaurants", "shortName": "Thai", "icon": {"prefix": "https://ss3.4sqi.net/img/categories_v2/food/thai_", "suffix": ".png"}, "primary": true}], "delivery": {"id": "736700", "url": "https://www.seamless.com/menu/boran-462-court-st-brooklyn/736700?affiliate=1131&utm_source=foursquare-affiliate-network&utm_medium=affiliate&utm_campaign=1131&utm_content=736700", "provider": {"name": "seamless", "icon": {"prefix": "https://fastly.4sqi.net/img/general/cap/", "sizes": [40, 50], "name": "/delivery_provider_seamless_20180129.png"}}}, "photos": {"count": 0, "groups": []}}, "referralId": "e-0-5a959bf0646e38268740806b-40"}, {"reasons": {"count": 0, "items": [{"summary": "This spot is popular", "type": "general", "reasonName": "globalInteractionReason"}]}, "venue": {"id": "4ba66b9af964a520965039e3", "name": "Woods Grove", "location": {"address": "302 Court St", "crossStreet": "sackett and degraw", "lat": 40.683925, "lng": -73.995313, "labeledLatLngs": [{"label": "display", "lat": 40.683925, "lng": -73.995313}], "distance": 380, "postalCode": "11231", "cc": "US", "city": "Brooklyn", "state": "NY", "country": "United States", "formattedAddress": ["302 Court St (sackett and degraw)", "Brooklyn, NY 11231", "United States"]}, "categories": [{"id": "4bf58dd8d48988d128951735", "name": "Gift Shop", "pluralName": "Gift Shops", "shortName": "Gift Shop", "icon": {"prefix": "https://ss3.4sqi.net/img/categories_v2/shops/giftshop_", "suffix": ".png"}, "primary": true}], "photos": {"count": 0, "groups": []}, "venuePage": {"id": "90485603"}}, "referralId": "e-0-4ba66b9af964a520965039e3-41"}, {"reasons": {"count": 0, "items": [{"summary": "This spot is popular", "type": "general", "reasonName": "globalInteractionReason"}]}, "venue": {"id": "5ab6635edb1d812e09c3bc11", "name": "Bklyn Habit", "location": {"address": "405 Smith St", "crossStreet": "at 4th St", "lat": 40.67808968531469, "lng": -73.99609214717839, "labeledLatLngs": [{"label": "display", "lat": 40.67808968531469, "lng": -73.99609214717839}], "distance": 298, "postalCode": "11231", "cc": "US", "city": "New York", "state": "NY", "country": "United States", "formattedAddress": ["405 Smith St (at 4th St)", "New York, NY 11231", "United States"]}, "categories": [{"id": "4bf58dd8d48988d1e0931735", "name": "Coffee Shop", "pluralName": "Coffee Shops", "shortName": "Coffee Shop", "icon": {"prefix": "https://ss3.4sqi.net/img/categories_v2/food/coffeeshop_", "suffix": ".png"}, "primary": true}], "photos": {"count": 0, "groups": []}}, "referralId": "e-0-5ab6635edb1d812e09c3bc11-42"}, {"reasons": {"count": 0, "items": [{"summary": "This spot is popular", "type": "general", "reasonName": "globalInteractionReason"}]}, "venue": {"id": "555bed29498ebc63937b3795", "name": "NatureEs", "location": {"address": "21 1st St", "crossStreet": "2nd Avenue", "lat": 40.678834, "lng": -73.99216700000001, "labeledLatLngs": [{"label": "display", "lat": 40.678834, "lng": -73.99216700000001}, {"label": "entrance", "lat": 40.678779, "lng": -73.992208}], "distance": 283, "postalCode": "11231", "cc": "US", "city": "Brooklyn", "state": "NY", "country": "United States", "formattedAddress": ["21 1st St (2nd Avenue)", "Brooklyn, NY 11231", "United States"]}, "categories": [{"id": "4bf58dd8d48988d112941735", "name": "Juice Bar", "pluralName": "Juice Bars", "shortName": "Juice Bar", "icon": {"prefix": "https://ss3.4sqi.net/img/categories_v2/food/juicebar_", "suffix": ".png"}, "primary": true}], "photos": {"count": 0, "groups": []}}, "referralId": "e-0-555bed29498ebc63937b3795-43"}, {"reasons": {"count": 0, "items": [{"summary": "This spot is popular", "type": "general", "reasonName": "globalInteractionReason"}]}, "venue": {"id": "4a74ac21f964a52025df1fe3", "name": "Video Free Brooklyn", "location": {"address": "244 Smith St", "crossStreet": "Douglass St.", "lat": 40.68342399141131, "lng": -73.99270380728866, "labeledLatLngs": [{"label": "display", "lat": 40.68342399141131, "lng": -73.99270380728866}], "distance": 360, "postalCode": "11231", "cc": "US", "city": "Brooklyn", "state": "NY", "country": "United States", "formattedAddress": ["244 Smith St (Douglass St.)", "Brooklyn, NY 11231", "United States"]}, "categories": [{"id": "4bf58dd8d48988d126951735", "name": "Video Store", "pluralName": "Video Stores", "shortName": "Video Store", "icon": {"prefix": "https://ss3.4sqi.net/img/categories_v2/shops/video_", "suffix": ".png"}, "primary": true}], "photos": {"count": 0, "groups": []}}, "referralId": "e-0-4a74ac21f964a52025df1fe3-44"}, {"reasons": {"count": 0, "items": [{"summary": "This spot is popular", "type": "general", "reasonName": "globalInteractionReason"}]}, "venue": {"id": "5904b98ceacf4521f010e3c2", "name": "Books Are Magic", "location": {"address": "225 Smith St", "crossStreet": "Butler St", "lat": 40.68414040579443, "lng": -73.99213407055058, "labeledLatLngs": [{"label": "display", "lat": 40.68414040579443, "lng": -73.99213407055058}], "distance": 453, "postalCode": "11231", "cc": "US", "city": "Brooklyn", "state": "NY", "country": "United States", "formattedAddress": ["225 Smith St (Butler St)", "Brooklyn, NY 11231", "United States"]}, "categories": [{"id": "4bf58dd8d48988d114951735", "name": "Bookstore", "pluralName": "Bookstores", "shortName": "Bookstore", "icon": {"prefix": "https://ss3.4sqi.net/img/categories_v2/shops/bookstore_", "suffix": ".png"}, "primary": true}], "photos": {"count": 0, "groups": []}}, "referralId": "e-0-5904b98ceacf4521f010e3c2-45"}, {"reasons": {"count": 0, "items": [{"summary": "This spot is popular", "type": "general", "reasonName": "globalInteractionReason"}]}, "venue": {"id": "4ab17211f964a520806920e3", "name": "Carroll Gardens Wines & Liquors", "location": {"address": "427 Court St", "crossStreet": "Corner of 3rd Place", "lat": 40.67842634713535, "lng": -73.997790230946, "labeledLatLngs": [{"label": "display", "lat": 40.67842634713535, "lng": -73.997790230946}, {"label": "entrance", "lat": 40.678471, "lng": -73.997632}], "distance": 354, "postalCode": "11231", "cc": "US", "city": "Brooklyn", "state": "NY", "country": "United States", "formattedAddress": ["427 Court St (Corner of 3rd Place)", "Brooklyn, NY 11231", "United States"]}, "categories": [{"id": "4bf58dd8d48988d119951735", "name": "Wine Shop", "pluralName": "Wine Shops", "shortName": "Wine Shop", "icon": {"prefix": "https://ss3.4sqi.net/img/categories_v2/shops/food_wineshop_", "suffix": ".png"}, "primary": true}], "photos": {"count": 0, "groups": []}, "venuePage": {"id": "90484412"}}, "referralId": "e-0-4ab17211f964a520806920e3-46"}, {"reasons": {"count": 0, "items": [{"summary": "This spot is popular", "type": "general", "reasonName": "globalInteractionReason"}]}, "venue": {"id": "4bf5797fff90c9b6b66d5628", "name": "Insight Optical", "location": {"address": "306 Court St", "lat": 40.68381109217476, "lng": -73.99500131607056, "labeledLatLngs": [{"label": "display", "lat": 40.68381109217476, "lng": -73.99500131607056}], "distance": 365, "postalCode": "11231", "cc": "US", "city": "Brooklyn", "state": "NY", "country": "United States", "formattedAddress": ["306 Court St", "Brooklyn, NY 11231", "United States"]}, "categories": [{"id": "4d954afda243a5684865b473", "name": "Optical Shop", "pluralName": "Optical Shops", "shortName": "Optical", "icon": {"prefix": "https://ss3.4sqi.net/img/categories_v2/building/medical_opticalshop_", "suffix": ".png"}, "primary": true}], "photos": {"count": 0, "groups": []}}, "referralId": "e-0-4bf5797fff90c9b6b66d5628-47"}, {"reasons": {"count": 0, "items": [{"summary": "This spot is popular", "type": "general", "reasonName": "globalInteractionReason"}]}, "venue": {"id": "4b37a784f964a520b54325e3", "name": "Yesterday's News", "location": {"address": "428 Court St", "crossStreet": "at 2nd Pl", "lat": 40.67935181959642, "lng": -73.99739979900502, "labeledLatLngs": [{"label": "display", "lat": 40.67935181959642, "lng": -73.99739979900502}, {"label": "entrance", "lat": 40.679339, "lng": -73.997501}], "distance": 266, "postalCode": "11231", "cc": "US", "city": "Brooklyn", "state": "NY", "country": "United States", "formattedAddress": ["428 Court St (at 2nd Pl)", "Brooklyn, NY 11231", "United States"]}, "categories": [{"id": "4bf58dd8d48988d101951735", "name": "Thrift / Vintage Store", "pluralName": "Thrift / Vintage Stores", "shortName": "Thrift / Vintage", "icon": {"prefix": "https://ss3.4sqi.net/img/categories_v2/shops/default_", "suffix": ".png"}, "primary": true}], "photos": {"count": 0, "groups": []}}, "referralId": "e-0-4b37a784f964a520b54325e3-48"}, {"reasons": {"count": 0, "items": [{"summary": "This spot is popular", "type": "general", "reasonName": "globalInteractionReason"}]}, "venue": {"id": "3fd66200f964a52075eb1ee3", "name": "Caputo Bakery", "location": {"address": "329 Court St", "crossStreet": "btwn Sackett & Union St", "lat": 40.682972506411595, "lng": -73.99559695307425, "labeledLatLngs": [{"label": "display", "lat": 40.682972506411595, "lng": -73.99559695307425}, {"label": "entrance", "lat": 40.682856, "lng": -73.995514}], "distance": 282, "postalCode": "11231", "cc": "US", "city": "Brooklyn", "state": "NY", "country": "United States", "formattedAddress": ["329 Court St (btwn Sackett & Union St)", "Brooklyn, NY 11231", "United States"]}, "categories": [{"id": "4bf58dd8d48988d16a941735", "name": "Bakery", "pluralName": "Bakeries", "shortName": "Bakery", "icon": {"prefix": "https://ss3.4sqi.net/img/categories_v2/food/bakery_", "suffix": ".png"}, "primary": true}], "photos": {"count": 0, "groups": []}}, "referralId": "e-0-3fd66200f964a52075eb1ee3-49"}, {"reasons": {"count": 0, "items": [{"summary": "This spot is popular", "type": "general", "reasonName": "globalInteractionReason"}]}, "venue": {"id": "4a75f1d7f964a520c1e11fe3", "name": "Court Pastry Shop", "location": {"address": "298 Court St", "crossStreet": "at Degraw St", "lat": 40.684067, "lng": -73.995377, "labeledLatLngs": [{"label": "display", "lat": 40.684067, "lng": -73.995377}, {"label": "entrance", "lat": 40.684029, "lng": -73.995237}], "distance": 397, "postalCode": "11231", "cc": "US", "city": "Brooklyn", "state": "NY", "country": "United States", "formattedAddress": ["298 Court St (at Degraw St)", "Brooklyn, NY 11231", "United States"]}, "categories": [{"id": "4bf58dd8d48988d16a941735", "name": "Bakery", "pluralName": "Bakeries", "shortName": "Bakery", "icon": {"prefix": "https://ss3.4sqi.net/img/categories_v2/food/bakery_", "suffix": ".png"}, "primary": true}], "photos": {"count": 0, "groups": []}}, "referralId": "e-0-4a75f1d7f964a520c1e11fe3-50"}, {"reasons": {"count": 0, "items": [{"summary": "This spot is popular", "type": "general", "reasonName": "globalInteractionReason"}]}, "venue": {"id": "43cd1428f964a520cf2d1fe3", "name": "Abilene", "location": {"address": "442 Court St", "crossStreet": "at 3rd Pl.", "lat": 40.67885737510263, "lng": -73.9976157385781, "labeledLatLngs": [{"label": "display", "lat": 40.67885737510263, "lng": -73.9976157385781}, {"label": "entrance", "lat": 40.678934, "lng": -73.997702}], "distance": 312, "postalCode": "11231", "cc": "US", "city": "Brooklyn", "state": "NY", "country": "United States", "formattedAddress": ["442 Court St (at 3rd Pl.)", "Brooklyn, NY 11231", "United States"]}, "categories": [{"id": "4bf58dd8d48988d121941735", "name": "Lounge", "pluralName": "Lounges", "shortName": "Lounge", "icon": {"prefix": "https://ss3.4sqi.net/img/categories_v2/nightlife/default_", "suffix": ".png"}, "primary": true}], "photos": {"count": 0, "groups": []}}, "referralId": "e-0-43cd1428f964a520cf2d1fe3-51"}, {"reasons": {"count": 0, "items": [{"summary": "This spot is popular", "type": "general", "reasonName": "globalInteractionReason"}]}, "venue": {"id": "41abb800f964a520561e1fe3", "name": "Frankies 457 Spuntino", "location": {"address": "457 Court St", "crossStreet": "btwn 4th Pl & Luquer St", "lat": 40.67735978455962, "lng": -73.99804694982672, "labeledLatLngs": [{"label": "display", "lat": 40.67735978455962, "lng": -73.99804694982672}], "distance": 455, "postalCode": "11231", "cc": "US", "city": "Brooklyn", "state": "NY", "country": "United States", "formattedAddress": ["457 Court St (btwn 4th Pl & Luquer St)", "Brooklyn, NY 11231", "United States"]}, "categories": [{"id": "4bf58dd8d48988d110941735", "name": "Italian Restaurant", "pluralName": "Italian Restaurants", "shortName": "Italian", "icon": {"prefix": "https://ss3.4sqi.net/img/categories_v2/food/italian_", "suffix": ".png"}, "primary": true}], "delivery": {"id": "383168", "url": "https://www.seamless.com/menu/frankies-457-457-court-st-brooklyn/383168?affiliate=1131&utm_source=foursquare-affiliate-network&utm_medium=affiliate&utm_campaign=1131&utm_content=383168", "provider": {"name": "seamless", "icon": {"prefix": "https://fastly.4sqi.net/img/general/cap/", "sizes": [40, 50], "name": "/delivery_provider_seamless_20180129.png"}}}, "photos": {"count": 0, "groups": []}}, "referralId": "e-0-41abb800f964a520561e1fe3-52"}, {"reasons": {"count": 0, "items": [{"summary": "This spot is popular", "type": "general", "reasonName": "globalInteractionReason"}]}, "venue": {"id": "4a5a110ef964a520aeb91fe3", "name": "Scotto's Wine Cellar", "location": {"address": "318 Court St", "crossStreet": "btwn DeGraw & Sackett St", "lat": 40.68331935177977, "lng": -73.99545217317198, "labeledLatLngs": [{"label": "display", "lat": 40.68331935177977, "lng": -73.99545217317198}, {"label": "entrance", "lat": 40.683337, "lng": -73.995567}], "distance": 316, "postalCode": "11231", "cc": "US", "city": "Brooklyn", "state": "NY", "country": "United States", "formattedAddress": ["318 Court St (btwn DeGraw & Sackett St)", "Brooklyn, NY 11231", "United States"]}, "categories": [{"id": "4bf58dd8d48988d119951735", "name": "Wine Shop", "pluralName": "Wine Shops", "shortName": "Wine Shop", "icon": {"prefix": "https://ss3.4sqi.net/img/categories_v2/shops/food_wineshop_", "suffix": ".png"}, "primary": true}], "photos": {"count": 0, "groups": []}, "venuePage": {"id": "80212979"}}, "referralId": "e-0-4a5a110ef964a520aeb91fe3-53"}, {"reasons": {"count": 0, "items": [{"summary": "This spot is popular", "type": "general", "reasonName": "globalInteractionReason"}]}, "venue": {"id": "4a1ac273f964a5209c7a1fe3", "name": "The Green Building", "location": {"address": "452 Union St", "crossStreet": "at Bond St", "lat": 40.67983382258071, "lng": -73.98951456910291, "labeledLatLngs": [{"label": "display", "lat": 40.67983382258071, "lng": -73.98951456910291}], "distance": 440, "postalCode": "11231", "cc": "US", "city": "Brooklyn", "state": "NY", "country": "United States", "formattedAddress": ["452 Union St (at Bond St)", "Brooklyn, NY 11231", "United States"]}, "categories": [{"id": "4bf58dd8d48988d171941735", "name": "Event Space", "pluralName": "Event Spaces", "shortName": "Event Space", "icon": {"prefix": "https://ss3.4sqi.net/img/categories_v2/building/eventspace_", "suffix": ".png"}, "primary": true}], "photos": {"count": 0, "groups": []}}, "referralId": "e-0-4a1ac273f964a5209c7a1fe3-54"}, {"reasons": {"count": 0, "items": [{"summary": "This spot is popular", "type": "general", "reasonName": "globalInteractionReason"}]}, "venue": {"id": "598a6b230d8a0f0b2dd27b68", "name": "Big Tiny", "location": {"address": "244 Smith St", "crossStreet": "Douglass", "lat": 40.68343464931776, "lng": -73.99270240440293, "labeledLatLngs": [{"label": "display", "lat": 40.68343464931776, "lng": -73.99270240440293}], "distance": 361, "postalCode": "11231", "cc": "US", "city": "New York", "state": "NY", "country": "United States", "formattedAddress": ["244 Smith St (Douglass)", "New York, NY 11231", "United States"]}, "categories": [{"id": "4bf58dd8d48988d123941735", "name": "Wine Bar", "pluralName": "Wine Bars", "shortName": "Wine Bar", "icon": {"prefix": "https://ss3.4sqi.net/img/categories_v2/food/winery_", "suffix": ".png"}, "primary": true}], "photos": {"count": 0, "groups": []}}, "referralId": "e-0-598a6b230d8a0f0b2dd27b68-55"}, {"reasons": {"count": 0, "items": [{"summary": "This spot is popular", "type": "general", "reasonName": "globalInteractionReason"}]}, "venue": {"id": "4fe67a8be4b0d55eff42728f", "name": "Lavender Lake", "location": {"address": "383 Carroll St", "crossStreet": "at Bond St", "lat": 40.678592679700195, "lng": -73.98981881895646, "labeledLatLngs": [{"label": "display", "lat": 40.678592679700195, "lng": -73.98981881895646}, {"label": "entrance", "lat": 40.678503, "lng": -73.98973}], "distance": 462, "postalCode": "11231", "cc": "US", "neighborhood": "Gowanus", "city": "Brooklyn", "state": "NY", "country": "United States", "formattedAddress": ["383 Carroll St (at Bond St)", "Brooklyn, NY 11231", "United States"]}, "categories": [{"id": "4bf58dd8d48988d116941735", "name": "Bar", "pluralName": "Bars", "shortName": "Bar", "icon": {"prefix": "https://ss3.4sqi.net/img/categories_v2/nightlife/pub_", "suffix": ".png"}, "primary": true}], "delivery": {"id": "2139379", "url": "https://www.seamless.com/menu/lavender-lake-383-carroll-st-new-york-city/2139379?affiliate=1131&utm_source=foursquare-affiliate-network&utm_medium=affiliate&utm_campaign=1131&utm_content=2139379", "provider": {"name": "seamless", "icon": {"prefix": "https://fastly.4sqi.net/img/general/cap/", "sizes": [40, 50], "name": "/delivery_provider_seamless_20180129.png"}}}, "photos": {"count": 0, "groups": []}, "venuePage": {"id": "43164742"}}, "referralId": "e-0-4fe67a8be4b0d55eff42728f-56"}, {"reasons": {"count": 0, "items": [{"summary": "This spot is popular", "type": "general", "reasonName": "globalInteractionReason"}]}, "venue": {"id": "55513f41498ed9b1b3c392e1", "name": "Leyenda", "location": {"address": "221 Smith St", "crossStreet": "btwn Butler St & Baltic St", "lat": 40.68434364554136, "lng": -73.99205460336245, "labeledLatLngs": [{"label": "display", "lat": 40.68434364554136, "lng": -73.99205460336245}], "distance": 476, "postalCode": "11201", "cc": "US", "city": "Brooklyn", "state": "NY", "country": "United States", "formattedAddress": ["221 Smith St (btwn Butler St & Baltic St)", "Brooklyn, NY 11201", "United States"]}, "categories": [{"id": "4bf58dd8d48988d11e941735", "name": "Cocktail Bar", "pluralName": "Cocktail Bars", "shortName": "Cocktail", "icon": {"prefix": "https://ss3.4sqi.net/img/categories_v2/nightlife/cocktails_", "suffix": ".png"}, "primary": true}], "photos": {"count": 0, "groups": []}}, "referralId": "e-0-55513f41498ed9b1b3c392e1-57"}, {"reasons": {"count": 0, "items": [{"summary": "This spot is popular", "type": "general", "reasonName": "globalInteractionReason"}]}, "venue": {"id": "5d56bcea6ac2400008de14d9", "name": "F&F Pizzeria", "location": {"address": "459 Court St", "crossStreet": "Luquer St", "lat": 40.677342, "lng": -73.998162, "labeledLatLngs": [{"label": "display", "lat": 40.677342, "lng": -73.998162}, {"label": "entrance", "lat": 40.677319, "lng": -73.998179}], "distance": 463, "postalCode": "11231", "cc": "US", "city": "Brooklyn", "state": "NY", "country": "United States", "formattedAddress": ["459 Court St (Luquer St)", "Brooklyn, NY 11231", "United States"]}, "categories": [{"id": "4bf58dd8d48988d1ca941735", "name": "Pizza Place", "pluralName": "Pizza Places", "shortName": "Pizza", "icon": {"prefix": "https://ss3.4sqi.net/img/categories_v2/food/pizza_", "suffix": ".png"}, "primary": true}], "photos": {"count": 0, "groups": []}}, "referralId": "e-0-5d56bcea6ac2400008de14d9-58"}, {"reasons": {"count": 0, "items": [{"summary": "This spot is popular", "type": "general", "reasonName": "globalInteractionReason"}]}, "venue": {"id": "4a5be87cf964a520f8bb1fe3", "name": "Stinky Bklyn LLC", "location": {"address": "215 Smith St", "crossStreet": "btwn Baltic & Butler St", "lat": 40.684524832799234, "lng": -73.99192064507484, "labeledLatLngs": [{"label": "display", "lat": 40.684524832799234, "lng": -73.99192064507484}], "distance": 499, "postalCode": "11201", "cc": "US", "city": "Brooklyn", "state": "NY", "country": "United States", "formattedAddress": ["215 Smith St (btwn Baltic & Butler St)", "Brooklyn, NY 11201", "United States"]}, "categories": [{"id": "4bf58dd8d48988d11e951735", "name": "Cheese Shop", "pluralName": "Cheese Shops", "shortName": "Cheese Shop", "icon": {"prefix": "https://ss3.4sqi.net/img/categories_v2/shops/food_cheese_", "suffix": ".png"}, "primary": true}], "photos": {"count": 0, "groups": []}, "venuePage": {"id": "48032828"}}, "referralId": "e-0-4a5be87cf964a520f8bb1fe3-59"}, {"reasons": {"count": 0, "items": [{"summary": "This spot is popular", "type": "general", "reasonName": "globalInteractionReason"}]}, "venue": {"id": "4e2ca88afa76bbf847e6886c", "name": "Jolie Cantina", "location": {"address": "241 Smith St", "crossStreet": "at Douglass St", "lat": 40.683534960802, "lng": -73.99254139304226, "labeledLatLngs": [{"label": "display", "lat": 40.683534960802, "lng": -73.99254139304226}, {"label": "entrance", "lat": 40.683605, "lng": -73.992463}], "distance": 378, "postalCode": "11231", "cc": "US", "city": "Brooklyn", "state": "NY", "country": "United States", "formattedAddress": ["241 Smith St (at Douglass St)", "Brooklyn, NY 11231", "United States"]}, "categories": [{"id": "4bf58dd8d48988d10c941735", "name": "French Restaurant", "pluralName": "French Restaurants", "shortName": "French", "icon": {"prefix": "https://ss3.4sqi.net/img/categories_v2/food/french_", "suffix": ".png"}, "primary": true}], "photos": {"count": 0, "groups": []}, "venuePage": {"id": "83854496"}}, "referralId": "e-0-4e2ca88afa76bbf847e6886c-60"}, {"reasons": {"count": 0, "items": [{"summary": "This spot is popular", "type": "general", "reasonName": "globalInteractionReason"}]}, "venue": {"id": "48a410c0f964a52092511fe3", "name": "Clover Club", "location": {"address": "210 Smith St", "crossStreet": "btwn Baltic & Butler St", "lat": 40.6845495098338, "lng": -73.99198070888959, "labeledLatLngs": [{"label": "display", "lat": 40.6845495098338, "lng": -73.99198070888959}, {"label": "entrance", "lat": 40.684557, "lng": -73.992057}], "distance": 500, "postalCode": "11201", "cc": "US", "city": "Brooklyn", "state": "NY", "country": "United States", "formattedAddress": ["210 Smith St (btwn Baltic & Butler St)", "Brooklyn, NY 11201", "United States"]}, "categories": [{"id": "4bf58dd8d48988d11e941735", "name": "Cocktail Bar", "pluralName": "Cocktail Bars", "shortName": "Cocktail", "icon": {"prefix": "https://ss3.4sqi.net/img/categories_v2/nightlife/cocktails_", "suffix": ".png"}, "primary": true}], "photos": {"count": 0, "groups": []}}, "referralId": "e-0-48a410c0f964a52092511fe3-61"}, {"reasons": {"count": 0, "items": [{"summary": "This spot is popular", "type": "general", "reasonName": "globalInteractionReason"}]}, "venue": {"id": "40788a80f964a5206bf21ee3", "name": "Zombie Hut", "location": {"address": "273 Smith St", "crossStreet": "btwn Degraw St & Sackett St", "lat": 40.682593123240906, "lng": -73.99319944391982, "labeledLatLngs": [{"label": "display", "lat": 40.682593123240906, "lng": -73.99319944391982}, {"label": "entrance", "lat": 40.68258, "lng": -73.993161}], "distance": 259, "postalCode": "11231", "cc": "US", "city": "Brooklyn", "state": "NY", "country": "United States", "formattedAddress": ["273 Smith St (btwn Degraw St & Sackett St)", "Brooklyn, NY 11231", "United States"]}, "categories": [{"id": "56aa371be4b08b9a8d57354d", "name": "Tiki Bar", "pluralName": "Tiki Bars", "shortName": "Tiki Bar", "icon": {"prefix": "https://ss3.4sqi.net/img/categories_v2/nightlife/cocktails_", "suffix": ".png"}, "primary": true}], "photos": {"count": 0, "groups": []}, "venuePage": {"id": "69528194"}}, "referralId": "e-0-40788a80f964a5206bf21ee3-62"}, {"reasons": {"count": 0, "items": [{"summary": "This spot is popular", "type": "general", "reasonName": "globalInteractionReason"}]}, "venue": {"id": "5766ad56498ebf269c3737d2", "name": "Gersi", "location": {"address": "316 Court St", "crossStreet": "Sackett Street", "lat": 40.68337949868895, "lng": -73.99549228030504, "labeledLatLngs": [{"label": "display", "lat": 40.68337949868895, "lng": -73.99549228030504}], "distance": 323, "postalCode": "11231", "cc": "US", "city": "Brooklyn", "state": "NY", "country": "United States", "formattedAddress": ["316 Court St (Sackett Street)", "Brooklyn, NY 11231", "United States"]}, "categories": [{"id": "4bf58dd8d48988d110941735", "name": "Italian Restaurant", "pluralName": "Italian Restaurants", "shortName": "Italian", "icon": {"prefix": "https://ss3.4sqi.net/img/categories_v2/food/italian_", "suffix": ".png"}, "primary": true}], "delivery": {"id": "344242", "url": "https://www.seamless.com/menu/gersi-316-court-st-brooklyn/344242?affiliate=1131&utm_source=foursquare-affiliate-network&utm_medium=affiliate&utm_campaign=1131&utm_content=344242", "provider": {"name": "seamless", "icon": {"prefix": "https://fastly.4sqi.net/img/general/cap/", "sizes": [40, 50], "name": "/delivery_provider_seamless_20180129.png"}}}, "photos": {"count": 0, "groups": []}}, "referralId": "e-0-5766ad56498ebf269c3737d2-63"}, {"reasons": {"count": 0, "items": [{"summary": "This spot is popular", "type": "general", "reasonName": "globalInteractionReason"}]}, "venue": {"id": "4c012c1d9a950f4798a508c6", "name": "Black Gold Brooklyn", "location": {"address": "461 Court St", "lat": 40.677310990918016, "lng": -73.99830846112506, "labeledLatLngs": [{"label": "display", "lat": 40.677310990918016, "lng": -73.99830846112506}, {"label": "entrance", "lat": 40.677268, "lng": -73.998205}], "distance": 473, "postalCode": "11231", "cc": "US", "city": "Brooklyn", "state": "NY", "country": "United States", "formattedAddress": ["461 Court St", "Brooklyn, NY 11231", "United States"]}, "categories": [{"id": "4bf58dd8d48988d10d951735", "name": "Record Shop", "pluralName": "Record Shops", "shortName": "Record Shop", "icon": {"prefix": "https://ss3.4sqi.net/img/categories_v2/shops/record_shop_", "suffix": ".png"}, "primary": true}], "photos": {"count": 0, "groups": []}, "venuePage": {"id": "81440579"}}, "referralId": "e-0-4c012c1d9a950f4798a508c6-64"}, {"reasons": {"count": 0, "items": [{"summary": "This spot is popular", "type": "general", "reasonName": "globalInteractionReason"}]}, "venue": {"id": "49e14fdbf964a520ba611fe3", "name": "The Chocolate Room", "location": {"address": "269 Court St", "crossStreet": "at Butler St.", "lat": 40.68482443807677, "lng": -73.9946722086937, "labeledLatLngs": [{"label": "display", "lat": 40.68482443807677, "lng": -73.9946722086937}, {"label": "entrance", "lat": 40.684809, "lng": -73.994574}], "distance": 476, "postalCode": "11231", "cc": "US", "city": "Brooklyn", "state": "NY", "country": "United States", "formattedAddress": ["269 Court St (at Butler St.)", "Brooklyn, NY 11231", "United States"]}, "categories": [{"id": "4bf58dd8d48988d1d0941735", "name": "Dessert Shop", "pluralName": "Dessert Shops", "shortName": "Desserts", "icon": {"prefix": "https://ss3.4sqi.net/img/categories_v2/food/dessert_", "suffix": ".png"}, "primary": true}], "photos": {"count": 0, "groups": []}}, "referralId": "e-0-49e14fdbf964a520ba611fe3-65"}, {"reasons": {"count": 0, "items": [{"summary": "This spot is popular", "type": "general", "reasonName": "globalInteractionReason"}]}, "venue": {"id": "52abab14498edda7df00ccaf", "name": "Bar San Miguel", "location": {"address": "307 Smith St", "lat": 40.681327, "lng": -73.993941, "labeledLatLngs": [{"label": "display", "lat": 40.681327, "lng": -73.993941}, {"label": "entrance", "lat": 40.681397, "lng": -73.993961}], "distance": 106, "postalCode": "11231", "cc": "US", "city": "Brooklyn", "state": "NY", "country": "United States", "formattedAddress": ["307 Smith St", "Brooklyn, NY 11231", "United States"]}, "categories": [{"id": "4bf58dd8d48988d11e941735", "name": "Cocktail Bar", "pluralName": "Cocktail Bars", "shortName": "Cocktail", "icon": {"prefix": "https://ss3.4sqi.net/img/categories_v2/nightlife/cocktails_", "suffix": ".png"}, "primary": true}], "delivery": {"id": "661186", "url": "https://www.seamless.com/menu/bar-san-miguel-307-smith-st-brooklyn/661186?affiliate=1131&utm_source=foursquare-affiliate-network&utm_medium=affiliate&utm_campaign=1131&utm_content=661186", "provider": {"name": "seamless", "icon": {"prefix": "https://fastly.4sqi.net/img/general/cap/", "sizes": [40, 50], "name": "/delivery_provider_seamless_20180129.png"}}}, "photos": {"count": 0, "groups": []}, "venuePage": {"id": "82216060"}}, "referralId": "e-0-52abab14498edda7df00ccaf-66"}, {"reasons": {"count": 0, "items": [{"summary": "This spot is popular", "type": "general", "reasonName": "globalInteractionReason"}]}, "venue": {"id": "4fae97d4e4b0afbb67047437", "name": "First Place Provisions", "location": {"address": "414 Court St", "crossStreet": "btwn 1st Pl & 2nd Pl", "lat": 40.67996418564845, "lng": -73.99705639322528, "labeledLatLngs": [{"label": "display", "lat": 40.67996418564845, "lng": -73.99705639322528}], "distance": 212, "postalCode": "11231", "cc": "US", "city": "Brooklyn", "state": "NY", "country": "United States", "formattedAddress": ["414 Court St (btwn 1st Pl & 2nd Pl)", "Brooklyn, NY 11231", "United States"]}, "categories": [{"id": "4bf58dd8d48988d1f5941735", "name": "Gourmet Shop", "pluralName": "Gourmet Shops", "shortName": "Gourmet", "icon": {"prefix": "https://ss3.4sqi.net/img/categories_v2/shops/food_gourmet_", "suffix": ".png"}, "primary": true}], "photos": {"count": 0, "groups": []}}, "referralId": "e-0-4fae97d4e4b0afbb67047437-67"}, {"reasons": {"count": 0, "items": [{"summary": "This spot is popular", "type": "general", "reasonName": "globalInteractionReason"}]}, "venue": {"id": "49e49a74f964a52010631fe3", "name": "D'Amico Coffee Roasters", "location": {"address": "309 Court St", "crossStreet": "Degraw St", "lat": 40.683593021952916, "lng": -73.99530657474676, "labeledLatLngs": [{"label": "display", "lat": 40.683593021952916, "lng": -73.99530657474676}, {"label": "entrance", "lat": 40.683503, "lng": -73.995206}], "distance": 344, "postalCode": "11231", "cc": "US", "city": "Brooklyn", "state": "NY", "country": "United States", "formattedAddress": ["309 Court St (Degraw St)", "Brooklyn, NY 11231", "United States"]}, "categories": [{"id": "4bf58dd8d48988d1e0931735", "name": "Coffee Shop", "pluralName": "Coffee Shops", "shortName": "Coffee Shop", "icon": {"prefix": "https://ss3.4sqi.net/img/categories_v2/food/coffeeshop_", "suffix": ".png"}, "primary": true}], "photos": {"count": 0, "groups": []}, "venuePage": {"id": "75561806"}}, "referralId": "e-0-49e49a74f964a52010631fe3-68"}, {"reasons": {"count": 0, "items": [{"summary": "This spot is popular", "type": "general", "reasonName": "globalInteractionReason"}]}, "venue": {"id": "51365533582f411c528d0dcb", "name": "Poppy's Catering + Events", "location": {"address": "243 Degraw St", "crossStreet": "btwn Tompkins & Clinton", "lat": 40.684235179644695, "lng": -73.99692476598801, "labeledLatLngs": [{"label": "display", "lat": 40.684235179644695, "lng": -73.99692476598801}, {"label": "entrance", "lat": 40.684309, "lng": -73.996972}], "distance": 453, "postalCode": "11231", "cc": "US", "city": "Brooklyn", "state": "NY", "country": "United States", "formattedAddress": ["243 Degraw St (btwn Tompkins & Clinton)", "Brooklyn, NY 11231", "United States"]}, "categories": [{"id": "4bf58dd8d48988d1f9941735", "name": "Food & Drink Shop", "pluralName": "Food & Drink Shops", "shortName": "Food & Drink", "icon": {"prefix": "https://ss3.4sqi.net/img/categories_v2/shops/foodanddrink_", "suffix": ".png"}, "primary": true}], "photos": {"count": 0, "groups": []}}, "referralId": "e-0-51365533582f411c528d0dcb-69"}, {"reasons": {"count": 0, "items": [{"summary": "This spot is popular", "type": "general", "reasonName": "globalInteractionReason"}]}, "venue": {"id": "4a32d7ebf964a520a29a1fe3", "name": "Enoteca on Court", "location": {"address": "347 Court St", "crossStreet": "at Union St.", "lat": 40.6822145298343, "lng": -73.99594672669618, "labeledLatLngs": [{"label": "display", "lat": 40.6822145298343, "lng": -73.99594672669618}], "distance": 215, "postalCode": "11231", "cc": "US", "city": "Brooklyn", "state": "NY", "country": "United States", "formattedAddress": ["347 Court St (at Union St.)", "Brooklyn, NY 11231", "United States"]}, "categories": [{"id": "4bf58dd8d48988d110941735", "name": "Italian Restaurant", "pluralName": "Italian Restaurants", "shortName": "Italian", "icon": {"prefix": "https://ss3.4sqi.net/img/categories_v2/food/italian_", "suffix": ".png"}, "primary": true}], "delivery": {"id": "297606", "url": "https://www.seamless.com/menu/enoteca-on-court-347-court-st-brooklyn/297606?affiliate=1131&utm_source=foursquare-affiliate-network&utm_medium=affiliate&utm_campaign=1131&utm_content=297606", "provider": {"name": "seamless", "icon": {"prefix": "https://fastly.4sqi.net/img/general/cap/", "sizes": [40, 50], "name": "/delivery_provider_seamless_20180129.png"}}}, "photos": {"count": 0, "groups": []}}, "referralId": "e-0-4a32d7ebf964a520a29a1fe3-70"}, {"reasons": {"count": 0, "items": [{"summary": "This spot is popular", "type": "general", "reasonName": "globalInteractionReason"}]}, "venue": {"id": "5ccdd5fd8b98fd0039cf6e99", "name": "Bond Street Coffee And Goods", "location": {"address": "365 Bond street", "lat": 40.67789, "lng": -73.990785, "labeledLatLngs": [{"label": "display", "lat": 40.67789, "lng": -73.990785}], "distance": 440, "postalCode": "11231", "cc": "US", "city": "New York", "state": "NY", "country": "United States", "formattedAddress": ["365 Bond street", "New York, NY 11231", "United States"]}, "categories": [{"id": "4bf58dd8d48988d1e0931735", "name": "Coffee Shop", "pluralName": "Coffee Shops", "shortName": "Coffee Shop", "icon": {"prefix": "https://ss3.4sqi.net/img/categories_v2/food/coffeeshop_", "suffix": ".png"}, "primary": true}], "delivery": {"id": "1436114", "url": "https://www.seamless.com/menu/bond-st-coffee-and-goods-365-bond-st-brooklyn/1436114?affiliate=1131&utm_source=foursquare-affiliate-network&utm_medium=affiliate&utm_campaign=1131&utm_content=1436114", "provider": {"name": "seamless", "icon": {"prefix": "https://fastly.4sqi.net/img/general/cap/", "sizes": [40, 50], "name": "/delivery_provider_seamless_20180129.png"}}}, "photos": {"count": 0, "groups": []}}, "referralId": "e-0-5ccdd5fd8b98fd0039cf6e99-71"}, {"reasons": {"count": 0, "items": [{"summary": "This spot is popular", "type": "general", "reasonName": "globalInteractionReason"}]}, "venue": {"id": "43d3a659f964a520212e1fe3", "name": "Cobble Hill Cinemas", "location": {"address": "265 Court St", "crossStreet": "at Butler St", "lat": 40.68483225711327, "lng": -73.99450049084267, "labeledLatLngs": [{"label": "display", "lat": 40.68483225711327, "lng": -73.99450049084267}, {"label": "entrance", "lat": 40.684914, "lng": -73.994539}], "distance": 477, "postalCode": "11231", "cc": "US", "city": "Brooklyn", "state": "NY", "country": "United States", "formattedAddress": ["265 Court St (at Butler St)", "Brooklyn, NY 11231", "United States"]}, "categories": [{"id": "4bf58dd8d48988d17e941735", "name": "Indie Movie Theater", "pluralName": "Indie Movie Theaters", "shortName": "Indie Movies", "icon": {"prefix": "https://ss3.4sqi.net/img/categories_v2/arts_entertainment/movietheater_", "suffix": ".png"}, "primary": true}], "photos": {"count": 0, "groups": []}}, "referralId": "e-0-43d3a659f964a520212e1fe3-72"}, {"reasons": {"count": 0, "items": [{"summary": "This spot is popular", "type": "general", "reasonName": "globalInteractionReason"}]}, "venue": {"id": "5001e284e4b0d8ae060e1035", "name": "Ciros on Smith", "location": {"address": "307 Smith St", "crossStreet": "Union", "lat": 40.68148804379713, "lng": -73.99402221751436, "labeledLatLngs": [{"label": "display", "lat": 40.68148804379713, "lng": -73.99402221751436}], "distance": 118, "postalCode": "11231", "cc": "US", "city": "Brooklyn", "state": "NY", "country": "United States", "formattedAddress": ["307 Smith St (Union)", "Brooklyn, NY 11231", "United States"]}, "categories": [{"id": "4bf58dd8d48988d110941735", "name": "Italian Restaurant", "pluralName": "Italian Restaurants", "shortName": "Italian", "icon": {"prefix": "https://ss3.4sqi.net/img/categories_v2/food/italian_", "suffix": ".png"}, "primary": true}], "photos": {"count": 0, "groups": []}}, "referralId": "e-0-5001e284e4b0d8ae060e1035-73"}, {"reasons": {"count": 0, "items": [{"summary": "This spot is popular", "type": "general", "reasonName": "globalInteractionReason"}]}, "venue": {"id": "52118b7c93cd2b431b344a7e", "name": "Pure Barre Brooklyn", "location": {"address": "266 Court St", "lat": 40.68502762774786, "lng": -73.99487516013619, "labeledLatLngs": [{"label": "display", "lat": 40.68502762774786, "lng": -73.99487516013619}], "distance": 499, "postalCode": "11231", "cc": "US", "city": "Brooklyn", "state": "NY", "country": "United States", "formattedAddress": ["266 Court St", "Brooklyn, NY 11231", "United States"]}, "categories": [{"id": "4bf58dd8d48988d175941735", "name": "Gym / Fitness Center", "pluralName": "Gyms or Fitness Centers", "shortName": "Gym / Fitness", "icon": {"prefix": "https://ss3.4sqi.net/img/categories_v2/building/gym_", "suffix": ".png"}, "primary": true}], "photos": {"count": 0, "groups": []}}, "referralId": "e-0-52118b7c93cd2b431b344a7e-74"}, {"reasons": {"count": 0, "items": [{"summary": "This spot is popular", "type": "general", "reasonName": "globalInteractionReason"}]}, "venue": {"id": "5c034c3ff5e9d7002c2a78b1", "name": "Franks Wine Bar", "location": {"address": "465 Court St", "crossStreet": "Luquer Street", "lat": 40.67718059828416, "lng": -73.9983236384829, "labeledLatLngs": [{"label": "display", "lat": 40.67718059828416, "lng": -73.9983236384829}], "distance": 485, "postalCode": "11231", "cc": "US", "city": "Brooklyn", "state": "NY", "country": "United States", "formattedAddress": ["465 Court St (Luquer Street)", "Brooklyn, NY 11231", "United States"]}, "categories": [{"id": "4bf58dd8d48988d110941735", "name": "Italian Restaurant", "pluralName": "Italian Restaurants", "shortName": "Italian", "icon": {"prefix": "https://ss3.4sqi.net/img/categories_v2/food/italian_", "suffix": ".png"}, "primary": true}], "photos": {"count": 0, "groups": []}}, "referralId": "e-0-5c034c3ff5e9d7002c2a78b1-75"}, {"reasons": {"count": 0, "items": [{"summary": "This spot is popular", "type": "general", "reasonName": "globalInteractionReason"}]}, "venue": {"id": "49d7e8c0f964a520795d1fe3", "name": "Giardini Pizza", "location": {"address": "363 Smith St", "crossStreet": "btwn 1st Pl & 2nd St", "lat": 40.679354, "lng": -73.995358, "labeledLatLngs": [{"label": "display", "lat": 40.679354, "lng": -73.995358}, {"label": "entrance", "lat": 40.679588, "lng": -73.995182}], "distance": 144, "postalCode": "11231", "cc": "US", "city": "Brooklyn", "state": "NY", "country": "United States", "formattedAddress": ["363 Smith St (btwn 1st Pl & 2nd St)", "Brooklyn, NY 11231", "United States"]}, "categories": [{"id": "4bf58dd8d48988d1ca941735", "name": "Pizza Place", "pluralName": "Pizza Places", "shortName": "Pizza", "icon": {"prefix": "https://ss3.4sqi.net/img/categories_v2/food/pizza_", "suffix": ".png"}, "primary": true}], "delivery": {"id": "23034", "url": "https://www.seamless.com/menu/giardini-gourmet-pizza-363-smith-st-new-york/23034?affiliate=1131&utm_source=foursquare-affiliate-network&utm_medium=affiliate&utm_campaign=1131&utm_content=23034", "provider": {"name": "seamless", "icon": {"prefix": "https://fastly.4sqi.net/img/general/cap/", "sizes": [40, 50], "name": "/delivery_provider_seamless_20180129.png"}}}, "photos": {"count": 0, "groups": []}}, "referralId": "e-0-49d7e8c0f964a520795d1fe3-76"}, {"reasons": {"count": 0, "items": [{"summary": "This spot is popular", "type": "general", "reasonName": "globalInteractionReason"}]}, "venue": {"id": "4af5cb3cf964a520edfc21e3", "name": "Cornerstone Healing", "location": {"address": "476 Court St", "crossStreet": "btwn 4th Pl & Luquer St", "lat": 40.67767279893695, "lng": -73.99813485488849, "labeledLatLngs": [{"label": "display", "lat": 40.67767279893695, "lng": -73.99813485488849}], "distance": 433, "postalCode": "11231", "cc": "US", "city": "Brooklyn", "state": "NY", "country": "United States", "formattedAddress": ["476 Court St (btwn 4th Pl & Luquer St)", "Brooklyn, NY 11231", "United States"]}, "categories": [{"id": "4bf58dd8d48988d1ed941735", "name": "Spa", "pluralName": "Spas", "shortName": "Spa", "icon": {"prefix": "https://ss3.4sqi.net/img/categories_v2/shops/spa_", "suffix": ".png"}, "primary": true}], "photos": {"count": 0, "groups": []}}, "referralId": "e-0-4af5cb3cf964a520edfc21e3-77"}, {"reasons": {"count": 0, "items": [{"summary": "This spot is popular", "type": "general", "reasonName": "globalInteractionReason"}]}, "venue": {"id": "5a56ac38dd70c54d5825002f", "name": "Panzerotti Bites", "location": {"address": "235 Smith St", "lat": 40.683770029680794, "lng": -73.99247007991913, "labeledLatLngs": [{"label": "display", "lat": 40.683770029680794, "lng": -73.99247007991913}, {"label": "entrance", "lat": 40.683751, "lng": -73.992365}], "distance": 404, "postalCode": "11231", "cc": "US", "city": "New York", "state": "NY", "country": "United States", "formattedAddress": ["235 Smith St", "New York, NY 11231", "United States"]}, "categories": [{"id": "4bf58dd8d48988d110941735", "name": "Italian Restaurant", "pluralName": "Italian Restaurants", "shortName": "Italian", "icon": {"prefix": "https://ss3.4sqi.net/img/categories_v2/food/italian_", "suffix": ".png"}, "primary": true}], "photos": {"count": 0, "groups": []}}, "referralId": "e-0-5a56ac38dd70c54d5825002f-78"}, {"reasons": {"count": 0, "items": [{"summary": "This spot is popular", "type": "general", "reasonName": "globalInteractionReason"}]}, "venue": {"id": "4b36a63bf964a520e53925e3", "name": "Union Market", "location": {"address": "288 Court St", "crossStreet": "btwn Degraw & Douglass St", "lat": 40.684286653090375, "lng": -73.99503480405993, "labeledLatLngs": [{"label": "display", "lat": 40.684286653090375, "lng": -73.99503480405993}, {"label": "entrance", "lat": 40.684283, "lng": -73.995115}], "distance": 418, "postalCode": "11231", "cc": "US", "city": "Brooklyn", "state": "NY", "country": "United States", "formattedAddress": ["288 Court St (btwn Degraw & Douglass St)", "Brooklyn, NY 11231", "United States"]}, "categories": [{"id": "4bf58dd8d48988d118951735", "name": "Grocery Store", "pluralName": "Grocery Stores", "shortName": "Grocery Store", "icon": {"prefix": "https://ss3.4sqi.net/img/categories_v2/shops/food_grocery_", "suffix": ".png"}, "primary": true}], "photos": {"count": 0, "groups": []}}, "referralId": "e-0-4b36a63bf964a520e53925e3-79"}, {"reasons": {"count": 0, "items": [{"summary": "This spot is popular", "type": "general", "reasonName": "globalInteractionReason"}]}, "venue": {"id": "4af715d1f964a520a90522e3", "name": "Pizzazzz Toyz", "location": {"address": "281 Court St", "lat": 40.6846180285592, "lng": -73.99484056066986, "labeledLatLngs": [{"label": "display", "lat": 40.6846180285592, "lng": -73.99484056066986}, {"label": "entrance", "lat": 40.684553, "lng": -73.9947}], "distance": 454, "postalCode": "11231", "cc": "US", "city": "Brooklyn", "state": "NY", "country": "United States", "formattedAddress": ["281 Court St", "Brooklyn, NY 11231", "United States"]}, "categories": [{"id": "4bf58dd8d48988d1f3941735", "name": "Toy / Game Store", "pluralName": "Toy / Game Stores", "shortName": "Toys & Games", "icon": {"prefix": "https://ss3.4sqi.net/img/categories_v2/shops/toys_", "suffix": ".png"}, "primary": true}], "photos": {"count": 0, "groups": []}}, "referralId": "e-0-4af715d1f964a520a90522e3-80"}, {"reasons": {"count": 0, "items": [{"summary": "This spot is popular", "type": "general", "reasonName": "globalInteractionReason"}]}, "venue": {"id": "4a89eee1f964a520630920e3", "name": "Park Natural & Organic Foods", "location": {"address": "350 Court St", "crossStreet": "btwn Union & President St", "lat": 40.68229826298082, "lng": -73.99597145323372, "labeledLatLngs": [{"label": "display", "lat": 40.68229826298082, "lng": -73.99597145323372}], "distance": 225, "postalCode": "11231", "cc": "US", "city": "New York", "state": "NY", "country": "United States", "formattedAddress": ["350 Court St (btwn Union & President St)", "New York, NY 11231", "United States"]}, "categories": [{"id": "4bf58dd8d48988d118951735", "name": "Grocery Store", "pluralName": "Grocery Stores", "shortName": "Grocery Store", "icon": {"prefix": "https://ss3.4sqi.net/img/categories_v2/shops/food_grocery_", "suffix": ".png"}, "primary": true}], "photos": {"count": 0, "groups": []}, "venuePage": {"id": "151220702"}}, "referralId": "e-0-4a89eee1f964a520630920e3-81"}, {"reasons": {"count": 0, "items": [{"summary": "This spot is popular", "type": "general", "reasonName": "globalInteractionReason"}]}, "venue": {"id": "4a760fa2f964a52013e21fe3", "name": "The WingBar", "location": {"address": "275 Smith St", "crossStreet": "btwn Degraw & Sackett", "lat": 40.682556312238596, "lng": -73.99327716562713, "labeledLatLngs": [{"label": "display", "lat": 40.682556312238596, "lng": -73.99327716562713}], "distance": 252, "postalCode": "11231", "cc": "US", "city": "Brooklyn", "state": "NY", "country": "United States", "formattedAddress": ["275 Smith St (btwn Degraw & Sackett)", "Brooklyn, NY 11231", "United States"]}, "categories": [{"id": "4bf58dd8d48988d14c941735", "name": "Wings Joint", "pluralName": "Wings Joints", "shortName": "Wings", "icon": {"prefix": "https://ss3.4sqi.net/img/categories_v2/food/wings_", "suffix": ".png"}, "primary": true}], "delivery": {"id": "320830", "url": "https://www.seamless.com/menu/the-wingbar-275-smith-st-brooklyn/320830?affiliate=1131&utm_source=foursquare-affiliate-network&utm_medium=affiliate&utm_campaign=1131&utm_content=320830", "provider": {"name": "seamless", "icon": {"prefix": "https://fastly.4sqi.net/img/general/cap/", "sizes": [40, 50], "name": "/delivery_provider_seamless_20180129.png"}}}, "photos": {"count": 0, "groups": []}}, "referralId": "e-0-4a760fa2f964a52013e21fe3-82"}, {"reasons": {"count": 0, "items": [{"summary": "This spot is popular", "type": "general", "reasonName": "globalInteractionReason"}]}, "venue": {"id": "4a5f7061f964a52093bf1fe3", "name": "El Nuevo Portal Restaurant", "location": {"address": "217 Smith St", "crossStreet": "Butler", "lat": 40.684476920044794, "lng": -73.99197772291994, "labeledLatLngs": [{"label": "display", "lat": 40.684476920044794, "lng": -73.99197772291994}, {"label": "entrance", "lat": 40.684438, "lng": -73.991901}], "distance": 493, "postalCode": "11201", "cc": "US", "city": "Brooklyn", "state": "NY", "country": "United States", "formattedAddress": ["217 Smith St (Butler)", "Brooklyn, NY 11201", "United States"]}, "categories": [{"id": "4bf58dd8d48988d150941735", "name": "Spanish Restaurant", "pluralName": "Spanish Restaurants", "shortName": "Spanish", "icon": {"prefix": "https://ss3.4sqi.net/img/categories_v2/food/spanish_", "suffix": ".png"}, "primary": true}], "delivery": {"id": "66971", "url": "https://www.seamless.com/menu/el-nuevo-portal-217-smith-st-brooklyn/66971?affiliate=1131&utm_source=foursquare-affiliate-network&utm_medium=affiliate&utm_campaign=1131&utm_content=66971", "provider": {"name": "seamless", "icon": {"prefix": "https://fastly.4sqi.net/img/general/cap/", "sizes": [40, 50], "name": "/delivery_provider_seamless_20180129.png"}}}, "photos": {"count": 0, "groups": []}}, "referralId": "e-0-4a5f7061f964a52093bf1fe3-83"}, {"reasons": {"count": 0, "items": [{"summary": "This spot is popular", "type": "general", "reasonName": "globalInteractionReason"}]}, "venue": {"id": "4a5bda1df964a520e1bb1fe3", "name": "Sal's Pizzeria", "location": {"address": "305 Court St", "crossStreet": "at Degraw St", "lat": 40.683751717511115, "lng": -73.99520790172392, "labeledLatLngs": [{"label": "display", "lat": 40.683751717511115, "lng": -73.99520790172392}, {"label": "entrance", "lat": 40.683607, "lng": -73.995156}], "distance": 360, "postalCode": "11231", "cc": "US", "city": "Brooklyn", "state": "NY", "country": "United States", "formattedAddress": ["305 Court St (at Degraw St)", "Brooklyn, NY 11231", "United States"]}, "categories": [{"id": "4bf58dd8d48988d1ca941735", "name": "Pizza Place", "pluralName": "Pizza Places", "shortName": "Pizza", "icon": {"prefix": "https://ss3.4sqi.net/img/categories_v2/food/pizza_", "suffix": ".png"}, "primary": true}], "photos": {"count": 0, "groups": []}}, "referralId": "e-0-4a5bda1df964a520e1bb1fe3-84"}, {"reasons": {"count": 0, "items": [{"summary": "This spot is popular", "type": "general", "reasonName": "globalInteractionReason"}]}, "venue": {"id": "4b54c86af964a5203acc27e3", "name": "Michael's Shoe Repair", "location": {"address": "319 Smith St", "lat": 40.681092, "lng": -73.99407099999999, "labeledLatLngs": [{"label": "display", "lat": 40.681092, "lng": -73.99407099999999}], "distance": 78, "postalCode": "11231", "cc": "US", "city": "Brooklyn", "state": "NY", "country": "United States", "formattedAddress": ["319 Smith St", "Brooklyn, NY 11231", "United States"]}, "categories": [{"id": "4bf58dd8d48988d107951735", "name": "Shoe Store", "pluralName": "Shoe Stores", "shortName": "Shoes", "icon": {"prefix": "https://ss3.4sqi.net/img/categories_v2/shops/apparel_shoestore_", "suffix": ".png"}, "primary": true}], "photos": {"count": 0, "groups": []}}, "referralId": "e-0-4b54c86af964a5203acc27e3-85"}, {"reasons": {"count": 0, "items": [{"summary": "This spot is popular", "type": "general", "reasonName": "globalInteractionReason"}]}, "venue": {"id": "53dea262498e9ef3f562f846", "name": "Remedies Herb Shop", "location": {"address": "453 Court St", "lat": 40.677629515608665, "lng": -73.99821393811095, "labeledLatLngs": [{"label": "display", "lat": 40.677629515608665, "lng": -73.99821393811095}], "distance": 441, "postalCode": "11231", "cc": "US", "city": "Brooklyn", "state": "NY", "country": "United States", "formattedAddress": ["453 Court St", "Brooklyn, NY 11231", "United States"]}, "categories": [{"id": "52f2ab2ebcbc57f1066b8b2c", "name": "Herbs & Spices Store", "pluralName": "Herbs & Spices Stores", "shortName": "Herbs & Spices Store", "icon": {"prefix": "https://ss3.4sqi.net/img/categories_v2/shops/default_", "suffix": ".png"}, "primary": true}], "photos": {"count": 0, "groups": []}}, "referralId": "e-0-53dea262498e9ef3f562f846-86"}, {"reasons": {"count": 0, "items": [{"summary": "This spot is popular", "type": "general", "reasonName": "globalInteractionReason"}]}, "venue": {"id": "4b773beaf964a5204a8a2ee3", "name": "Carroll Gardens Fish Market", "location": {"address": "359 Court St", "crossStreet": "President St.", "lat": 40.68178942112374, "lng": -73.9962439554752, "labeledLatLngs": [{"label": "display", "lat": 40.68178942112374, "lng": -73.9962439554752}, {"label": "entrance", "lat": 40.681844, "lng": -73.996011}], "distance": 193, "postalCode": "11231", "cc": "US", "city": "Brooklyn", "state": "NY", "country": "United States", "formattedAddress": ["359 Court St (President St.)", "Brooklyn, NY 11231", "United States"]}, "categories": [{"id": "4bf58dd8d48988d10e951735", "name": "Fish Market", "pluralName": "Fish Markets", "shortName": "Fish Market", "icon": {"prefix": "https://ss3.4sqi.net/img/categories_v2/shops/food_fishmarket_", "suffix": ".png"}, "primary": true}], "photos": {"count": 0, "groups": []}}, "referralId": "e-0-4b773beaf964a5204a8a2ee3-87"}, {"reasons": {"count": 0, "items": [{"summary": "This spot is popular", "type": "general", "reasonName": "globalInteractionReason"}]}, "venue": {"id": "58016254d67c1565bc122795", "name": "Via Roma Pizza Bar", "location": {"address": "445 Court St", "lat": 40.678066512611316, "lng": -73.99792297920966, "labeledLatLngs": [{"label": "display", "lat": 40.678066512611316, "lng": -73.99792297920966}, {"label": "entrance", "lat": 40.67806, "lng": -73.997824}], "distance": 389, "postalCode": "11231", "cc": "US", "city": "Brooklyn", "state": "NY", "country": "United States", "formattedAddress": ["445 Court St", "Brooklyn, NY 11231", "United States"]}, "categories": [{"id": "4bf58dd8d48988d1ca941735", "name": "Pizza Place", "pluralName": "Pizza Places", "shortName": "Pizza", "icon": {"prefix": "https://ss3.4sqi.net/img/categories_v2/food/pizza_", "suffix": ".png"}, "primary": true}], "delivery": {"id": "345019", "url": "https://www.seamless.com/menu/via-roma-445-court-st-brooklyn/345019?affiliate=1131&utm_source=foursquare-affiliate-network&utm_medium=affiliate&utm_campaign=1131&utm_content=345019", "provider": {"name": "seamless", "icon": {"prefix": "https://fastly.4sqi.net/img/general/cap/", "sizes": [40, 50], "name": "/delivery_provider_seamless_20180129.png"}}}, "photos": {"count": 0, "groups": []}}, "referralId": "e-0-58016254d67c1565bc122795-88"}, {"reasons": {"count": 0, "items": [{"summary": "This spot is popular", "type": "general", "reasonName": "globalInteractionReason"}]}, "venue": {"id": "4cc4db8f80624688841f392f", "name": "Baskin-Robbins", "location": {"address": "383 Court St", "crossStreet": "Smith", "lat": 40.68043275494836, "lng": -73.99653462270317, "labeledLatLngs": [{"label": "display", "lat": 40.68043275494836, "lng": -73.99653462270317}, {"label": "entrance", "lat": 40.680489, "lng": -73.996653}], "distance": 159, "postalCode": "11231", "cc": "US", "city": "Brooklyn", "state": "NY", "country": "United States", "formattedAddress": ["383 Court St (Smith)", "Brooklyn, NY 11231", "United States"]}, "categories": [{"id": "4bf58dd8d48988d1c9941735", "name": "Ice Cream Shop", "pluralName": "Ice Cream Shops", "shortName": "Ice Cream", "icon": {"prefix": "https://ss3.4sqi.net/img/categories_v2/food/icecream_", "suffix": ".png"}, "primary": true}], "photos": {"count": 0, "groups": []}}, "referralId": "e-0-4cc4db8f80624688841f392f-89"}, {"reasons": {"count": 0, "items": [{"summary": "This spot is popular", "type": "general", "reasonName": "globalInteractionReason"}]}, "venue": {"id": "4b1345b4f964a5200f9623e3", "name": "Swallow", "location": {"address": "361 Smith St", "crossStreet": "1st Pl", "lat": 40.67958354596541, "lng": -73.99536869062659, "labeledLatLngs": [{"label": "display", "lat": 40.67958354596541, "lng": -73.99536869062659}, {"label": "entrance", "lat": 40.679642, "lng": -73.995145}], "distance": 122, "postalCode": "11231", "cc": "US", "city": "Brooklyn", "state": "NY", "country": "United States", "formattedAddress": ["361 Smith St (1st Pl)", "Brooklyn, NY 11231", "United States"]}, "categories": [{"id": "4bf58dd8d48988d128951735", "name": "Gift Shop", "pluralName": "Gift Shops", "shortName": "Gift Shop", "icon": {"prefix": "https://ss3.4sqi.net/img/categories_v2/shops/giftshop_", "suffix": ".png"}, "primary": true}], "photos": {"count": 0, "groups": []}}, "referralId": "e-0-4b1345b4f964a5200f9623e3-90"}, {"reasons": {"count": 0, "items": [{"summary": "This spot is popular", "type": "general", "reasonName": "globalInteractionReason"}]},