[{"reasons": {"count": 0, "items": [{"summary": "This spot is popular", "type": "general", "reasonName": "globalInteractionReason"}]}, "venue": {"id": "43d102bff964a520fb2d1fe3", "name": "Cobble Hill Park", "location": {"address": "Clinton St", "crossStreet": "btwn Congress St & Verandah Pl", "lat": 40.688148727061524, "lng": -73.99575586235375, "labeledLatLngs": [{"label": "display", "lat": 40.688148727061524, "lng": -73.99575586235375}], "distance": 238, "postalCode": "11231", "cc": "US", "neighborhood": "Cobble Hill", "city": "Brooklyn", "state": "NY", "country": "United States", "formattedAddress": ["Clinton St (btwn Congress St & Verandah Pl)", "Brooklyn, NY 11231", "United States"]}, "categories": [{"id": "4bf58dd8d48988d1e7941735", "name": "Playground", "pluralName": "Playgrounds", "shortName": "Playground", "icon": {"prefix": "https://ss3.4sqi.net/img/categories_v2/parks_outdoors/playground_", "suffix": ".png"}, "primary": true}], "photos": {"count": 0, "groups": []}}, "referralId": "e-0-43d102bff964a520fb2d1fe3-0"}, {"reasons": {"count": 0, "items": [{"summary": "This spot is popular", "type": "general", "reasonName": "globalInteractionReason"}]}, "venue": {"id": "4a801d3bf964a520a4f41fe3", "name": "Bonafide Deli & Cafe", "location": {"address": "118 Kane St", "crossStreet": "Hicks Street", "lat": 40.68703485486189, "lng": -73.99963617324829, "labeledLatLngs": [{"label": "display", "lat": 40.68703485486189, "lng": -73.99963617324829}, {"label": "entrance", "lat": 40.687074, "lng": -73.999614}], "distance": 133, "postalCode": "11231", "cc": "US", "city": "Brooklyn", "state": "NY", "country": "United States", "formattedAddress": ["118 Kane St (Hicks Street)", "Brooklyn, NY 11231", "United States"]}, "categories": [{"id": "4bf58dd8d48988d146941735", "name": "Deli / Bodega", "pluralName": "Delis / Bodegas", "shortName": "Deli / Bodega", "icon": {"prefix": "https://ss3.4sqi.net/img/categories_v2/food/deli_", "suffix": ".png"}, "primary": true}], "delivery": {"id": "322808", "url": "https://www.seamless.com/menu/bonafide-delicatessen-and-cafe-118-kane-st-brooklyn/322808?affiliate=1131&utm_source=foursquare-affiliate-network&utm_medium=affiliate&utm_campaign=1131&utm_content=322808", "provider": {"name": "seamless", "icon": {"prefix": "https://fastly.4sqi.net/img/general/cap/", "sizes": [40, 50], "name": "/delivery_provider_seamless_20180129.png"}}}, "photos": {"count": 0, "groups": []}}, "referralId": "e-0-4a801d3bf964a520a4f41fe3-1"}, {"reasons": {"count": 0, "items": [{"summary": "This spot is popular", "type": "general", "reasonName": "globalInteractionReason"}]}, "venue": {"id": "4b6457edf964a52009ac2ae3", "name": "Henry Street Pilates", "location": {"address": "385 Henry St", "lat": 40.6881139497672, "lng": -73.99750763847939, "labeledLatLngs": [{"label": "display", "lat": 40.6881139497672, "lng": -73.99750763847939}, {"label": "entrance", "lat": 40.688183, "lng": -73.997389}], "distance": 91, "postalCode": "11201", "cc": "US", "city": "Brooklyn", "state": "NY", "country": "United States", "formattedAddress": ["385 Henry St", "Brooklyn, NY 11201", "United States"]}, "categories": [{"id": "5744ccdfe4b0c0459246b4b2", "name": "Pilates Studio", "pluralName": "Pilates Studios", "shortName": "Pilates Studio", "icon": {"prefix": "https://ss3.4sqi.net/img/categories_v2/shops/gym_yogastudio_", "suffix": ".png"}, "primary": true}], "photos": {"count": 0, "groups": []}}, "referralId": "e-0-4b6457edf964a52009ac2ae3-2"}, {"reasons": {"count": 0, "items": [{"summary": "This spot is popular", "type": "general", "reasonName": "globalInteractionReason"}]}, "venue": {"id": "4dea82c7d4c00071b825604e", "name": "The Hop Shop", "location": {"address": "121 Columbia St", "crossStreet": "Kane st", "lat": 40.687549212081024, "lng": -74.0013329507082, "labeledLatLngs": [{"label": "display", "lat": 40.687549212081024, "lng": -74.0013329507082}], "distance": 237, "postalCode": "11231", "cc": "US", "neighborhood": "Columbia Street Waterfront District, NY", "city": "Brooklyn", "state": "NY", "country": "United States", "formattedAddress": ["121 Columbia St (Kane st)", "Brooklyn, NY 11231", "United States"]}, "categories": [{"id": "4bf58dd8d48988d116941735", "name": "Bar", "pluralName": "Bars", "shortName": "Bar", "icon": {"prefix": "https://ss3.4sqi.net/img/categories_v2/nightlife/pub_", "suffix": ".png"}, "primary": true}], "photos": {"count": 0, "groups": []}, "venuePage": {"id": "125746018"}}, "referralId": "e-0-4dea82c7d4c00071b825604e-3"}, {"reasons": {"count": 0, "items": [{"summary": "This spot is popular", "type": "general", "reasonName": "globalInteractionReason"}]}, "venue": {"id": "4f6e5ea9e4b086107787908b", "name": "La Vara", "location": {"address": "268 Clinton St", "crossStreet": "btwn Warren St & Verandah Pl", "lat": 40.68785080611599, "lng": -73.99558233584929, "labeledLatLngs": [{"label": "display", "lat": 40.68785080611599, "lng": -73.99558233584929}], "distance": 251, "postalCode": "11201", "cc": "US", "city": "Brooklyn", "state": "NY", "country": "United States", "formattedAddress": ["268 Clinton St (btwn Warren St & Verandah Pl)", "Brooklyn, NY 11201", "United States"]}, "categories": [{"id": "4bf58dd8d48988d150941735", "name": "Spanish Restaurant", "pluralName": "Spanish Restaurants", "shortName": "Spanish", "icon": {"prefix": "https://ss3.4sqi.net/img/categories_v2/food/spanish_", "suffix": ".png"}, "primary": true}], "photos": {"count": 0, "groups": []}}, "referralId": "e-0-4f6e5ea9e4b086107787908b-4"}, {"reasons": {"count": 0, "items": [{"summary": "This spot is popular", "type": "general", "reasonName": "globalInteractionReason"}]}, "venue": {"id": "48a41073f964a52091511fe3", "name": "Hibino", "location": {"address": "333 Henry St", "crossStreet": "at Pacific St", "lat": 40.69007601730789, "lng": -73.99649744997076, "labeledLatLngs": [{"label": "display", "lat": 40.69007601730789, "lng": -73.99649744997076}, {"label": "entrance", "lat": 40.690164, "lng": -73.996383}], "distance": 296, "postalCode": "11201", "cc": "US", "city": "Brooklyn", "state": "NY", "country": "United States", "formattedAddress": ["333 Henry St (at Pacific St)", "Brooklyn, NY 11201", "United States"]}, "categories": [{"id": "4bf58dd8d48988d111941735", "name": "Japanese Restaurant", "pluralName": "Japanese Restaurants", "shortName": "Japanese", "icon": {"prefix": "https://ss3.4sqi.net/img/categories_v2/food/japanese_", "suffix": ".png"}, "primary": true}], "photos": {"count": 0, "groups": []}}, "referralId": "e-0-48a41073f964a52091511fe3-5"}, {"reasons": {"count": 0, "items": [{"summary": "This spot is popular", "type": "general", "reasonName": "globalInteractionReason"}]}, "venue": {"id": "5a0740a3e1f22816d11723d5", "name": "Lillo", "location": {"address": "331 Henry Street", "lat": 40.690199941477445, "lng": -73.99654010450837, "labeledLatLngs": [{"label": "display", "lat": 40.690199941477445, "lng": -73.99654010450837}], "distance": 305, "postalCode": "11201", "cc": "US", "neighborhood": "Cobble Hill", "city": "Brooklyn", "state": "NY", "country": "United States", "formattedAddress": ["331 Henry Street", "Brooklyn, NY 11201", "United States"]}, "categories": [{"id": "4bf58dd8d48988d110941735", "name": "Italian Restaurant", "pluralName": "Italian Restaurants", "shortName": "Italian", "icon": {"prefix": "https://ss3.4sqi.net/img/categories_v2/food/italian_", "suffix": ".png"}, "primary": true}], "photos": {"count": 0, "groups": []}}, "referralId": "e-0-5a0740a3e1f22816d11723d5-6"}, {"reasons": {"count": 0, "items": [{"summary": "This spot is popular", "type": "general", "reasonName": "globalInteractionReason"}]}, "venue": {"id": "4ab6d694f964a520407920e3", "name": "Henry Public", "location": {"address": "329 Henry St", "crossStreet": "btwn Atlantic Ave & Pacific St", "lat": 40.69041286465585, "lng": -73.99641156481655, "labeledLatLngs": [{"label": "display", "lat": 40.69041286465585, "lng": -73.99641156481655}], "distance": 331, "postalCode": "11201", "cc": "US", "city": "Brooklyn", "state": "NY", "country": "United States", "formattedAddress": ["329 Henry St (btwn Atlantic Ave & Pacific St)", "Brooklyn, NY 11201", "United States"]}, "categories": [{"id": "4bf58dd8d48988d155941735", "name": "Gastropub", "pluralName": "Gastropubs", "shortName": "Gastropub", "icon": {"prefix": "https://ss3.4sqi.net/img/categories_v2/food/gastropub_", "suffix": ".png"}, "primary": true}], "delivery": {"id": "2035481", "url": "https://www.seamless.com/menu/henry-public-329-henry-st-brooklyn/2035481?affiliate=1131&utm_source=foursquare-affiliate-network&utm_medium=affiliate&utm_campaign=1131&utm_content=2035481", "provider": {"name": "seamless", "icon": {"prefix": "https://fastly.4sqi.net/img/general/cap/", "sizes": [40, 50], "name": "/delivery_provider_seamless_20180129.png"}}}, "photos": {"count": 0, "groups": []}, "venuePage": {"id": "67551320"}}, "referralId": "e-0-4ab6d694f964a520407920e3-7"}, {"reasons": {"count": 0, "items": [{"summary": "This spot is popular", "type": "general", "reasonName": "globalInteractionReason"}]}, "venue": {"id": "4cbf097828d176b0a7c6226e", "name": "Colonie", "location": {"address": "127 Atlantic Ave", "crossStreet": "btwn Henry & Clinton St", "lat": 40.69073324250775, "lng": -73.99596314123242, "labeledLatLngs": [{"label": "display", "lat": 40.69073324250775, "lng": -73.99596314123242}], "distance": 382, "postalCode": "11201", "cc": "US", "city": "Brooklyn", "state": "NY", "country": "United States", "formattedAddress": ["127 Atlantic Ave (btwn Henry & Clinton St)", "Brooklyn, NY 11201", "United States"]}, "categories": [{"id": "4bf58dd8d48988d14e941735", "name": "American Restaurant", "pluralName": "American Restaurants", "shortName": "American", "icon": {"prefix": "https://ss3.4sqi.net/img/categories_v2/food/default_", "suffix": ".png"}, "primary": true}], "photos": {"count": 0, "groups": []}, "venuePage": {"id": "68934637"}}, "referralId": "e-0-4cbf097828d176b0a7c6226e-8"}, {"reasons": {"count": 0, "items": [{"summary": "This spot is popular", "type": "general", "reasonName": "globalInteractionReason"}]}, "venue": {"id": "49f4a07df964a5202c6b1fe3", "name": "Freebird Books & Goods", "location": {"address": "123 Columbia St", "crossStreet": "btw Irving & Kane", "lat": 40.68750419577483, "lng": -74.00138805320995, "labeledLatLngs": [{"label": "display", "lat": 40.68750419577483, "lng": -74.00138805320995}, {"label": "entrance", "lat": 40.687445, "lng": -74.0014}], "distance": 243, "postalCode": "11231", "cc": "US", "neighborhood": "Cobble Hill", "city": "Brooklyn", "state": "NY", "country": "United States", "formattedAddress": ["123 Columbia St (btw Irving & Kane)", "Brooklyn, NY 11231", "United States"]}, "categories": [{"id": "4bf58dd8d48988d114951735", "name": "Bookstore", "pluralName": "Bookstores", "shortName": "Bookstore", "icon": {"prefix": "https://ss3.4sqi.net/img/categories_v2/shops/bookstore_", "suffix": ".png"}, "primary": true}], "photos": {"count": 0, "groups": []}}, "referralId": "e-0-49f4a07df964a5202c6b1fe3-9"}, {"reasons": {"count": 0, "items": [{"summary": "This spot is popular", "type": "general", "reasonName": "globalInteractionReason"}]}, "venue": {"id": "4c17820cf1c976b05642a272", "name": "Columbia Street Waterfront", "location": {"address": "150-200 Columbia St", "crossStreet": "btwn Congress & Degraw St", "lat": 40.68787890576805, "lng": -74.0018892288208, "labeledLatLngs": [{"label": "display", "lat": 40.68787890576805, "lng": -74.0018892288208}], "distance": 280, "postalCode": "11201", "cc": "US", "city": "Brooklyn", "state": "NY", "country": "United States", "formattedAddress": ["150-200 Columbia St (btwn Congress & Degraw St)", "Brooklyn, NY 11201", "United States"]}, "categories": [{"id": "56aa371be4b08b9a8d5734c3", "name": "Waterfront", "pluralName": "Waterfronts", "shortName": "Waterfront", "icon": {"prefix": "https://ss3.4sqi.net/img/categories_v2/parks_outdoors/river_", "suffix": ".png"}, "primary": true}], "photos": {"count": 0, "groups": []}}, "referralId": "e-0-4c17820cf1c976b05642a272-10"}, {"reasons": {"count": 0, "items": [{"summary": "This spot is popular", "type": "general", "reasonName": "globalInteractionReason"}]}, "venue": {"id": "5b9c66e26e465000390f4df4", "name": "Saint Julivert Fisherie", "location": {"address": "264 Clinton St", "crossStreet": "Verandah Place", "lat": 40.68793043733788, "lng": -73.99554829555922, "labeledLatLngs": [{"label": "display", "lat": 40.68793043733788, "lng": -73.99554829555922}], "distance": 254, "postalCode": "11201", "cc": "US", "city": "New York", "state": "NY", "country": "United States", "formattedAddress": ["264 Clinton St (Verandah Place)", "New York, NY 11201", "United States"]}, "categories": [{"id": "4bf58dd8d48988d1ce941735", "name": "Seafood Restaurant", "pluralName": "Seafood Restaurants", "shortName": "Seafood", "icon": {"prefix": "https://ss3.4sqi.net/img/categories_v2/food/seafood_", "suffix": ".png"}, "primary": true}], "photos": {"count": 0, "groups": []}}, "referralId": "e-0-5b9c66e26e465000390f4df4-11"}, {"reasons": {"count": 0, "items": [{"summary": "This spot is popular", "type": "general", "reasonName": "globalInteractionReason"}]}, "venue": {"id": "58c5d33501f4336e2188a20c", "name": "Elsa", "location": {"address": "136 Atlantic Ave", "lat": 40.69042702380327, "lng": -73.99527736744164, "labeledLatLngs": [{"label": "display", "lat": 40.69042702380327, "lng": -73.99527736744164}], "distance": 393, "postalCode": "11201", "cc": "US", "city": "Brooklyn", "state": "NY", "country": "United States", "formattedAddress": ["136 Atlantic Ave", "Brooklyn, NY 11201", "United States"]}, "categories": [{"id": "4bf58dd8d48988d11e941735", "name": "Cocktail Bar", "pluralName": "Cocktail Bars", "shortName": "Cocktail", "icon": {"prefix": "https://ss3.4sqi.net/img/categories_v2/nightlife/cocktails_", "suffix": ".png"}, "primary": true}], "photos": {"count": 0, "groups": []}}, "referralId": "e-0-58c5d33501f4336e2188a20c-12"}, {"reasons": {"count": 0, "items": [{"summary": "This spot is popular", "type": "general", "reasonName": "globalInteractionReason"}]}, "venue": {"id": "52487385498e8d3af50faac2", "name": "The Long Island Bar", "location": {"address": "110 Atlantic Ave", "crossStreet": "at Henry St", "lat": 40.690642796181855, "lng": -73.99631850047321, "labeledLatLngs": [{"label": "display", "lat": 40.690642796181855, "lng": -73.99631850047321}, {"label": "entrance", "lat": 40.690666, "lng": -73.996415}], "distance": 357, "postalCode": "11201", "cc": "US", "city": "Brooklyn", "state": "NY", "country": "United States", "formattedAddress": ["110 Atlantic Ave (at Henry St)", "Brooklyn, NY 11201", "United States"]}, "categories": [{"id": "4bf58dd8d48988d11e941735", "name": "Cocktail Bar", "pluralName": "Cocktail Bars", "shortName": "Cocktail", "icon": {"prefix": "https://ss3.4sqi.net/img/categories_v2/nightlife/cocktails_", "suffix": ".png"}, "primary": true}], "photos": {"count": 0, "groups": []}, "venuePage": {"id": "72954755"}}, "referralId": "e-0-52487385498e8d3af50faac2-13"}, {"reasons": {"count": 0, "items": [{"summary": "This spot is popular", "type": "general", "reasonName": "globalInteractionReason"}]}, "venue": {"id": "51ddd36f498ea2ad70eb9129", "name": "Vekslers", "location": {"address": "521 Hicks St", "crossStreet": "Degraw St", "lat": 40.68534457902491, "lng": -74.00068713289978, "labeledLatLngs": [{"label": "display", "lat": 40.68534457902491, "lng": -74.00068713289978}, {"label": "entrance", "lat": 40.685325, "lng": -74.000505}], "distance": 338, "postalCode": "11231", "cc": "US", "city": "Brooklyn", "state": "NY", "country": "United States", "formattedAddress": ["521 Hicks St (Degraw St)", "Brooklyn, NY 11231", "United States"]}, "categories": [{"id": "4bf58dd8d48988d116941735", "name": "Bar", "pluralName": "Bars", "shortName": "Bar", "icon": {"prefix": "https://ss3.4sqi.net/img/categories_v2/nightlife/pub_", "suffix": ".png"}, "primary": true}], "delivery": {"id": "293693", "url": "https://www.seamless.com/menu/vekslers-521-hicks-st-brooklyn/293693?affiliate=1131&utm_source=foursquare-affiliate-network&utm_medium=affiliate&utm_campaign=1131&utm_content=293693", "provider": {"name": "seamless", "icon": {"prefix": "https://fastly.4sqi.net/img/general/cap/", "sizes": [40, 50], "name": "/delivery_provider_seamless_20180129.png"}}}, "photos": {"count": 0, "groups": []}, "venuePage": {"id": "68109938"}}, "referralId": "e-0-51ddd36f498ea2ad70eb9129-14"}, {"reasons": {"count": 0, "items": [{"summary": "This spot is popular", "type": "general", "reasonName": "globalInteractionReason"}]}, "venue": {"id": "593329652632ec0582bd71df", "name": "Popina", "location": {"address": "127 Columbia St", "lat": 40.687419734537926, "lng": -74.00143152860893, "labeledLatLngs": [{"label": "display", "lat": 40.687419734537926, "lng": -74.00143152860893}], "distance": 248, "postalCode": "11231", "cc": "US", "city": "Brooklyn", "state": "NY", "country": "United States", "formattedAddress": ["127 Columbia St", "Brooklyn, NY 11231", "United States"]}, "categories": [{"id": "4bf58dd8d48988d110941735", "name": "Italian Restaurant", "pluralName": "Italian Restaurants", "shortName": "Italian", "icon": {"prefix": "https://ss3.4sqi.net/img/categories_v2/food/italian_", "suffix": ".png"}, "primary": true}], "photos": {"count": 0, "groups": []}}, "referralId": "e-0-593329652632ec0582bd71df-15"}, {"reasons": {"count": 0, "items": [{"summary": "This spot is popular", "type": "general", "reasonName": "globalInteractionReason"}]}, "venue": {"id": "4cb70ad03abd9c74f5ce572f", "name": "Goose Barnacle", "location": {"address": "91 Atlantic Ave", "crossStreet": "btwn Hicks & Henry St", "lat": 40.69109556204666, "lng": -73.99747410833052, "labeledLatLngs": [{"label": "display", "lat": 40.69109556204666, "lng": -73.99747410833052}], "distance": 365, "postalCode": "11201", "cc": "US", "city": "Brooklyn", "state": "NY", "country": "United States", "formattedAddress": ["91 Atlantic Ave (btwn Hicks & Henry St)", "Brooklyn, NY 11201", "United States"]}, "categories": [{"id": "4bf58dd8d48988d106951735", "name": "Men's Store", "pluralName": "Men's Stores", "shortName": "Men's Store", "icon": {"prefix": "https://ss3.4sqi.net/img/categories_v2/shops/apparel_men_", "suffix": ".png"}, "primary": true}], "photos": {"count": 0, "groups": []}, "venuePage": {"id": "81725778"}}, "referralId": "e-0-4cb70ad03abd9c74f5ce572f-16"}, {"reasons": {"count": 0, "items": [{"summary": "This spot is popular", "type": "general", "reasonName": "globalInteractionReason"}]}, "venue": {"id": "4e7a2dca1f6e07f9180ae72e", "name": "Anor Spa", "location": {"address": "113A Pacific St.", "lat": 40.69002789334943, "lng": -73.9963497240098, "labeledLatLngs": [{"label": "display", "lat": 40.69002789334943, "lng": -73.9963497240098}, {"label": "entrance", "lat": 40.690078, "lng": -73.996193}], "distance": 299, "postalCode": "11201", "cc": "US", "city": "Brooklyn", "state": "NY", "country": "United States", "formattedAddress": ["113A Pacific St.", "Brooklyn, NY 11201", "United States"]}, "categories": [{"id": "4bf58dd8d48988d1ed941735", "name": "Spa", "pluralName": "Spas", "shortName": "Spa", "icon": {"prefix": "https://ss3.4sqi.net/img/categories_v2/shops/spa_", "suffix": ".png"}, "primary": true}], "photos": {"count": 0, "groups": []}}, "referralId": "e-0-4e7a2dca1f6e07f9180ae72e-17"}, {"reasons": {"count": 0, "items": [{"summary": "This spot is popular", "type": "general", "reasonName": "globalInteractionReason"}]}, "venue": {"id": "5dec5fb5ecb0ba00087c180c", "name": "PIPS", "location": {"address": "129 Atlantic Ave", "crossStreet": "Atlantic Ave and Henry St", "lat": 40.690732, "lng": -73.995855, "labeledLatLngs": [{"label": "display", "lat": 40.690732, "lng": -73.995855}], "distance": 387, "postalCode": "11201", "cc": "US", "city": "New York", "state": "NY", "country": "United States", "formattedAddress": ["129 Atlantic Ave (Atlantic Ave and Henry St)", "New York, NY 11201", "United States"]}, "categories": [{"id": "4bf58dd8d48988d1c4941735", "name": "Restaurant", "pluralName": "Restaurants", "shortName": "Restaurant", "icon": {"prefix": "https://ss3.4sqi.net/img/categories_v2/food/default_", "suffix": ".png"}, "primary": true}], "photos": {"count": 0, "groups": []}}, "referralId": "e-0-5dec5fb5ecb0ba00087c180c-18"}, {"reasons": {"count": 0, "items": [{"summary": "This spot is popular", "type": "general", "reasonName": "globalInteractionReason"}]}, "venue": {"id": "4a59ed0ff964a5208fb91fe3", "name": "Fish Tales", "location": {"address": "191A Court St", "crossStreet": "btwn Wyckoff St & Congress St", "lat": 40.68762156527144, "lng": -73.99342899470334, "labeledLatLngs": [{"label": "display", "lat": 40.68762156527144, "lng": -73.99342899470334}], "distance": 434, "postalCode": "11201", "cc": "US", "city": "Brooklyn", "state": "NY", "country": "United States", "formattedAddress": ["191A Court St (btwn Wyckoff St & Congress St)", "Brooklyn, NY 11201", "United States"]}, "categories": [{"id": "4bf58dd8d48988d10e951735", "name": "Fish Market", "pluralName": "Fish Markets", "shortName": "Fish Market", "icon": {"prefix": "https://ss3.4sqi.net/img/categories_v2/shops/food_fishmarket_", "suffix": ".png"}, "primary": true}], "photos": {"count": 0, "groups": []}}, "referralId": "e-0-4a59ed0ff964a5208fb91fe3-19"}, {"reasons": {"count": 0, "items": [{"summary": "This spot is popular", "type": "general", "reasonName": "globalInteractionReason"}]}, "venue": {"id": "54bf982b498ea9358d71fd2e", "name": "June Wine Bar", "location": {"address": "231 Court St", "crossStreet": "btwn Baltic & Warren St", "lat": 40.686138934394656, "lng": -73.99404940709272, "labeledLatLngs": [{"label": "display", "lat": 40.686138934394656, "lng": -73.99404940709272}], "distance": 429, "postalCode": "11201", "cc": "US", "city": "Brooklyn", "state": "NY", "country": "United States", "formattedAddress": ["231 Court St (btwn Baltic & Warren St)", "Brooklyn, NY 11201", "United States"]}, "categories": [{"id": "4bf58dd8d48988d123941735", "name": "Wine Bar", "pluralName": "Wine Bars", "shortName": "Wine Bar", "icon": {"prefix": "https://ss3.4sqi.net/img/categories_v2/food/winery_", "suffix": ".png"}, "primary": true}], "delivery": {"id": "2030834", "url": "https://www.seamless.com/menu/june-wine-bar-231-court-st-brooklyn/2030834?affiliate=1131&utm_source=foursquare-affiliate-network&utm_medium=affiliate&utm_campaign=1131&utm_content=2030834", "provider": {"name": "seamless", "icon": {"prefix": "https://fastly.4sqi.net/img/general/cap/", "sizes": [40, 50], "name": "/delivery_provider_seamless_20180129.png"}}}, "photos": {"count": 0, "groups": []}, "venuePage": {"id": "114295266"}}, "referralId": "e-0-54bf982b498ea9358d71fd2e-20"}, {"reasons": {"count": 0, "items": [{"summary": "This spot is popular", "type": "general", "reasonName": "globalInteractionReason"}]}, "venue": {"id": "527d8cfc11d2a61a7c663024", "name": "Luzzo's BK", "location": {"address": "145 Atlantic Ave", "crossStreet": "btwn Henry & Clinton St", "lat": 40.69055503930633, "lng": -73.9953332077974, "labeledLatLngs": [{"label": "display", "lat": 40.69055503930633, "lng": -73.9953332077974}], "distance": 400, "postalCode": "11201", "cc": "US", "city": "Brooklyn", "state": "NY", "country": "United States", "formattedAddress": ["145 Atlantic Ave (btwn Henry & Clinton St)", "Brooklyn, NY 11201", "United States"]}, "categories": [{"id": "4bf58dd8d48988d1ca941735", "name": "Pizza Place", "pluralName": "Pizza Places", "shortName": "Pizza", "icon": {"prefix": "https://ss3.4sqi.net/img/categories_v2/food/pizza_", "suffix": ".png"}, "primary": true}], "delivery": {"id": "290888", "url": "https://www.seamless.com/menu/luzzos-bk-145-atlantic-ave-brooklyn/290888?affiliate=1131&utm_source=foursquare-affiliate-network&utm_medium=affiliate&utm_campaign=1131&utm_content=290888", "provider": {"name": "seamless", "icon": {"prefix": "https://fastly.4sqi.net/img/general/cap/", "sizes": [40, 50], "name": "/delivery_provider_seamless_20180129.png"}}}, "photos": {"count": 0, "groups": []}, "venuePage": {"id": "96207265"}}, "referralId": "e-0-527d8cfc11d2a61a7c663024-21"}, {"reasons": {"count": 0, "items": [{"summary": "This spot is popular", "type": "general", "reasonName": "globalInteractionReason"}]}, "venue": {"id": "4f7f8b86e4b088077df30175", "name": "Chez Moi", "location": {"address": "135 Atlantic Ave", "crossStreet": "at Henry St", "lat": 40.690654299028225, "lng": -73.99577681819873, "labeledLatLngs": [{"label": "display", "lat": 40.690654299028225, "lng": -73.99577681819873}], "distance": 384, "postalCode": "11201", "cc": "US", "city": "Brooklyn", "state": "NY", "country": "United States", "formattedAddress": ["135 Atlantic Ave (at Henry St)", "Brooklyn, NY 11201", "United States"]}, "categories": [{"id": "4bf58dd8d48988d10c941735", "name": "French Restaurant", "pluralName": "French Restaurants", "shortName": "French", "icon": {"prefix": "https://ss3.4sqi.net/img/categories_v2/food/french_", "suffix": ".png"}, "primary": true}], "delivery": {"id": "2120138", "url": "https://www.seamless.com/menu/chez-moi-135-atlantic-ave-brooklyn/2120138?affiliate=1131&utm_source=foursquare-affiliate-network&utm_medium=affiliate&utm_campaign=1131&utm_content=2120138", "provider": {"name": "seamless", "icon": {"prefix": "https://fastly.4sqi.net/img/general/cap/", "sizes": [40, 50], "name": "/delivery_provider_seamless_20180129.png"}}}, "photos": {"count": 0, "groups": []}, "venuePage": {"id": "60373896"}}, "referralId": "e-0-4f7f8b86e4b088077df30175-22"}, {"reasons": {"count": 0, "items": [{"summary": "This spot is popular", "type": "general", "reasonName": "globalInteractionReason"}]}, "venue": {"id": "4c9bb449e9a7ef3b8fe12e16", "name": "MilkMade Tasting Room", "location": {"address": "204 Sackett St", "crossStreet": "Henry & Hicks St", "lat": 40.684265380526334, "lng": -73.99969640964743, "labeledLatLngs": [{"label": "display", "lat": 40.684265380526334, "lng": -73.99969640964743}, {"label": "entrance", "lat": 40.684169, "lng": -73.999806}], "distance": 417, "postalCode": "11231", "cc": "US", "city": "Brooklyn", "state": "NY", "country": "United States", "formattedAddress": ["204 Sackett St (Henry & Hicks St)", "Brooklyn, NY 11231", "United States"]}, "categories": [{"id": "4bf58dd8d48988d1c9941735", "name": "Ice Cream Shop", "pluralName": "Ice Cream Shops", "shortName": "Ice Cream", "icon": {"prefix": "https://ss3.4sqi.net/img/categories_v2/food/icecream_", "suffix": ".png"}, "primary": true}], "photos": {"count": 0, "groups": []}, "venuePage": {"id": "46616294"}}, "referralId": "e-0-4c9bb449e9a7ef3b8fe12e16-23"}, {"reasons": {"count": 0, "items": [{"summary": "This spot is popular", "type": "general", "reasonName": "globalInteractionReason"}]}, "venue": {"id": "5474bd3c498e09ca697faeb2", "name": "Brooklyn Yoga Project", "location": {"address": "185 Sackett St", "crossStreet": "Between Henry and Hicks", "lat": 40.684417074692256, "lng": -74.00026461586543, "labeledLatLngs": [{"label": "display", "lat": 40.684417074692256, "lng": -74.00026461586543}, {"label": "entrance", "lat": 40.684466, "lng": -74.000261}], "distance": 415, "postalCode": "11231", "cc": "US", "city": "Brooklyn", "state": "NY", "country": "United States", "formattedAddress": ["185 Sackett St (Between Henry and Hicks)", "Brooklyn, NY 11231", "United States"]}, "categories": [{"id": "4bf58dd8d48988d102941735", "name": "Yoga Studio", "pluralName": "Yoga Studios", "shortName": "Yoga Studio", "icon": {"prefix": "https://ss3.4sqi.net/img/categories_v2/shops/gym_yogastudio_", "suffix": ".png"}, "primary": true}], "photos": {"count": 0, "groups": []}}, "referralId": "e-0-5474bd3c498e09ca697faeb2-24"}, {"reasons": {"count": 0, "items": [{"summary": "This spot is popular", "type": "general", "reasonName": "globalInteractionReason"}]}, "venue": {"id": "4bd211f041b9ef3ba442fde5", "name": "LICH Toddler Playground", "location": {"address": "349 Henry St", "crossStreet": "bet Amity & Atlantic", "lat": 40.68986587062486, "lng": -73.99685304744763, "labeledLatLngs": [{"label": "display", "lat": 40.68986587062486, "lng": -73.99685304744763}], "distance": 260, "postalCode": "11201", "cc": "US", "city": "Brooklyn", "state": "NY", "country": "United States", "formattedAddress": ["349 Henry St (bet Amity & Atlantic)", "Brooklyn, NY 11201", "United States"]}, "categories": [{"id": "4bf58dd8d48988d1e7941735", "name": "Playground", "pluralName": "Playgrounds", "shortName": "Playground", "icon": {"prefix": "https://ss3.4sqi.net/img/categories_v2/parks_outdoors/playground_", "suffix": ".png"}, "primary": true}], "photos": {"count": 0, "groups": []}}, "referralId": "e-0-4bd211f041b9ef3ba442fde5-25"}, {"reasons": {"count": 0, "items": [{"summary": "This spot is popular", "type": "general", "reasonName": "globalInteractionReason"}]}, "venue": {"id": "4a414e48f964a52010a51fe3", "name": "Brooklyn Farmacy & Soda Fountain", "location": {"address": "513 Henry St", "crossStreet": "at Sackett St", "lat": 40.68407117141479, "lng": -73.99930907835255, "labeledLatLngs": [{"label": "display", "lat": 40.68407117141479, "lng": -73.99930907835255}], "distance": 433, "postalCode": "11231", "cc": "US", "city": "Brooklyn", "state": "NY", "country": "United States", "formattedAddress": ["513 Henry St (at Sackett St)", "Brooklyn, NY 11231", "United States"]}, "categories": [{"id": "4bf58dd8d48988d1c9941735", "name": "Ice Cream Shop", "pluralName": "Ice Cream Shops", "shortName": "Ice Cream", "icon": {"prefix": "https://ss3.4sqi.net/img/categories_v2/food/icecream_", "suffix": ".png"}, "primary": true}], "photos": {"count": 0, "groups": []}, "venuePage": {"id": "73873020"}}, "referralId": "e-0-4a414e48f964a52010a51fe3-26"}, {"reasons": {"count": 0, "items": [{"summary": "This spot is popular", "type": "general", "reasonName": "globalInteractionReason"}]}, "venue": {"id": "5044f749e4b0dd909d2cc123", "name": "Table 87", "location": {"address": "87 Atlantic Ave", "lat": 40.69116378701994, "lng": -73.99744297710961, "labeledLatLngs": [{"label": "display", "lat": 40.69116378701994, "lng": -73.99744297710961}, {"label": "entrance", "lat": 40.691219, "lng": -73.997355}], "distance": 373, "postalCode": "11201", "cc": "US", "city": "Brooklyn", "state": "NY", "country": "United States", "formattedAddress": ["87 Atlantic Ave", "Brooklyn, NY 11201", "United States"]}, "categories": [{"id": "4bf58dd8d48988d110941735", "name": "Italian Restaurant", "pluralName": "Italian Restaurants", "shortName": "Italian", "icon": {"prefix": "https://ss3.4sqi.net/img/categories_v2/food/italian_", "suffix": ".png"}, "primary": true}], "delivery": {"id": "278716", "url": "https://www.seamless.com/menu/table-87-87-atlantic-ave-brooklyn/278716?affiliate=1131&utm_source=foursquare-affiliate-network&utm_medium=affiliate&utm_campaign=1131&utm_content=278716", "provider": {"name": "seamless", "icon": {"prefix": "https://fastly.4sqi.net/img/general/cap/", "sizes": [40, 50], "name": "/delivery_provider_seamless_20180129.png"}}}, "photos": {"count": 0, "groups": []}, "venuePage": {"id": "93988534"}}, "referralId": "e-0-5044f749e4b0dd909d2cc123-27"}, {"reasons": {"count": 0, "items": [{"summary": "This spot is popular", "type": "general", "reasonName": "globalInteractionReason"}]}, "venue": {"id": "4b23dff2f964a520d15b24e3", "name": "Cobblestone Foods", "location": {"address": "220 Atlantic Ave", "crossStreet": "Court St", "lat": 40.68728143492344, "lng": -73.99354210849161, "labeledLatLngs": [{"label": "display", "lat": 40.68728143492344, "lng": -73.99354210849161}], "distance": 429, "postalCode": "11201", "cc": "US", "neighborhood": "Cobble Hill", "city": "Brooklyn", "state": "NY", "country": "United States", "formattedAddress": ["220 Atlantic Ave (Court St)", "Brooklyn, NY 11201", "United States"]}, "categories": [{"id": "4bf58dd8d48988d1f5941735", "name": "Gourmet Shop", "pluralName": "Gourmet Shops", "shortName": "Gourmet", "icon": {"prefix": "https://ss3.4sqi.net/img/categories_v2/shops/food_gourmet_", "suffix": ".png"}, "primary": true}], "photos": {"count": 0, "groups": []}}, "referralId": "e-0-4b23dff2f964a520d15b24e3-28"}, {"reasons": {"count": 0, "items": [{"summary": "This spot is popular", "type": "general", "reasonName": "globalInteractionReason"}]}, "venue": {"id": "4a7ed3a4f964a52027f21fe3", "name": "Mala Yoga", "location": {"address": "162 Court St", "crossStreet": "Amity street", "lat": 40.68837637516381, "lng": -73.99309685150189, "labeledLatLngs": [{"label": "display", "lat": 40.68837637516381, "lng": -73.99309685150189}], "distance": 464, "postalCode": "11201", "cc": "US", "city": "Brooklyn", "state": "NY", "country": "United States", "formattedAddress": ["162 Court St (Amity street)", "Brooklyn, NY 11201", "United States"]}, "categories": [{"id": "4bf58dd8d48988d102941735", "name": "Yoga Studio", "pluralName": "Yoga Studios", "shortName": "Yoga Studio", "icon": {"prefix": "https://ss3.4sqi.net/img/categories_v2/shops/gym_yogastudio_", "suffix": ".png"}, "primary": true}], "photos": {"count": 0, "groups": []}}, "referralId": "e-0-4a7ed3a4f964a52027f21fe3-29"}, {"reasons": {"count": 0, "items": [{"summary": "This spot is popular", "type": "general", "reasonName": "globalInteractionReason"}]}, "venue": {"id": "55214aae498e5f130fa088f9", "name": "Marine Layer", "location": {"address": "195 Court St", "crossStreet": "Btwn Bergen and Wyckoff", "lat": 40.68739287003023, "lng": -73.99344815039953, "labeledLatLngs": [{"label": "display", "lat": 40.68739287003023, "lng": -73.99344815039953}], "distance": 435, "postalCode": "11201", "cc": "US", "city": "Brooklyn", "state": "NY", "country": "United States", "formattedAddress": ["195 Court St (Btwn Bergen and Wyckoff)", "Brooklyn, NY 11201", "United States"]}, "categories": [{"id": "4bf58dd8d48988d104951735", "name": "Boutique", "pluralName": "Boutiques", "shortName": "Boutique", "icon": {"prefix": "https://ss3.4sqi.net/img/categories_v2/shops/apparel_boutique_", "suffix": ".png"}, "primary": true}], "photos": {"count": 0, "groups": []}}, "referralId": "e-0-55214aae498e5f130fa088f9-30"}, {"reasons": {"count": 0, "items": [{"summary": "This spot is popular", "type": "general", "reasonName": "globalInteractionReason"}]}, "venue": {"id": "43eb685af964a520382f1fe3", "name": "Yemen Cafe", "location": {"address": "176 Atlantic Ave", "crossStreet": "btwn Clinton & Court St", "lat": 40.690026174960735, "lng": -73.99357867402284, "labeledLatLngs": [{"label": "display", "lat": 40.690026174960735, "lng": -73.99357867402284}], "distance": 481, "postalCode": "11201", "cc": "US", "city": "Brooklyn", "state": "NY", "country": "United States", "formattedAddress": ["176 Atlantic Ave (btwn Clinton & Court St)", "Brooklyn, NY 11201", "United States"]}, "categories": [{"id": "4bf58dd8d48988d115941735", "name": "Middle Eastern Restaurant", "pluralName": "Middle Eastern Restaurants", "shortName": "Middle Eastern", "icon": {"prefix": "https://ss3.4sqi.net/img/categories_v2/food/middleeastern_", "suffix": ".png"}, "primary": true}], "photos": {"count": 0, "groups": []}, "venuePage": {"id": "48090897"}}, "referralId": "e-0-43eb685af964a520382f1fe3-31"}, {"reasons": {"count": 0, "items": [{"summary": "This spot is popular", "type": "general", "reasonName": "globalInteractionReason"}]}, "venue": {"id": "49e28bbcf964a5203a621fe3", "name": "Court Street Bagels", "location": {"address": "181 Court St", "crossStreet": "at Bergen", "lat": 40.688026, "lng": -73.99306, "labeledLatLngs": [{"label": "display", "lat": 40.688026, "lng": -73.99306}, {"label": "entrance", "lat": 40.688042, "lng": -73.993027}], "distance": 464, "postalCode": "11201", "cc": "US", "city": "Brooklyn", "state": "NY", "country": "United States", "formattedAddress": ["181 Court St (at Bergen)", "Brooklyn, NY 11201", "United States"]}, "categories": [{"id": "4bf58dd8d48988d179941735", "name": "Bagel Shop", "pluralName": "Bagel Shops", "shortName": "Bagels", "icon": {"prefix": "https://ss3.4sqi.net/img/categories_v2/food/bagels_", "suffix": ".png"}, "primary": true}], "photos": {"count": 0, "groups": []}}, "referralId": "e-0-49e28bbcf964a5203a621fe3-32"}, {"reasons": {"count": 0, "items": [{"summary": "This spot is popular", "type": "general", "reasonName": "globalInteractionReason"}]}, "venue": {"id": "4f3265a119836c91c7d3c6f7", "name": "Hadramout Restaurant", "location": {"address": "172 Atlantic Ave", "lat": 40.6898184, "lng": -73.9938774, "labeledLatLngs": [{"label": "display", "lat": 40.6898184, "lng": -73.9938774}], "distance": 448, "postalCode": "11201", "cc": "US", "city": "Brooklyn", "state": "NY", "country": "United States", "formattedAddress": ["172 Atlantic Ave", "Brooklyn, NY 11201", "United States"]}, "categories": [{"id": "4bf58dd8d48988d1c4941735", "name": "Restaurant", "pluralName": "Restaurants", "shortName": "Restaurant", "icon": {"prefix": "https://ss3.4sqi.net/img/categories_v2/food/default_", "suffix": ".png"}, "primary": true}], "delivery": {"id": "1067691", "url": "https://www.seamless.com/menu/hadramout-restaurant-172-atlantic-ave-brooklyn/1067691?affiliate=1131&utm_source=foursquare-affiliate-network&utm_medium=affiliate&utm_campaign=1131&utm_content=1067691", "provider": {"name": "seamless", "icon": {"prefix": "https://fastly.4sqi.net/img/general/cap/", "sizes": [40, 50], "name": "/delivery_provider_seamless_20180129.png"}}}, "photos": {"count": 0, "groups": []}}, "referralId": "e-0-4f3265a119836c91c7d3c6f7-33"}, {"reasons": {"count": 0, "items": [{"summary": "This spot is popular", "type": "general", "reasonName": "globalInteractionReason"}]}, "venue": {"id": "4fbc1488e4b04e551e0c3a57", "name": "Awash Ethiopian Restaurant", "location": {"address": "242 Court St", "lat": 40.68574, "lng": -73.994393, "labeledLatLngs": [{"label": "display", "lat": 40.68574, "lng": -73.994393}, {"label": "entrance", "lat": 40.68576, "lng": -73.994402}], "distance": 427, "postalCode": "11201", "cc": "US", "city": "Brooklyn", "state": "NY", "country": "United States", "formattedAddress": ["242 Court St", "Brooklyn, NY 11201", "United States"]}, "categories": [{"id": "4bf58dd8d48988d10a941735", "name": "Ethiopian Restaurant", "pluralName": "Ethiopian Restaurants", "shortName": "Ethiopian", "icon": {"prefix": "https://ss3.4sqi.net/img/categories_v2/food/ethiopian_", "suffix": ".png"}, "primary": true}], "delivery": {"id": "88765", "url": "https://www.seamless.com/menu/awash-ethiopian-restaurant-242-court-st-brooklyn/88765?affiliate=1131&utm_source=foursquare-affiliate-network&utm_medium=affiliate&utm_campaign=1131&utm_content=88765", "provider": {"name": "seamless", "icon": {"prefix": "https://fastly.4sqi.net/img/general/cap/", "sizes": [40, 50], "name": "/delivery_provider_seamless_20180129.png"}}}, "photos": {"count": 0, "groups": []}}, "referralId": "e-0-4fbc1488e4b04e551e0c3a57-34"}, {"reasons": {"count": 0, "items": [{"summary": "This spot is popular", "type": "general", "reasonName": "globalInteractionReason"}]}, "venue": {"id": "4112ca00f964a520ed0b1fe3", "name": "Joya", "location": {"address": "215 Court St", "crossStreet": "at Warren St", "lat": 40.68670796457312, "lng": -73.99371822043527, "labeledLatLngs": [{"label": "display", "lat": 40.68670796457312, "lng": -73.99371822043527}, {"label": "entrance", "lat": 40.686708, "lng": -73.993664}], "distance": 430, "postalCode": "11201", "cc": "US", "city": "Brooklyn", "state": "NY", "country": "United States", "formattedAddress": ["215 Court St (at Warren St)", "Brooklyn, NY 11201", "United States"]}, "categories": [{"id": "4bf58dd8d48988d149941735", "name": "Thai Restaurant", "pluralName": "Thai Restaurants", "shortName": "Thai", "icon": {"prefix": "https://ss3.4sqi.net/img/categories_v2/food/thai_", "suffix": ".png"}, "primary": true}], "delivery": {"id": "583032", "url": "https://www.seamless.com/menu/joya-215-court-st-brooklyn/583032?affiliate=1131&utm_source=foursquare-affiliate-network&utm_medium=affiliate&utm_campaign=1131&utm_content=583032", "provider": {"name": "seamless", "icon": {"prefix": "https://fastly.4sqi.net/img/general/cap/", "sizes": [40, 50], "name": "/delivery_provider_seamless_20180129.png"}}}, "photos": {"count": 0, "groups": []}, "venuePage": {"id": "97279109"}}, "referralId": "e-0-4112ca00f964a520ed0b1fe3-35"}, {"reasons": {"count": 0, "items": [{"summary": "This spot is popular", "type": "general", "reasonName": "globalInteractionReason"}]}, "venue": {"id": "4a7b8866f964a52052eb1fe3", "name": "Fatoosh BBQ & Pizza", "location": {"address": "330 Hicks St", "crossStreet": "Atlantic Ave", "lat": 40.69132782253778, "lng": -73.9977394761376, "labeledLatLngs": [{"label": "display", "lat": 40.69132782253778, "lng": -73.9977394761376}, {"label": "entrance", "lat": 40.691439, "lng": -73.997784}], "distance": 385, "postalCode": "11201", "cc": "US", "city": "Brooklyn", "state": "NY", "country": "United States", "formattedAddress": ["330 Hicks St (Atlantic Ave)", "Brooklyn, NY 11201", "United States"]}, "categories": [{"id": "4bf58dd8d48988d115941735", "name": "Middle Eastern Restaurant", "pluralName": "Middle Eastern Restaurants", "shortName": "Middle Eastern", "icon": {"prefix": "https://ss3.4sqi.net/img/categories_v2/food/middleeastern_", "suffix": ".png"}, "primary": true}], "photos": {"count": 0, "groups": []}}, "referralId": "e-0-4a7b8866f964a52052eb1fe3-36"}, {"reasons": {"count": 0, "items": [{"summary": "This spot is popular", "type": "general", "reasonName": "globalInteractionReason"}]}, "venue": {"id": "572be80d498e66d83ce6f537", "name": "Beasts & Bottles", "location": {"address": "151 Atlantic Ave", "crossStreet": "(btwn Clinton & Henry St)", "lat": 40.69048851308257, "lng": -73.99510751023935, "labeledLatLngs": [{"label": "display", "lat": 40.69048851308257, "lng": -73.99510751023935}], "distance": 408, "postalCode": "11201", "cc": "US", "city": "Brooklyn", "state": "NY", "country": "United States", "formattedAddress": ["151 Atlantic Ave ((btwn Clinton & Henry St))", "Brooklyn, NY 11201", "United States"]}, "categories": [{"id": "4bf58dd8d48988d157941735", "name": "New American Restaurant", "pluralName": "New American Restaurants", "shortName": "New American", "icon": {"prefix": "https://ss3.4sqi.net/img/categories_v2/food/newamerican_", "suffix": ".png"}, "primary": true}], "delivery": {"id": "1975458", "url": "https://www.seamless.com/menu/beasts--bottles-151-atlantic-ave-brooklyn/1975458?affiliate=1131&utm_source=foursquare-affiliate-network&utm_medium=affiliate&utm_campaign=1131&utm_content=1975458", "provider": {"name": "seamless", "icon": {"prefix": "https://fastly.4sqi.net/img/general/cap/", "sizes": [40, 50], "name": "/delivery_provider_seamless_20180129.png"}}}, "photos": {"count": 0, "groups": []}}, "referralId": "e-0-572be80d498e66d83ce6f537-37"}, {"reasons": {"count": 0, "items": [{"summary": "This spot is popular", "type": "general", "reasonName": "globalInteractionReason"}]}, "venue": {"id": "4e98cba6b8f77b7a98e870d6", "name": "Moo Burger", "location": {"address": "240 Court St", "crossStreet": "Baltic St", "lat": 40.68584457538074, "lng": -73.99422868325722, "labeledLatLngs": [{"label": "display", "lat": 40.68584457538074, "lng": -73.99422868325722}], "distance": 432, "postalCode": "11201", "cc": "US", "city": "Brooklyn", "state": "NY", "country": "United States", "formattedAddress": ["240 Court St (Baltic St)", "Brooklyn, NY 11201", "United States"]}, "categories": [{"id": "4bf58dd8d48988d16c941735", "name": "Burger Joint", "pluralName": "Burger Joints", "shortName": "Burgers", "icon": {"prefix": "https://ss3.4sqi.net/img/categories_v2/food/burger_", "suffix": ".png"}, "primary": true}], "delivery": {"id": "541232", "url": "https://www.seamless.com/menu/moo-burger-240-court-st-brooklyn/541232?affiliate=1131&utm_source=foursquare-affiliate-network&utm_medium=affiliate&utm_campaign=1131&utm_content=541232", "provider": {"name": "seamless", "icon": {"prefix": "https://fastly.4sqi.net/img/general/cap/", "sizes": [40, 50], "name": "/delivery_provider_seamless_20180129.png"}}}, "photos": {"count": 0, "groups": []}, "venuePage": {"id": "79882172"}}, "referralId": "e-0-4e98cba6b8f77b7a98e870d6-38"}, {"reasons": {"count": 0, "items": [{"summary": "This spot is popular", "type": "general", "reasonName": "globalInteractionReason"}]}, "venue": {"id": "4b180371f964a52073cb23e3", "name": "Atlantic Fruits & Vegetables", "location": {"address": "181 Atlantic Ave", "lat": 40.69013880307636, "lng": -73.99377710377884, "labeledLatLngs": [{"label": "display", "lat": 40.69013880307636, "lng": -73.99377710377884}, {"label": "entrance", "lat": 40.690195, "lng": -73.993659}], "distance": 473, "postalCode": "11201", "cc": "US", "city": "Brooklyn", "state": "NY", "country": "United States", "formattedAddress": ["181 Atlantic Ave", "Brooklyn, NY 11201", "United States"]}, "categories": [{"id": "4bf58dd8d48988d118951735", "name": "Grocery Store", "pluralName": "Grocery Stores", "shortName": "Grocery Store", "icon": {"prefix": "https://ss3.4sqi.net/img/categories_v2/shops/food_grocery_", "suffix": ".png"}, "primary": true}], "photos": {"count": 0, "groups": []}}, "referralId": "e-0-4b180371f964a52073cb23e3-39"}, {"reasons": {"count": 0, "items": [{"summary": "This spot is popular", "type": "general", "reasonName": "globalInteractionReason"}]}, "venue": {"id": "49e14fdbf964a520ba611fe3", "name": "The Chocolate Room", "location": {"address": "269 Court St", "crossStreet": "at Butler St.", "lat": 40.68482443807677, "lng": -73.9946722086937, "labeledLatLngs": [{"label": "display", "lat": 40.68482443807677, "lng": -73.9946722086937}, {"label": "entrance", "lat": 40.684809, "lng": -73.994574}], "distance": 475, "postalCode": "11231", "cc": "US", "city": "Brooklyn", "state": "NY", "country": "United States", "formattedAddress": ["269 Court St (at Butler St.)", "Brooklyn, NY 11231", "United States"]}, "categories": [{"id": "4bf58dd8d48988d1d0941735", "name": "Dessert Shop", "pluralName": "Dessert Shops", "shortName": "Desserts", "icon": {"prefix": "https://ss3.4sqi.net/img/categories_v2/food/dessert_", "suffix": ".png"}, "primary": true}], "photos": {"count": 0, "groups": []}}, "referralId": "e-0-49e14fdbf964a520ba611fe3-40"}, {"reasons": {"count": 0, "items": [{"summary": "This spot is popular", "type": "general", "reasonName": "globalInteractionReason"}]}, "venue": {"id": "4f302eebe4b06203596fa0f7", "name": "Idlewild Books", "location": {"address": "249 Warren St", "crossStreet": "Court", "lat": 40.68637399111778, "lng": -73.9936794516535, "labeledLatLngs": [{"label": "display", "lat": 40.68637399111778, "lng": -73.9936794516535}, {"label": "entrance", "lat": 40.686389, "lng": -73.993536}], "distance": 446, "postalCode": "11201", "cc": "US", "city": "Brooklyn", "state": "NY", "country": "United States", "formattedAddress": ["249 Warren St (Court)", "Brooklyn, NY 11201", "United States"]}, "categories": [{"id": "4bf58dd8d48988d114951735", "name": "Bookstore", "pluralName": "Bookstores", "shortName": "Bookstore", "icon": {"prefix": "https://ss3.4sqi.net/img/categories_v2/shops/bookstore_", "suffix": ".png"}, "primary": true}], "photos": {"count": 0, "groups": []}}, "referralId": "e-0-4f302eebe4b06203596fa0f7-41"}, {"reasons": {"count": 0, "items": [{"summary": "This spot is popular", "type": "general", "reasonName": "globalInteractionReason"}]}, "venue": {"id": "569b13cc498eb51d51627f79", "name": "Le Boudoir", "location": {"address": "135 Atlantic Ave", "lat": 40.69063597340363, "lng": -73.99576250882095, "labeledLatLngs": [{"label": "display", "lat": 40.69063597340363, "lng": -73.99576250882095}, {"label": "entrance", "lat": 40.690734, "lng": -73.995613}], "distance": 383, "cc": "US", "city": "Brooklyn", "state": "NY", "country": "United States", "formattedAddress": ["135 Atlantic Ave", "Brooklyn, NY", "United States"]}, "categories": [{"id": "4bf58dd8d48988d1d4941735", "name": "Speakeasy", "pluralName": "Speakeasies", "shortName": "Speakeasy", "icon": {"prefix": "https://ss3.4sqi.net/img/categories_v2/nightlife/secretbar_", "suffix": ".png"}, "primary": true}], "photos": {"count": 0, "groups": []}}, "referralId": "e-0-569b13cc498eb51d51627f79-42"}, {"reasons": {"count": 0, "items": [{"summary": "This spot is popular", "type": "general", "reasonName": "globalInteractionReason"}]}, "venue": {"id": "4b5e7263f964a520148f29e3", "name": "Henry Street Wines & Liquors", "location": {"address": "494 Henry St", "crossStreet": "btwn DeGraw & Sackett St", "lat": 40.68440446539889, "lng": -73.99926887686253, "labeledLatLngs": [{"label": "display", "lat": 40.68440446539889, "lng": -73.99926887686253}, {"label": "entrance", "lat": 40.684431, "lng": -73.999375}], "distance": 395, "postalCode": "11231", "cc": "US", "city": "Brooklyn", "state": "NY", "country": "United States", "formattedAddress": ["494 Henry St (btwn DeGraw & Sackett St)", "Brooklyn, NY 11231", "United States"]}, "categories": [{"id": "4bf58dd8d48988d119951735", "name": "Wine Shop", "pluralName": "Wine Shops", "shortName": "Wine Shop", "icon": {"prefix": "https://ss3.4sqi.net/img/categories_v2/shops/food_wineshop_", "suffix": ".png"}, "primary": true}], "photos": {"count": 0, "groups": []}}, "referralId": "e-0-4b5e7263f964a520148f29e3-43"}, {"reasons": {"count": 0, "items": [{"summary": "This spot is popular", "type": "general", "reasonName": "globalInteractionReason"}]}, "venue": {"id": "52b3aec5498ef64fb16d257e", "name": "Congress", "location": {"address": "208 Court St", "crossStreet": "Btwn Warren and Congress", "lat": 40.68691293283543, "lng": -73.99373473873149, "labeledLatLngs": [{"label": "display", "lat": 40.68691293283543, "lng": -73.99373473873149}, {"label": "entrance", "lat": 40.686939, "lng": -73.993833}], "distance": 422, "postalCode": "11201", "cc": "US", "neighborhood": "Cobble Hill", "city": "Brooklyn", "state": "NY", "country": "United States", "formattedAddress": ["208 Court St (Btwn Warren and Congress)", "Brooklyn, NY 11201", "United States"]}, "categories": [{"id": "4bf58dd8d48988d11e941735", "name": "Cocktail Bar", "pluralName": "Cocktail Bars", "shortName": "Cocktail", "icon": {"prefix": "https://ss3.4sqi.net/img/categories_v2/nightlife/cocktails_", "suffix": ".png"}, "primary": true}], "photos": {"count": 0, "groups": []}}, "referralId": "e-0-52b3aec5498ef64fb16d257e-44"}, {"reasons": {"count": 0, "items": [{"summary": "This spot is popular", "type": "general", "reasonName": "globalInteractionReason"}]}, "venue": {"id": "4b08464cf964a520ee0723e3", "name": "Element Healing Arts", "location": {"address": "518 Henry St", "crossStreet": "Union St.", "lat": 40.68353740451318, "lng": -73.99983508122628, "labeledLatLngs": [{"label": "display", "lat": 40.68353740451318, "lng": -73.99983508122628}, {"label": "entrance", "lat": 40.683613, "lng": -73.999793}], "distance": 499, "postalCode": "11231", "cc": "US", "city": "Brooklyn", "state": "NY", "country": "United States", "formattedAddress": ["518 Henry St (Union St.)", "Brooklyn, NY 11231", "United States"]}, "categories": [{"id": "4bf58dd8d48988d102941735", "name": "Yoga Studio", "pluralName": "Yoga Studios", "shortName": "Yoga Studio", "icon": {"prefix": "https://ss3.4sqi.net/img/categories_v2/shops/gym_yogastudio_", "suffix": ".png"}, "primary": true}], "photos": {"count": 0, "groups": []}}, "referralId": "e-0-4b08464cf964a520ee0723e3-45"}, {"reasons": {"count": 0, "items": [{"summary": "This spot is popular", "type": "general", "reasonName": "globalInteractionReason"}]}, "venue": {"id": "55423f82498e5156ac21cfb6", "name": "Swallow Cafe", "location": {"address": "156 Atlantic Ave", "crossStreet": "at Clinton St", "lat": 40.69015355837622, "lng": -73.99433454375975, "labeledLatLngs": [{"label": "display", "lat": 40.69015355837622, "lng": -73.99433454375975}], "distance": 434, "postalCode": "11201", "cc": "US", "city": "Brooklyn", "state": "NY", "country": "United States", "formattedAddress": ["156 Atlantic Ave (at Clinton St)", "Brooklyn, NY 11201", "United States"]}, "categories": [{"id": "4bf58dd8d48988d1e0931735", "name": "Coffee Shop", "pluralName": "Coffee Shops", "shortName": "Coffee Shop", "icon": {"prefix": "https://ss3.4sqi.net/img/categories_v2/food/coffeeshop_", "suffix": ".png"}, "primary": true}], "delivery": {"id": "342307", "url": "https://www.seamless.com/menu/swallow-cafe-156-atlantic-ave-brooklyn/342307?affiliate=1131&utm_source=foursquare-affiliate-network&utm_medium=affiliate&utm_campaign=1131&utm_content=342307", "provider": {"name": "seamless", "icon": {"prefix": "https://fastly.4sqi.net/img/general/cap/", "sizes": [40, 50], "name": "/delivery_provider_seamless_20180129.png"}}}, "photos": {"count": 0, "groups": []}}, "referralId": "e-0-55423f82498e5156ac21cfb6-46"}, {"reasons": {"count": 0, "items": [{"summary": "This spot is popular", "type": "general", "reasonName": "globalInteractionReason"}]}, "venue": {"id": "56db434b38faf73a8b6fa867", "name": "B61", "location": {"address": "187 Columbia St", "crossStreet": "Degraw", "lat": 40.685682195969804, "lng": -74.00233476645471, "labeledLatLngs": [{"label": "display", "lat": 40.685682195969804, "lng": -74.00233476645471}, {"label": "entrance", "lat": 40.685601, "lng": -74.002288}], "distance": 404, "postalCode": "11231", "cc": "US", "city": "Brooklyn", "state": "NY", "country": "United States", "formattedAddress": ["187 Columbia St (Degraw)", "Brooklyn, NY 11231", "United States"]}, "categories": [{"id": "4bf58dd8d48988d118941735", "name": "Dive Bar", "pluralName": "Dive Bars", "shortName": "Dive Bar", "icon": {"prefix": "https://ss3.4sqi.net/img/categories_v2/nightlife/divebar_", "suffix": ".png"}, "primary": true}], "photos": {"count": 0, "groups": []}}, "referralId": "e-0-56db434b38faf73a8b6fa867-47"}, {"reasons": {"count": 0, "items": [{"summary": "This spot is popular", "type": "general", "reasonName": "globalInteractionReason"}]}, "venue": {"id": "425c6100f964a520fc201fe3", "name": "Floyd NY", "location": {"address": "131 Atlantic Ave", "crossStreet": "btwn Henry & Clinton St.", "lat": 40.690671, "lng": -73.995587, "labeledLatLngs": [{"label": "display", "lat": 40.690671, "lng": -73.995587}, {"label": "entrance", "lat": 40.690758, "lng": -73.995698}], "distance": 396, "postalCode": "11201", "cc": "US", "city": "Brooklyn", "state": "NY", "country": "United States", "formattedAddress": ["131 Atlantic Ave (btwn Henry & Clinton St.)", "Brooklyn, NY 11201", "United States"]}, "categories": [{"id": "4bf58dd8d48988d116941735", "name": "Bar", "pluralName": "Bars", "shortName": "Bar", "icon": {"prefix": "https://ss3.4sqi.net/img/categories_v2/nightlife/pub_", "suffix": ".png"}, "primary": true}], "photos": {"count": 0, "groups": []}, "venuePage": {"id": "54966793"}}, "referralId": "e-0-425c6100f964a520fc201fe3-48"}, {"reasons": {"count": 0, "items": [{"summary": "This spot is popular", "type": "general", "reasonName": "globalInteractionReason"}]}, "venue": {"id": "4aa3fabaf964a520ab4420e3", "name": "Heights Chateau", "location": {"address": "123 Atlantic Ave", "crossStreet": "at Henry St", "lat": 40.69076663473582, "lng": -73.9960339523652, "labeledLatLngs": [{"label": "display", "lat": 40.69076663473582, "lng": -73.9960339523652}, {"label": "entrance", "lat": 40.690826, "lng": -73.995946}], "distance": 382, "postalCode": "11201", "cc": "US", "city": "Brooklyn", "state": "NY", "country": "United States", "formattedAddress": ["123 Atlantic Ave (at Henry St)", "Brooklyn, NY 11201", "United States"]}, "categories": [{"id": "4bf58dd8d48988d119951735", "name": "Wine Shop", "pluralName": "Wine Shops", "shortName": "Wine Shop", "icon": {"prefix": "https://ss3.4sqi.net/img/categories_v2/shops/food_wineshop_", "suffix": ".png"}, "primary": true}], "photos": {"count": 0, "groups": []}, "venuePage": {"id": "81741917"}}, "referralId": "e-0-4aa3fabaf964a520ab4420e3-49"}, {"reasons": {"count": 0, "items": [{"summary": "This spot is popular", "type": "general", "reasonName": "globalInteractionReason"}]}, "venue": {"id": "52118b7c93cd2b431b344a7e", "name": "Pure Barre Brooklyn", "location": {"address": "266 Court St", "lat": 40.68502762774786, "lng": -73.99487516013619, "labeledLatLngs": [{"label": "display", "lat": 40.68502762774786, "lng": -73.99487516013619}], "distance": 447, "postalCode": "11231", "cc": "US", "city": "Brooklyn", "state": "NY", "country": "United States", "formattedAddress": ["266 Court St", "Brooklyn, NY 11231", "United States"]}, "categories": [{"id": "4bf58dd8d48988d175941735", "name": "Gym / Fitness Center", "pluralName": "Gyms or Fitness Centers", "shortName": "Gym / Fitness", "icon": {"prefix": "https://ss3.4sqi.net/img/categories_v2/building/gym_", "suffix": ".png"}, "primary": true}], "photos": {"count": 0, "groups": []}}, "referralId": "e-0-52118b7c93cd2b431b344a7e-50"}, {"reasons": {"count": 0, "items": [{"summary": "This spot is popular", "type": "general", "reasonName": "globalInteractionReason"}]}, "venue": {"id": "51365533582f411c528d0dcb", "name": "Poppy's Catering + Events", "location": {"address": "243 Degraw St", "crossStreet": "btwn Tompkins & Clinton", "lat": 40.684235179644695, "lng": -73.99692476598801, "labeledLatLngs": [{"label": "display", "lat": 40.684235179644695, "lng": -73.99692476598801}, {"label": "entrance", "lat": 40.684309, "lng": -73.996972}], "distance": 432, "postalCode": "11231", "cc": "US", "city": "Brooklyn", "state": "NY", "country": "United States", "formattedAddress": ["243 Degraw St (btwn Tompkins & Clinton)", "Brooklyn, NY 11231", "United States"]}, "categories": [{"id": "4bf58dd8d48988d1f9941735", "name": "Food & Drink Shop", "pluralName": "Food & Drink Shops", "shortName": "Food & Drink", "icon": {"prefix": "https://ss3.4sqi.net/img/categories_v2/shops/foodanddrink_", "suffix": ".png"}, "primary": true}], "photos": {"count": 0, "groups": []}}, "referralId": "e-0-51365533582f411c528d0dcb-51"}, {"reasons": {"count": 0, "items": [{"summary": "This spot is popular", "type": "general", "reasonName": "globalInteractionReason"}]}, "venue": {"id": "5b7f53abe727c40024124d8c", "name": "Oh! Dumplings", "location": {"address": "6 Bergen St", "crossStreet": "Court St", "lat": 40.687722313444915, "lng": -73.992943093669, "labeledLatLngs": [{"label": "display", "lat": 40.687722313444915, "lng": -73.992943093669}], "distance": 474, "postalCode": "11201", "cc": "US", "neighborhood": "Boerum Hill", "city": "Brooklyn", "state": "NY", "country": "United States", "formattedAddress": ["6 Bergen St (Court St)", "Brooklyn, NY 11201", "United States"]}, "categories": [{"id": "4bf58dd8d48988d108941735", "name": "Dumpling Restaurant", "pluralName": "Dumpling Restaurants", "shortName": "Dumplings", "icon": {"prefix": "https://ss3.4sqi.net/img/categories_v2/food/dumplings_", "suffix": ".png"}, "primary": true}], "delivery": {"id": "962028", "url": "https://www.seamless.com/menu/oh-dumplings-6-bergen-st-brooklyn/962028?affiliate=1131&utm_source=foursquare-affiliate-network&utm_medium=affiliate&utm_campaign=1131&utm_content=962028", "provider": {"name": "seamless", "icon": {"prefix": "https://fastly.4sqi.net/img/general/cap/", "sizes": [40, 50], "name": "/delivery_provider_seamless_20180129.png"}}}, "photos": {"count": 0, "groups": []}}, "referralId": "e-0-5b7f53abe727c40024124d8c-52"}, {"reasons": {"count": 0, "items": [{"summary": "This spot is popular", "type": "general", "reasonName": "globalInteractionReason"}]}, "venue": {"id": "538a155d498e382b6f992e46", "name": "Picture Room", "location": {"address": "117 Atlantic Ave", "crossStreet": "Henry St.", "lat": 40.690976, "lng": -73.996278, "labeledLatLngs": [{"label": "display", "lat": 40.690976, "lng": -73.996278}, {"label": "entrance", "lat": 40.690927, "lng": -73.996302}], "distance": 391, "postalCode": "11201", "cc": "US", "city": "Brooklyn", "state": "NY", "country": "United States", "formattedAddress": ["117 Atlantic Ave (Henry St.)", "Brooklyn, NY 11201", "United States"]}, "categories": [{"id": "4bf58dd8d48988d1e2931735", "name": "Art Gallery", "pluralName": "Art Galleries", "shortName": "Art Gallery", "icon": {"prefix": "https://ss3.4sqi.net/img/categories_v2/arts_entertainment/artgallery_", "suffix": ".png"}, "primary": true}], "photos": {"count": 0, "groups": []}, "venuePage": {"id": "476491675"}}, "referralId": "e-0-538a155d498e382b6f992e46-53"}, {"reasons": {"count": 0, "items": [{"summary": "This spot is popular", "type": "general", "reasonName": "globalInteractionReason"}]}, "venue": {"id": "4abf9e39f964a520509120e3", "name": "Mini Max Toys and Cuts", "location": {"address": "152 Atlantic Ave", "crossStreet": "at Clinton St", "lat": 40.69031309789149, "lng": -73.99462650533621, "labeledLatLngs": [{"label": "display", "lat": 40.69031309789149, "lng": -73.99462650533621}], "distance": 425, "postalCode": "11201", "cc": "US", "city": "Brooklyn", "state": "NY", "country": "United States", "formattedAddress": ["152 Atlantic Ave (at Clinton St)", "Brooklyn, NY 11201", "United States"]}, "categories": [{"id": "4bf58dd8d48988d110951735", "name": "Salon / Barbershop", "pluralName": "Salons / Barbershops", "shortName": "Salon / Barbershop", "icon": {"prefix": "https://ss3.4sqi.net/img/categories_v2/shops/salon_barber_", "suffix": ".png"}, "primary": true}], "photos": {"count": 0, "groups": []}, "venuePage": {"id": "33341096"}}, "referralId": "e-0-4abf9e39f964a520509120e3-54"}, {"reasons": {"count": 0, "items": [{"summary": "This spot is popular", "type": "general", "reasonName": "globalInteractionReason"}]}, "venue": {"id": "5037ff81e4b0bb32092178cd", "name": "Edelweiss", "location": {"address": "164 Court St", "crossStreet": "BTWN Amity st. and Congress st.", "lat": 40.688235, "lng": -73.993314, "labeledLatLngs": [{"label": "display", "lat": 40.688235, "lng": -73.993314}, {"label": "entrance", "lat": 40.68821, "lng": -73.993223}], "distance": 444, "postalCode": "11201", "cc": "US", "city": "Brooklyn", "state": "NY", "country": "United States", "formattedAddress": ["164 Court St (BTWN Amity st. and Congress st.)", "Brooklyn, NY 11201", "United States"]}, "categories": [{"id": "4bf58dd8d48988d11b951735", "name": "Flower Shop", "pluralName": "Flower Shops", "shortName": "Flower Shop", "icon": {"prefix": "https://ss3.4sqi.net/img/categories_v2/shops/flowershop_", "suffix": ".png"}, "primary": true}], "photos": {"count": 0, "groups": []}}, "referralId": "e-0-5037ff81e4b0bb32092178cd-55"}, {"reasons": {"count": 0, "items": [{"summary": "This spot is popular", "type": "general", "reasonName": "globalInteractionReason"}]}, "venue": {"id": "59c2c26635f9837e08397ef4", "name": "Fare & Folk", "location": {"address": "402 Henry St", "crossStreet": "Baltic Street", "lat": 40.68750463571392, "lng": -73.99781630830245, "labeledLatLngs": [{"label": "display", "lat": 40.68750463571392, "lng": -73.99781630830245}], "distance": 78, "postalCode": "11201", "cc": "US", "city": "Brooklyn", "state": "NY", "country": "United States", "formattedAddress": ["402 Henry St (Baltic Street)", "Brooklyn, NY 11201", "United States"]}, "categories": [{"id": "4bf58dd8d48988d1e0931735", "name": "Coffee Shop", "pluralName": "Coffee Shops", "shortName": "Coffee Shop", "icon": {"prefix": "https://ss3.4sqi.net/img/categories_v2/food/coffeeshop_", "suffix": ".png"}, "primary": true}], "delivery": {"id": "2049546", "url": "https://www.seamless.com/menu/fare-and-folk-cafe-402-henry-st-brooklyn/2049546?affiliate=1131&utm_source=foursquare-affiliate-network&utm_medium=affiliate&utm_campaign=1131&utm_content=2049546", "provider": {"name": "seamless", "icon": {"prefix": "https://fastly.4sqi.net/img/general/cap/", "sizes": [40, 50], "name": "/delivery_provider_seamless_20180129.png"}}}, "photos": {"count": 0, "groups": []}}, "referralId": "e-0-59c2c26635f9837e08397ef4-56"}, {"reasons": {"count": 0, "items": [{"summary": "This spot is popular", "type": "general", "reasonName": "globalInteractionReason"}]}, "venue": {"id": "4c093a157e3fc9287998f182", "name": "Adam Yauch Park", "location": {"address": "21 State St", "crossStreet": "at Columbia Pl", "lat": 40.69214551471285, "lng": -73.9988930153191, "labeledLatLngs": [{"label": "display", "lat": 40.69214551471285, "lng": -73.9988930153191}, {"label": "entrance", "lat": 40.692309, "lng": -73.998874}], "distance": 471, "postalCode": "11201", "cc": "US", "city": "Brooklyn", "state": "NY", "country": "United States", "formattedAddress": ["21 State St (at Columbia Pl)", "Brooklyn, NY 11201", "United States"]}, "categories": [{"id": "4bf58dd8d48988d163941735", "name": "Park", "pluralName": "Parks", "shortName": "Park", "icon": {"prefix": "https://ss3.4sqi.net/img/categories_v2/parks_outdoors/park_", "suffix": ".png"}, "primary": true}], "photos": {"count": 0, "groups": []}}, "referralId": "e-0-4c093a157e3fc9287998f182-57"}, {"reasons": {"count": 0, "items": [{"summary": "This spot is popular", "type": "general", "reasonName": "globalInteractionReason"}]}, "venue": {"id": "5c3684e55bc27d0025177564", "name": "Krok", "location": {"address": "117 Columbia St", "lat": 40.687569, "lng": -74.001258, "labeledLatLngs": [{"label": "display", "lat": 40.687569, "lng": -74.001258}], "distance": 230, "postalCode": "11231", "cc": "US", "city": "Brooklyn", "state": "NY", "country": "United States", "formattedAddress": ["117 Columbia St", "Brooklyn, NY 11231", "United States"]}, "categories": [{"id": "4bf58dd8d48988d149941735", "name": "Thai Restaurant", "pluralName": "Thai Restaurants", "shortName": "Thai", "icon": {"prefix": "https://ss3.4sqi.net/img/categories_v2/food/thai_", "suffix": ".png"}, "primary": true}], "delivery": {"id": "1064795", "url": "https://www.seamless.com/menu/krok-restaurant-117-columbia-st-brooklyn/1064795?affiliate=1131&utm_source=foursquare-affiliate-network&utm_medium=affiliate&utm_campaign=1131&utm_content=1064795", "provider": {"name": "seamless", "icon": {"prefix": "https://fastly.4sqi.net/img/general/cap/", "sizes": [40, 50], "name": "/delivery_provider_seamless_20180129.png"}}}, "photos": {"count": 0, "groups": []}}, "referralId": "e-0-5c3684e55bc27d0025177564-58"}, {"reasons": {"count": 0, "items": [{"summary": "This spot is popular", "type": "general", "reasonName": "globalInteractionReason"}]}, "venue": {"id": "43d3a659f964a520212e1fe3", "name": "Cobble Hill Cinemas", "location": {"address": "265 Court St", "crossStreet": "at Butler St", "lat": 40.68483225711327, "lng": -73.99450049084267, "labeledLatLngs": [{"label": "display", "lat": 40.68483225711327, "lng": -73.99450049084267}, {"label": "entrance", "lat": 40.684914, "lng": -73.994539}], "distance": 485, "postalCode": "11231", "cc": "US", "city": "Brooklyn", "state": "NY", "country": "United States", "formattedAddress": ["265 Court St (at Butler St)", "Brooklyn, NY 11231", "United States"]}, "categories": [{"id": "4bf58dd8d48988d17e941735", "name": "Indie Movie Theater", "pluralName": "Indie Movie Theaters", "shortName": "Indie Movies", "icon": {"prefix": "https://ss3.4sqi.net/img/categories_v2/arts_entertainment/movietheater_", "suffix": ".png"}, "primary": true}], "photos": {"count": 0, "groups": []}}, "referralId": "e-0-43d3a659f964a520212e1fe3-59"}, {"reasons": {"count": 0, "items": [{"summary": "This spot is popular", "type": "general", "reasonName": "globalInteractionReason"}]}, "venue": {"id": "5169bc38e4b05c4b9b385e46", "name": "Hatchet Outdoor Supply Co.", "location": {"address": "77 Atlantic Ave", "crossStreet": "btwn Henry & Hicks", "lat": 40.69115421140025, "lng": -73.99775904705332, "labeledLatLngs": [{"label": "display", "lat": 40.69115421140025, "lng": -73.99775904705332}, {"label": "entrance", "lat": 40.691292, "lng": -73.997614}], "distance": 366, "postalCode": "11201", "cc": "US", "city": "Brooklyn", "state": "NY", "country": "United States", "formattedAddress": ["77 Atlantic Ave (btwn Henry & Hicks)", "Brooklyn, NY 11201", "United States"]}, "categories": [{"id": "4bf58dd8d48988d1f2941735", "name": "Sporting Goods Shop", "pluralName": "Sporting Goods Shops", "shortName": "Sporting Goods", "icon": {"prefix": "https://ss3.4sqi.net/img/categories_v2/shops/sports_outdoors_", "suffix": ".png"}, "primary": true}], "photos": {"count": 0, "groups": []}}, "referralId": "e-0-5169bc38e4b05c4b9b385e46-60"}, {"reasons": {"count": 0, "items": [{"summary": "This spot is popular", "type": "general", "reasonName": "globalInteractionReason"}]}, "venue": {"id": "50d0f972e4b0faa0053e766d", "name": "Libertador", "location": {"address": "400 Henry St", "crossStreet": "Baltic St", "lat": 40.68739448151068, "lng": -73.99789801001056, "labeledLatLngs": [{"label": "display", "lat": 40.68739448151068, "lng": -73.99789801001056}], "distance": 80, "postalCode": "11201", "cc": "US", "city": "Brooklyn", "state": "NY", "country": "United States", "formattedAddress": ["400 Henry St (Baltic St)", "Brooklyn, NY 11201", "United States"]}, "categories": [{"id": "4bf58dd8d48988d107941735", "name": "Argentinian Restaurant", "pluralName": "Argentinian Restaurants", "shortName": "Argentinian", "icon": {"prefix": "https://ss3.4sqi.net/img/categories_v2/food/argentinian_", "suffix": ".png"}, "primary": true}], "photos": {"count": 0, "groups": []}}, "referralId": "e-0-50d0f972e4b0faa0053e766d-61"}, {"reasons": {"count": 0, "items": [{"summary": "This spot is popular", "type": "general", "reasonName": "globalInteractionReason"}]}, "venue": {"id": "55de44ac498e855cc1ffe2df", "name": "Brado", "location": {"address": "155 Atlantic Ave", "crossStreet": "btwn Clinton & Henry St", "lat": 40.69045044404489, "lng": -73.99494165015247, "labeledLatLngs": [{"label": "display", "lat": 40.69045044404489, "lng": -73.99494165015247}, {"label": "entrance", "lat": 40.690525, "lng": -73.994854}], "distance": 415, "postalCode": "11201", "cc": "US", "city": "Brooklyn", "state": "NY", "country": "United States", "formattedAddress": ["155 Atlantic Ave (btwn Clinton & Henry St)", "Brooklyn, NY 11201", "United States"]}, "categories": [{"id": "4bf58dd8d48988d1ca941735", "name": "Pizza Place", "pluralName": "Pizza Places", "shortName": "Pizza", "icon": {"prefix": "https://ss3.4sqi.net/img/categories_v2/food/pizza_", "suffix": ".png"}, "primary": true}], "delivery": {"id": "335588", "url": "https://www.seamless.com/menu/brado-155-atlantic-ave-brooklyn/335588?affiliate=1131&utm_source=foursquare-affiliate-network&utm_medium=affiliate&utm_campaign=1131&utm_content=335588", "provider": {"name": "seamless", "icon": {"prefix": "https://fastly.4sqi.net/img/general/cap/", "sizes": [40, 50], "name": "/delivery_provider_seamless_20180129.png"}}}, "photos": {"count": 0, "groups": []}}, "referralId": "e-0-55de44ac498e855cc1ffe2df-62"}, {"reasons": {"count": 0, "items": [{"summary": "This spot is popular", "type": "general", "reasonName": "globalInteractionReason"}]}, "venue": {"id": "4c38a8a63849c92859d7bfb1", "name": "Brooklyn Heights Deli", "location": {"address": "292 Henry St", "crossStreet": "at State St.", "lat": 40.69135540592574, "lng": -73.99600854870859, "labeledLatLngs": [{"label": "display", "lat": 40.69135540592574, "lng": -73.99600854870859}, {"label": "entrance", "lat": 40.69135, "lng": -73.996063}], "distance": 438, "postalCode": "11201", "cc": "US", "city": "Brooklyn", "state": "NY", "country": "United States", "formattedAddress": ["292 Henry St (at State St.)", "Brooklyn, NY 11201", "United States"]}, "categories": [{"id": "4bf58dd8d48988d146941735", "name": "Deli / Bodega", "pluralName": "Delis / Bodegas", "shortName": "Deli / Bodega", "icon": {"prefix": "https://ss3.4sqi.net/img/categories_v2/food/deli_", "suffix": ".png"}, "primary": true}], "delivery": {"id": "275706", "url": "https://www.seamless.com/menu/brooklyn-heights-deli-292-henry-st-brooklyn/275706?affiliate=1131&utm_source=foursquare-affiliate-network&utm_medium=affiliate&utm_campaign=1131&utm_content=275706", "provider": {"name": "seamless", "icon": {"prefix": "https://fastly.4sqi.net/img/general/cap/", "sizes": [40, 50], "name": "/delivery_provider_seamless_20180129.png"}}}, "photos": {"count": 0, "groups": []}}, "referralId": "e-0-4c38a8a63849c92859d7bfb1-63"}, {"reasons": {"count": 0, "items": [{"summary": "This spot is popular", "type": "general", "reasonName": "globalInteractionReason"}]}, "venue": {"id": "5692966d498ea35a37251d26", "name": "Mex Carroll's Diner", "location": {"address": "192 Columbia St", "lat": 40.685510319269106, "lng": -74.00250985465031, "labeledLatLngs": [{"label": "display", "lat": 40.685510319269106, "lng": -74.00250985465031}, {"label": "entrance", "lat": 40.685509, "lng": -74.002597}], "distance": 427, "postalCode": "11231", "cc": "US", "city": "Brooklyn", "state": "NY", "country": "United States", "formattedAddress": ["192 Columbia St", "Brooklyn, NY 11231", "United States"]}, "categories": [{"id": "4bf58dd8d48988d147941735", "name": "Diner", "pluralName": "Diners", "shortName": "Diner", "icon": {"prefix": "https://ss3.4sqi.net/img/categories_v2/food/diner_", "suffix": ".png"}, "primary": true}], "delivery": {"id": "288428", "url": "https://www.seamless.com/menu/mex-carrolls-diner-192-columbia-st-new-york/288428?affiliate=1131&utm_source=foursquare-affiliate-network&utm_medium=affiliate&utm_campaign=1131&utm_content=288428", "provider": {"name": "seamless", "icon": {"prefix": "https://fastly.4sqi.net/img/general/cap/", "sizes": [40, 50], "name": "/delivery_provider_seamless_20180129.png"}}}, "photos": {"count": 0, "groups": []}}, "referralId": "e-0-5692966d498ea35a37251d26-64"}, {"reasons": {"count": 0, "items": [{"summary": "This spot is popular", "type": "general", "reasonName": "globalInteractionReason"}]}, "venue": {"id": "49d908baf964a520ee5d1fe3", "name": "Sam's Italian Cuisine", "location": {"address": "238 Court St", "crossStreet": "Baltic St", "lat": 40.68582083666667, "lng": -73.9942546069965, "labeledLatLngs": [{"label": "display", "lat": 40.68582083666667, "lng": -73.9942546069965}, {"label": "entrance", "lat": 40.685866, "lng": -73.994353}], "distance": 432, "postalCode": "11201", "cc": "US", "city": "Brooklyn", "state": "NY", "country": "United States", "formattedAddress": ["238 Court St (Baltic St)", "Brooklyn, NY 11201", "United States"]}, "categories": [{"id": "4bf58dd8d48988d1ca941735", "name": "Pizza Place", "pluralName": "Pizza Places", "shortName": "Pizza", "icon": {"prefix": "https://ss3.4sqi.net/img/categories_v2/food/pizza_", "suffix": ".png"}, "primary": true}], "photos": {"count": 0, "groups": []}}, "referralId": "e-0-49d908baf964a520ee5d1fe3-65"}, {"reasons": {"count": 0, "items": [{"summary": "This spot is popular", "type": "general", "reasonName": "globalInteractionReason"}]}, "venue": {"id": "4b15a8e5f964a520f3b123e3", "name": "Love Thy Pet", "location": {"address": "164 Union St", "crossStreet": "btw Hicks & Henry St", "lat": 40.68379274077758, "lng": -74.00088247994233, "labeledLatLngs": [{"label": "display", "lat": 40.68379274077758, "lng": -74.00088247994233}, {"label": "entrance", "lat": 40.683689, "lng": -74.000871}], "distance": 499, "postalCode": "11231", "cc": "US", "city": "Brooklyn", "state": "NY", "country": "United States", "formattedAddress": ["164 Union St (btw Hicks & Henry St)", "Brooklyn, NY 11231", "United States"]}, "categories": [{"id": "4bf58dd8d48988d100951735", "name": "Pet Store", "pluralName": "Pet Stores", "shortName": "Pet Store", "icon": {"prefix": "https://ss3.4sqi.net/img/categories_v2/shops/pet_store_", "suffix": ".png"}, "primary": true}], "photos": {"count": 0, "groups": []}}, "referralId": "e-0-4b15a8e5f964a520f3b123e3-66"}, {"reasons": {"count": 0, "items": [{"summary": "This spot is popular", "type": "general", "reasonName": "globalInteractionReason"}]}, "venue": {"id": "3fd66200f964a52064eb1ee3", "name": "Montero Bar & Grill", "location": {"address": "73 Atlantic Ave", "crossStreet": "at Hicks St", "lat": 40.69120728950072, "lng": -73.99797228031336, "labeledLatLngs": [{"label": "display", "lat": 40.69120728950072, "lng": -73.99797228031336}, {"label": "entrance", "lat": 40.691373, "lng": -73.997926}], "distance": 369, "postalCode": "11201", "cc": "US", "city": "Brooklyn", "state": "NY", "country": "United States", "formattedAddress": ["73 Atlantic Ave (at Hicks St)", "Brooklyn, NY 11201", "United States"]}, "categories": [{"id": "4bf58dd8d48988d118941735", "name": "Dive Bar", "pluralName": "Dive Bars", "shortName": "Dive Bar", "icon": {"prefix": "https://ss3.4sqi.net/img/categories_v2/nightlife/divebar_", "suffix": ".png"}, "primary": true}], "photos": {"count": 0, "groups": []}, "venuePage": {"id": "94474027"}}, "referralId": "e-0-3fd66200f964a52064eb1ee3-67"}, {"reasons": {"count": 0, "items": [{"summary": "This spot is popular", "type": "general", "reasonName": "globalInteractionReason"}]}, "venue": {"id": "4fb0165ee4b0fd09a9bfd927", "name": "Dreams Gourmet", "location": {"address": "170 Court St", "lat": 40.68792789185433, "lng": -73.99311859487885, "labeledLatLngs": [{"label": "display", "lat": 40.68792789185433, "lng": -73.99311859487885}, {"label": "entrance", "lat": 40.688049, "lng": -73.993301}], "distance": 459, "postalCode": "11201", "cc": "US", "city": "Brooklyn", "state": "NY", "country": "United States", "formattedAddress": ["170 Court St", "Brooklyn, NY 11201", "United States"]}, "categories": [{"id": "4bf58dd8d48988d146941735", "name": "Deli / Bodega", "pluralName": "Delis / Bodegas", "shortName": "Deli / Bodega", "icon": {"prefix": "https://ss3.4sqi.net/img/categories_v2/food/deli_", "suffix": ".png"}, "primary": true}], "photos": {"count": 0, "groups": []}}, "referralId": "e-0-4fb0165ee4b0fd09a9bfd927-68"}, {"reasons": {"count": 0, "items": [{"summary": "This spot is popular", "type": "general", "reasonName": "globalInteractionReason"}]}, "venue": {"id": "4af715d1f964a520a90522e3", "name": "Pizzazzz Toyz", "location": {"address": "281 Court St", "lat": 40.6846180285592, "lng": -73.99484056066986, "labeledLatLngs": [{"label": "display", "lat": 40.6846180285592, "lng": -73.99484056066986}, {"label": "entrance", "lat": 40.684553, "lng": -73.9947}], "distance": 483, "postalCode": "11231", "cc": "US", "city": "Brooklyn", "state": "NY", "country": "United States", "formattedAddress": ["281 Court St", "Brooklyn, NY 11231", "United States"]}, "categories": [{"id": "4bf58dd8d48988d1f3941735", "name": "Toy / Game Store", "pluralName": "Toy / Game Stores", "shortName": "Toys & Games", "icon": {"prefix": "https://ss3.4sqi.net/img/categories_v2/shops/toys_", "suffix": ".png"}, "primary": true}], "photos": {"count": 0, "groups": []}}, "referralId": "e-0-4af715d1f964a520a90522e3-69"}, {"reasons": {"count": 0, "items": [{"summary": "This spot is popular", "type": "general", "reasonName": "globalInteractionReason"}]}, "venue": {"id": "4116be80f964a520050c1fe3", "name": "Alma", "location": {"address": "187 Columbia St", "crossStreet": "at Degraw St", "lat": 40.68569002042738, "lng": -74.0023013251684, "labeledLatLngs": [{"label": "display", "lat": 40.68569002042738, "lng": -74.0023013251684}], "distance": 401, "postalCode": "11231", "cc": "US", "city": "Brooklyn", "state": "NY", "country": "United States", "formattedAddress": ["187 Columbia St (at Degraw St)", "Brooklyn, NY 11231", "United States"]}, "categories": [{"id": "4bf58dd8d48988d1c1941735", "name": "Mexican Restaurant", "pluralName": "Mexican Restaurants", "shortName": "Mexican", "icon": {"prefix": "https://ss3.4sqi.net/img/categories_v2/food/mexican_", "suffix": ".png"}, "primary": true}], "delivery": {"id": "1015736", "url": "https://www.seamless.com/menu/alma-restaurant-187-columbia-st-brooklyn/1015736?affiliate=1131&utm_source=foursquare-affiliate-network&utm_medium=affiliate&utm_campaign=1131&utm_content=1015736", "provider": {"name": "seamless", "icon": {"prefix": "https://fastly.4sqi.net/img/general/cap/", "sizes": [40, 50], "name": "/delivery_provider_seamless_20180129.png"}}}, "photos": {"count": 0, "groups": []}}, "referralId": "e-0-4116be80f964a520050c1fe3-70"}, {"reasons": {"count": 0, "items": [{"summary": "This spot is popular", "type": "general", "reasonName": "globalInteractionReason"}]}, "venue": {"id": "4df25111e4cda09e6d9eae65", "name": "Darna", "location": {"address": "200 Court St", "crossStreet": "btwn Wyckoff St & Congress St", "lat": 40.68698011625574, "lng": -73.99364962135886, "labeledLatLngs": [{"label": "display", "lat": 40.68698011625574, "lng": -73.99364962135886}, {"label": "entrance", "lat": 40.687054, "lng": -73.993783}], "distance": 427, "postalCode": "11201", "cc": "US", "city": "Brooklyn", "state": "NY", "country": "United States", "formattedAddress": ["200 Court St (btwn Wyckoff St & Congress St)", "Brooklyn, NY 11201", "United States"]}, "categories": [{"id": "4bf58dd8d48988d10b941735", "name": "Falafel Restaurant", "pluralName": "Falafel Restaurants", "shortName": "Falafel", "icon": {"prefix": "https://ss3.4sqi.net/img/categories_v2/food/falafel_", "suffix": ".png"}, "primary": true}], "delivery": {"id": "264844", "url": "https://www.seamless.com/menu/darna-falafel-200-court-st-brooklyn/264844?affiliate=1131&utm_source=foursquare-affiliate-network&utm_medium=affiliate&utm_campaign=1131&utm_content=264844", "provider": {"name": "seamless", "icon": {"prefix": "https://fastly.4sqi.net/img/general/cap/", "sizes": [40, 50], "name": "/delivery_provider_seamless_20180129.png"}}}, "photos": {"count": 0, "groups": []}}, "referralId": "e-0-4df25111e4cda09e6d9eae65-71"}, {"reasons": {"count": 0, "items": [{"summary": "This spot is popular", "type": "general", "reasonName": "globalInteractionReason"}]}, "venue": {"id": "596a35eadec1d62dd2f9f6d7", "name": "Bonobos", "location": {"address": "173 Court St", "crossStreet": "Dean St", "lat": 40.68820270807593, "lng": -73.99280355437435, "labeledLatLngs": [{"label": "display", "lat": 40.68820270807593, "lng": -73.99280355437435}], "distance": 487, "postalCode": "11201", "cc": "US", "city": "Brooklyn", "state": "NY", "country": "United States", "formattedAddress": ["173 Court St (Dean St)", "Brooklyn, NY 11201", "United States"]}, "categories": [{"id": "4bf58dd8d48988d106951735", "name": "Men's Store", "pluralName": "Men's Stores", "shortName": "Men's Store", "icon": {"prefix": "https://ss3.4sqi.net/img/categories_v2/shops/apparel_men_", "suffix": ".png"}, "primary": true}], "photos": {"count": 0, "groups": []}}, "referralId": "e-0-596a35eadec1d62dd2f9f6d7-72"}, {"reasons": {"count": 0, "items": [{"summary": "This spot is popular", "type": "general", "reasonName": "globalInteractionReason"}]}, "venue": {"id": "535519e8498e9b9e93a67e80", "name": "La Cigogne", "location": {"address": "215 Union St", "crossStreet": "btwn Clinton & Henry St", "lat": 40.683459214631846, "lng": -73.99932235479355, "labeledLatLngs": [{"label": "display", "lat": 40.683459214631846, "lng": -73.99932235479355}], "distance": 500, "postalCode": "11231", "cc": "US", "city": "Brooklyn", "state": "NY", "country": "United States", "formattedAddress": ["215 Union St (btwn Clinton & Henry St)", "Brooklyn, NY 11231", "United States"]}, "categories": [{"id": "4bf58dd8d48988d10c941735", "name": "French Restaurant", "pluralName": "French Restaurants", "shortName": "French", "icon": {"prefix": "https://ss3.4sqi.net/img/categories_v2/food/french_", "suffix": ".png"}, "primary": true}], "delivery": {"id": "295812", "url": "https://www.seamless.com/menu/la-cigogne-union-st-215-union-st-brooklyn/295812?affiliate=1131&utm_source=foursquare-affiliate-network&utm_medium=affiliate&utm_campaign=1131&utm_content=295812", "provider": {"name": "seamless", "icon": {"prefix": "https://fastly.4sqi.net/img/general/cap/", "sizes": [40, 50], "name": "/delivery_provider_seamless_20180129.png"}}}, "photos": {"count": 0, "groups": []}, "venuePage": {"id": "84216048"}}, "referralId": "e-0-535519e8498e9b9e93a67e80-73"}, {"reasons": {"count": 0, "items": [{"summary": "This spot is popular", "type": "general", "reasonName": "globalInteractionReason"}]}, "venue": {"id": "4befa3ce5e7b9c745731b58d", "name": "Cobble Hill Variety & Mailing", "location": {"address": "495 Henry St", "crossStreet": "Degraw", "lat": 40.684657, "lng": -73.998922, "labeledLatLngs": [{"label": "display", "lat": 40.684657, "lng": -73.998922}, {"label": "entrance", "lat": 40.684687, "lng": -73.999028}], "distance": 364, "postalCode": "11231", "cc": "US", "city": "Brooklyn", "state": "NY", "country": "United States", "formattedAddress": ["495 Henry St (Degraw)", "Brooklyn, NY 11231", "United States"]}, "categories": [{"id": "4bf58dd8d48988d121951735", "name": "Paper / Office Supplies Store", "pluralName": "Paper / Office Supplies Stores", "shortName": "Office Supplies", "icon": {"prefix": "https://ss3.4sqi.net/img/categories_v2/shops/papergoods_", "suffix": ".png"}, "primary": true}], "photos": {"count": 0, "groups": []}}, "referralId": "e-0-4befa3ce5e7b9c745731b58d-74"}, {"reasons": {"count": 0, "items": [{"summary": "This spot is popular", "type": "general", "reasonName": "globalInteractionReason"}]}, "venue": {"id": "5bd8a65cbfc6d0002c47b7c5", "name": "Amy\u2019s Bread", "location": {"address": "311 Henry St", "lat": 40.69098341940025, "lng": -73.99613244023445, "labeledLatLngs": [{"label": "display", "lat": 40.69098341940025, "lng": -73.99613244023445}], "distance": 397, "postalCode": "11201", "cc": "US", "city": "New York", "state": "NY", "country": "United States", "formattedAddress": ["311 Henry St", "New York, NY 11201", "United States"]}, "categories": [{"id": "4bf58dd8d48988d16a941735", "name": "Bakery", "pluralName": "Bakeries", "shortName": "Bakery", "icon": {"prefix": "https://ss3.4sqi.net/img/categories_v2/food/bakery_", "suffix": ".png"}, "primary": true}], "photos": {"count": 0, "groups": []}}, "referralId": "e-0-5bd8a65cbfc6d0002c47b7c5-75"}, {"reasons": {"count": 0, "items": [{"summary": "This spot is popular", "type": "general", "reasonName": "globalInteractionReason"}]}, "venue": {"id": "560846a8498ecd0d6c2e04dc", "name": "Sultan Restaurant & Cafe Lounge", "location": {"address": "144 Atlantic Ave", "crossStreet": "Clinton and Henry Streets", "lat": 40.69039163999588, "lng": -73.99495552949723, "labeledLatLngs": [{"label": "display", "lat": 40.69039163999588, "lng": -73.99495552949723}], "distance": 410, "postalCode": "11201", "cc": "US", "city": "Brooklyn", "state": "NY", "country": "United States", "formattedAddress": ["144 Atlantic Ave (Clinton and Henry Streets)", "Brooklyn, NY 11201", "United States"]}, "categories": [{"id": "4bf58dd8d48988d1c0941735", "name": "Mediterranean Restaurant", "pluralName": "Mediterranean Restaurants", "shortName": "Mediterranean", "icon": {"prefix": "https://ss3.4sqi.net/img/categories_v2/food/mediterranean_", "suffix": ".png"}, "primary": true}], "photos": {"count": 0, "groups": []}}, "referralId": "e-0-560846a8498ecd0d6c2e04dc-76"}, {"reasons": {"count": 0, "items": [{"summary": "This spot is popular", "type": "general", "reasonName": "globalInteractionReason"}]}, "venue": {"id": "580d0a4838fa8cf0e28e76c2", "name": "Espresso Me", "location": {"address": "88 Atlantic Avenue", "crossStreet": "Hicks Street", "lat": 40.69095211398312, "lng": -73.99744811084277, "labeledLatLngs": [{"label": "display", "lat": 40.69095211398312, "lng": -73.99744811084277}], "distance": 350, "postalCode": "11201", "cc": "US", "city": "New York", "state": "NY", "country": "United States", "formattedAddress": ["88 Atlantic Avenue (Hicks Street)", "New York, NY 11201", "United States"]}, "categories": [{"id": "4bf58dd8d48988d1e0931735", "name": "Coffee Shop", "pluralName": "Coffee Shops", "shortName": "Coffee Shop", "icon": {"prefix": "https://ss3.4sqi.net/img/categories_v2/food/coffeeshop_", "suffix": ".png"}, "primary": true}], "delivery": {"id": "2042544", "url": "https://www.seamless.com/menu/espresso-me-88-atlantic-ave-brooklyn/2042544?affiliate=1131&utm_source=foursquare-affiliate-network&utm_medium=affiliate&utm_campaign=1131&utm_content=2042544", "provider": {"name": "seamless", "icon": {"prefix": "https://fastly.4sqi.net/img/general/cap/", "sizes": [40, 50], "name": "/delivery_provider_seamless_20180129.png"}}}, "photos": {"count": 0, "groups": []}}, "referralId": "e-0-580d0a4838fa8cf0e28e76c2-77"}, {"reasons": {"count": 0, "items": [{"summary": "This spot is popular", "type": "general", "reasonName": "globalInteractionReason"}]}, "venue": {"id": "5e505aca2d95890008b3970f", "name": "Bohemien", "location": {"address": "97 Atlantic Ave", "lat": 40.691036, "lng": -73.997016, "labeledLatLngs": [{"label": "display", "lat": 40.691036, "lng": -73.997016}], "distance": 370, "postalCode": "11201", "cc": "US", "city": "New York", "state": "NY", "country": "United States", "formattedAddress": ["97 Atlantic Ave", "New York, NY 11201", "United States"]}, "categories": [{"id": "4bf58dd8d48988d11e941735", "name": "Cocktail Bar", "pluralName": "Cocktail Bars", "shortName": "Cocktail", "icon": {"prefix": "https://ss3.4sqi.net/img/categories_v2/nightlife/cocktails_", "suffix": ".png"}, "primary": true}], "delivery": {"id": "2120040", "url": "https://www.seamless.com/menu/bohemien-cocktail-bar-97-atlantic-ave-brooklyn/2120040?affiliate=1131&utm_source=foursquare-affiliate-network&utm_medium=affiliate&utm_campaign=1131&utm_content=2120040", "provider": {"name": "seamless", "icon": {"prefix": "https://fastly.4sqi.net/img/general/cap/", "sizes": [40, 50], "name": "/delivery_provider_seamless_20180129.png"}}}, "photos": {"count": 0, "groups": []}}, "referralId": "e-0-5e505aca2d95890008b3970f-78"}, {"reasons": {"count": 0, "items": [{"summary": "This spot is popular", "type": "general", "reasonName": "globalInteractionReason"}]}, "venue": {"id": "49e9230ef964a520cf651fe3", "name": "Osaka", "location": {"address": "272 Court St", "crossStreet": "Butler", "lat": 40.684786519974274, "lng": -73.99477686143256, "labeledLatLngs": [{"label": "display", "lat": 40.684786519974274, "lng": -73.99477686143256}, {"label": "entrance", "lat": 40.684796, "lng": -73.99486}], "distance": 472, "postalCode": "11231", "cc": "US", "city": "Brooklyn", "state": "NY", "country": "United States", "formattedAddress": ["272 Court St (Butler)", "Brooklyn, NY 11231", "United States"]}, "categories": [{"id": "4bf58dd8d48988d1d2941735", "name": "Sushi Restaurant", "pluralName": "Sushi Restaurants", "shortName": "Sushi", "icon": {"prefix": "https://ss3.4sqi.net/img/categories_v2/food/sushi_", "suffix": ".png"}, "primary": true}], "photos": {"count": 0, "groups": []}}, "referralId": "e-0-49e9230ef964a520cf651fe3-79"}, {"reasons": {"count": 0, "items": [{"summary": "This spot is popular", "type": "general", "reasonName": "globalInteractionReason"}]}, "venue": {"id": "4a8814faf964a520210520e3", "name": "Margaret Palca Bakes", "location": {"address": "191 Columbia St", "crossStreet": "btw Degraw & Sacket", "lat": 40.685528866308935, "lng": -74.00244449331758, "labeledLatLngs": [{"label": "display", "lat": 40.685528866308935, "lng": -74.00244449331758}, {"label": "entrance", "lat": 40.685499, "lng": -74.002337}], "distance": 422, "postalCode": "11231", "cc": "US", "city": "Brooklyn", "state": "NY", "country": "United States", "formattedAddress": ["191 Columbia St (btw Degraw & Sacket)", "Brooklyn, NY 11231", "United States"]}, "categories": [{"id": "4bf58dd8d48988d16a941735", "name": "Bakery", "pluralName": "Bakeries", "shortName": "Bakery", "icon": {"prefix": "https://ss3.4sqi.net/img/categories_v2/food/bakery_", "suffix": ".png"}, "primary": true}], "delivery": {"id": "2031701", "url": "https://www.seamless.com/menu/margaret-palca-bakes-191-columbia-st-brooklyn/2031701?affiliate=1131&utm_source=foursquare-affiliate-network&utm_medium=affiliate&utm_campaign=1131&utm_content=2031701", "provider": {"name": "seamless", "icon": {"prefix": "https://fastly.4sqi.net/img/general/cap/", "sizes": [40, 50], "name": "/delivery_provider_seamless_20180129.png"}}}, "photos": {"count": 0, "groups": []}}, "referralId": "e-0-4a8814faf964a520210520e3-80"}, {"reasons": {"count": 0, "items": [{"summary": "This spot is popular", "type": "general", "reasonName": "globalInteractionReason"}]}, "venue": {"id": "57252fc6498e11c981242555", "name": "Blossom Ice Cream", "location": {"address": "196 Court St", "crossStreet": "Wycoff St", "lat": 40.68711913363581, "lng": -73.99356929929273, "labeledLatLngs": [{"label": "display", "lat": 40.68711913363581, "lng": -73.99356929929273}, {"label": "entrance", "lat": 40.687192, "lng": -73.993716}], "distance": 430, "postalCode": "11201", "cc": "US", "city": "Brooklyn", "state": "NY", "country": "United States", "formattedAddress": ["196 Court St (Wycoff St)", "Brooklyn, NY 11201", "United States"]}, "categories": [{"id": "4bf58dd8d48988d1c9941735", "name": "Ice Cream Shop", "pluralName": "Ice Cream Shops", "shortName": "Ice Cream", "icon": {"prefix": "https://ss3.4sqi.net/img/categories_v2/food/icecream_", "suffix": ".png"}, "primary": true}], "photos": {"count": 0, "groups": []}}, "referralId": "e-0-57252fc6498e11c981242555-81"}, {"reasons": {"count": 0, "items": [{"summary": "This spot is popular", "type": "general", "reasonName": "globalInteractionReason"}]}, "venue": {"id": "4b70497af964a5202e102de3", "name": "Brooklyn Collective", "location": {"address": "212 Columbia St", "crossStreet": "btw Union St. & Sackett St", "lat": 40.684863861378886, "lng": -74.00285985842135, "labeledLatLngs": [{"label": "display", "lat": 40.684863861378886, "lng": -74.00285985842135}, {"label": "entrance", "lat": 40.684839, "lng": -74.002924}], "distance": 497, "postalCode": "11231", "cc": "US", "city": "Brooklyn", "state": "NY", "country": "United States", "formattedAddress": ["212 Columbia St (btw Union St. & Sackett St)", "Brooklyn, NY 11231", "United States"]}, "categories": [{"id": "4bf58dd8d48988d128951735", "name": "Gift Shop", "pluralName": "Gift Shops", "shortName": "Gift Shop", "icon": {"prefix": "https://ss3.4sqi.net/img/categories_v2/shops/giftshop_", "suffix": ".png"}, "primary": true}], "photos": {"count": 0, "groups": []}}, "referralId": "e-0-4b70497af964a5202e102de3-82"}, {"reasons": {"count": 0, "items": [{"summary": "This spot is popular", "type": "general", "reasonName": "globalInteractionReason"}]}, "venue": {"id": "4a8f20ecf964a520101420e3", "name": "Mazzat", "location": {"address": "208 Columbia St", "crossStreet": "btwn Sackett & Union St", "lat": 40.684956, "lng": -74.002884, "labeledLatLngs": [{"label": "display", "lat": 40.684956, "lng": -74.002884}, {"label": "entrance", "lat": 40.684948, "lng": -74.002871}], "distance": 491, "postalCode": "11231", "cc": "US", "city": "Brooklyn", "state": "NY", "country": "United States", "formattedAddress": ["208 Columbia St (btwn Sackett & Union St)", "Brooklyn, NY 11231", "United States"]}, "categories": [{"id": "4bf58dd8d48988d1c0941735", "name": "Mediterranean Restaurant", "pluralName": "Mediterranean Restaurants", "shortName": "Mediterranean", "icon": {"prefix": "https://ss3.4sqi.net/img/categories_v2/food/mediterranean_", "suffix": ".png"}, "primary": true}], "delivery": {"id": "69703", "url": "https://www.seamless.com/menu/mazzat-208-columbia-st-brooklyn/69703?affiliate=1131&utm_source=foursquare-affiliate-network&utm_medium=affiliate&utm_campaign=1131&utm_content=69703", "provider": {"name": "seamless", "icon": {"prefix": "https://fastly.4sqi.net/img/general/cap/", "sizes": [40, 50], "name": "/delivery_provider_seamless_20180129.png"}}}, "photos": {"count": 0, "groups": []}}, "referralId": "e-0-4a8f20ecf964a520101420e3-83"}, {"reasons": {"count": 0, "items": [{"summary": "This spot is popular", "type": "general", "reasonName": "globalInteractionReason"}]}, "venue": {"id": "4ba4e123f964a5203bbe38e3", "name": "Van Vorhees Playground", "location": {"lat": 40.689682287160046, "lng": -73.99931206748424, "labeledLatLngs": [{"label": "display", "lat": 40.689682287160046, "lng": -73.99931206748424}], "distance": 206, "postalCode": "11201", "cc": "US", "city": "Brooklyn", "state": "NY", "country": "United States", "formattedAddress": ["Brooklyn, NY 11201", "United States"]}, "categories": [{"id": "4bf58dd8d48988d1e7941735", "name": "Playground", "pluralName": "Playgrounds", "shortName": "Playground", "icon": {"prefix": "https://ss3.4sqi.net/img/categories_v2/parks_outdoors/playground_", "suffix": ".png"}, "primary": true}], "photos": {"count": 0, "groups": []}}, "referralId": "e-0-4ba4e123f964a5203bbe38e3-84"}, {"reasons": {"count": 0, "items": [{"summary": "This spot is popular", "type": "general", "reasonName": "globalInteractionReason"}]}, "venue": {"id": "52c30d11498e8fb738269c64", "name": "Francesco's", "location": {"address": "529 Henry St", "lat": 40.683608839043046, "lng": -73.99975123527463, "labeledLatLngs": [{"label": "display", "lat": 40.683608839043046, "lng": -73.99975123527463}, {"label": "entrance", "lat": 40.683591, "lng": -73.999521}], "distance": 490, "postalCode": "11231", "cc": "US", "city": "Brooklyn", "state": "NY", "country": "United States", "formattedAddress": ["529 Henry St", "Brooklyn, NY 11231", "United States"]}, "categories": [{"id": "4bf58dd8d48988d1ca941735", "name": "Pizza Place", "pluralName": "Pizza Places", "shortName": "Pizza", "icon": {"prefix": "https://ss3.4sqi.net/img/categories_v2/food/pizza_", "suffix": ".png"}, "primary": true}], "delivery": {"id": "394087", "url": "https://www.seamless.com/menu/francescos-pizzeria-and-trattoria-529-henry-st-brooklyn/394087?affiliate=1131&utm_source=foursquare-affiliate-network&utm_medium=affiliate&utm_campaign=1131&utm_content=394087", "provider": {"name": "seamless", "icon": {"prefix": "https://fastly.4sqi.net/img/general/cap/", "sizes": [40, 50], "name": "/delivery_provider_seamless_20180129.png"}}}, "photos": {"count": 0, "groups": []}}, "referralId": "e-0-52c30d11498e8fb738269c64-85"}, {"reasons": {"count": 0, "items": [{"summary": "This spot is popular", "type": "general", "reasonName": "globalInteractionReason"}]}, "venue": {"id": "5b930cafb77c77002c38373b", "name": "Salter House", "location": {"address": "119 Atlantic Ave", "crossStreet": "Henry St.", "lat": 40.69087819947039, "lng": -73.99630721466154, "labeledLatLngs": [{"label": "display", "lat": 40.69087819947039, "lng": -73.99630721466154}], "distance": 380, "postalCode": "11201", "cc": "US", "city": "New York", "state": "NY", "country": "United States", "formattedAddress": ["119 Atlantic Ave (Henry St.)", "New York, NY 11201", "United States"]}, "categories": [{"id": "4bf58dd8d48988d1e0931735", "name": "Coffee Shop", "pluralName": "Coffee Shops", "shortName": "Coffee Shop", "icon": {"prefix": "https://ss3.4sqi.net/img/categories_v2/food/coffeeshop_", "suffix": ".png"}, "primary": true}], "photos": {"count": 0, "groups": []}}, "referralId": "e-0-5b930cafb77c77002c38373b-86"}, {"reasons": {"count": 0, "items": [{"summary": "This spot is popular", "type": "general", "reasonName": "globalInteractionReason"}]}, "venue": {"id": "4bd214dfcaff9521e704d2f0", "name": "LICH Child's Playground", "location": {"address": "67-99 Pacific St", "crossStreet": "at Pacific", "lat": 40.690323587958446, "lng": -73.99658447273445, "labeledLatLngs": [{"label": "display", "lat": 40.690323587958446, "lng": -73.99658447273445}], "distance": 315, "postalCode": "11201", "cc": "US", "city": "Brooklyn", "state": "NY", "country": "United States", "formattedAddress": ["67-99 Pacific St (at Pacific)", "Brooklyn, NY 11201", "United States"]}, "categories": [{"id": "4bf58dd8d48988d1e7941735", "name": "Playground", "pluralName": "Playgrounds", "shortName": "Playground", "icon": {"prefix": "https://ss3.4sqi.net/img/categories_v2/parks_outdoors/playground_", "suffix": ".png"}, "primary": true}], "photos": {"count": 0, "groups": []}}, "referralId": "e-0-4bd214dfcaff9521e704d2f0-87"}, {"reasons": {"count": 0, "items": [{"summary": "This spot is popular", "type": "general", "reasonName": "globalInteractionReason"}]},