[{"reasons": {"count": 0, "items": [{"summary": "This spot is popular", "type": "general", "reasonName": "globalInteractionReason"}]}, "venue": {"id": "4fd4ff3ce4b0bd432923a7c7", "name": "Pebble Beach", "location": {"address": "Brooklyn Bridge Park Greenway", "lat": 40.70432918778119, "lng": -73.99026520089504, "labeledLatLngs": [{"label": "display", "lat": 40.70432918778119, "lng": -73.99026520089504}], "distance": 180, "postalCode": "11201", "cc": "US", "city": "Brooklyn", "state": "NY", "country": "United States", "formattedAddress": ["Brooklyn Bridge Park Greenway", "Brooklyn, NY 11201", "United States"]}, "categories": [{"id": "4bf58dd8d48988d1e2941735", "name": "Beach", "pluralName": "Beaches", "shortName": "Beach", "icon": {"prefix": "https://ss3.4sqi.net/img/categories_v2/parks_outdoors/beach_", "suffix": ".png"}, "primary": true}], "photos": {"count": 0, "groups": []}}, "referralId": "e-0-4fd4ff3ce4b0bd432923a7c7-0"}, {"reasons": {"count": 0, "items": [{"summary": "This spot is popular", "type": "general", "reasonName": "globalInteractionReason"}]}, "venue": {"id": "57103ba5498e83b7bce1001d", "name": "DUMBO Boulders", "location": {"address": "99 Plymouth St", "lat": 40.70419160486633, "lng": -73.98893036918123, "labeledLatLngs": [{"label": "display", "lat": 40.70419160486633, "lng": -73.98893036918123}, {"label": "entrance", "lat": 40.703948, "lng": -73.98938}], "distance": 114, "postalCode": "11201", "cc": "US", "city": "Brooklyn", "state": "NY", "country": "United States", "formattedAddress": ["99 Plymouth St", "Brooklyn, NY 11201", "United States"]}, "categories": [{"id": "503289d391d4c4b30a586d6a", "name": "Climbing Gym", "pluralName": "Climbing Gyms", "shortName": "Climbing Gym", "icon": {"prefix": "https://ss3.4sqi.net/img/categories_v2/building/gym_", "suffix": ".png"}, "primary": true}], "photos": {"count": 0, "groups": []}}, "referralId": "e-0-57103ba5498e83b7bce1001d-1"}, {"reasons": {"count": 0, "items": [{"summary": "This spot is popular", "type": "general", "reasonName": "globalInteractionReason"}]}, "venue": {"id": "574da288498eda5b31e1da24", "name": "Equinox Dumbo", "location": {"address": "117 Front Street", "lat": 40.702597, "lng": -73.988892, "labeledLatLngs": [{"label": "display", "lat": 40.702597, "lng": -73.988892}], "distance": 65, "postalCode": "11201", "cc": "US", "city": "Brooklyn", "state": "NY", "country": "United States", "formattedAddress": ["117 Front Street", "Brooklyn, NY 11201", "United States"]}, "categories": [{"id": "4bf58dd8d48988d176941735", "name": "Gym", "pluralName": "Gyms", "shortName": "Gym", "icon": {"prefix": "https://ss3.4sqi.net/img/categories_v2/building/gym_", "suffix": ".png"}, "primary": true}], "photos": {"count": 0, "groups": []}}, "referralId": "e-0-574da288498eda5b31e1da24-2"}, {"reasons": {"count": 0, "items": [{"summary": "This spot is popular", "type": "general", "reasonName": "globalInteractionReason"}]}, "venue": {"id": "56462ba0498efa95117dbf41", "name": "Caf\u00e9 Usagi", "location": {"address": "163 Plymouth St", "crossStreet": "btwn Jay & Pearl St", "lat": 40.703831, "lng": -73.986934, "labeledLatLngs": [{"label": "display", "lat": 40.703831, "lng": -73.986934}], "distance": 169, "postalCode": "11201", "cc": "US", "city": "Brooklyn", "state": "NY", "country": "United States", "formattedAddress": ["163 Plymouth St (btwn Jay & Pearl St)", "Brooklyn, NY 11201", "United States"]}, "categories": [{"id": "4bf58dd8d48988d1e0931735", "name": "Coffee Shop", "pluralName": "Coffee Shops", "shortName": "Coffee Shop", "icon": {"prefix": "https://ss3.4sqi.net/img/categories_v2/food/coffeeshop_", "suffix": ".png"}, "primary": true}], "photos": {"count": 0, "groups": []}}, "referralId": "e-0-56462ba0498efa95117dbf41-3"}, {"reasons": {"count": 0, "items": [{"summary": "This spot is popular", "type": "general", "reasonName": "globalInteractionReason"}]}, "venue": {"id": "5942d5c94c9be62191b036fa", "name": "sweetgreen", "location": {"address": "50 Washington Street", "lat": 40.70291363275991, "lng": -73.98982986871721, "labeledLatLngs": [{"label": "display", "lat": 40.70291363275991, "lng": -73.98982986871721}], "distance": 95, "postalCode": "11201", "cc": "US", "city": "Brooklyn", "state": "NY", "country": "United States", "formattedAddress": ["50 Washington Street", "Brooklyn, NY 11201", "United States"]}, "categories": [{"id": "4bf58dd8d48988d1bd941735", "name": "Salad Place", "pluralName": "Salad Places", "shortName": "Salad", "icon": {"prefix": "https://ss3.4sqi.net/img/categories_v2/food/salad_", "suffix": ".png"}, "primary": true}], "delivery": {"id": "1034008", "url": "https://www.seamless.com/menu/sweetgreen-50-washington-st-brooklyn/1034008?affiliate=1131&utm_source=foursquare-affiliate-network&utm_medium=affiliate&utm_campaign=1131&utm_content=1034008", "provider": {"name": "seamless", "icon": {"prefix": "https://fastly.4sqi.net/img/general/cap/", "sizes": [40, 50], "name": "/delivery_provider_seamless_20180129.png"}}}, "photos": {"count": 0, "groups": []}}, "referralId": "e-0-5942d5c94c9be62191b036fa-4"}, {"reasons": {"count": 0, "items": [{"summary": "This spot is popular", "type": "general", "reasonName": "globalInteractionReason"}]}, "venue": {"id": "4ab196acf964a520226a20e3", "name": "The Archway Under the Manhattan Bridge", "location": {"address": "50 Adams St", "crossStreet": "at Water St", "lat": 40.70308070304855, "lng": -73.98854001586518, "labeledLatLngs": [{"label": "display", "lat": 40.70308070304855, "lng": -73.98854001586518}], "distance": 20, "postalCode": "11201", "cc": "US", "city": "Brooklyn", "state": "NY", "country": "United States", "formattedAddress": ["50 Adams St (at Water St)", "Brooklyn, NY 11201", "United States"]}, "categories": [{"id": "4bf58dd8d48988d162941735", "name": "Other Great Outdoors", "pluralName": "Other Great Outdoors", "shortName": "Other Outdoors", "icon": {"prefix": "https://ss3.4sqi.net/img/categories_v2/parks_outdoors/outdoors_", "suffix": ".png"}, "primary": true}], "photos": {"count": 0, "groups": []}}, "referralId": "e-0-4ab196acf964a520226a20e3-5"}, {"reasons": {"count": 0, "items": [{"summary": "This spot is popular", "type": "general", "reasonName": "globalInteractionReason"}]}, "venue": {"id": "55c3fc6b498e9bacc42c46d3", "name": "Usagi NY", "location": {"address": "163 Plymouth St", "crossStreet": "btwn Jay & Pearl St", "lat": 40.70387212503782, "lng": -73.98694491630292, "labeledLatLngs": [{"label": "display", "lat": 40.70387212503782, "lng": -73.98694491630292}], "distance": 171, "postalCode": "11201", "cc": "US", "city": "New York", "state": "NY", "country": "United States", "formattedAddress": ["163 Plymouth St (btwn Jay & Pearl St)", "New York, NY 11201", "United States"]}, "categories": [{"id": "4bf58dd8d48988d1e2931735", "name": "Art Gallery", "pluralName": "Art Galleries", "shortName": "Art Gallery", "icon": {"prefix": "https://ss3.4sqi.net/img/categories_v2/arts_entertainment/artgallery_", "suffix": ".png"}, "primary": true}], "photos": {"count": 0, "groups": []}}, "referralId": "e-0-55c3fc6b498e9bacc42c46d3-6"}, {"reasons": {"count": 0, "items": [{"summary": "This spot is popular", "type": "general", "reasonName": "globalInteractionReason"}]}, "venue": {"id": "5299237211d27a78ebd3a708", "name": "Front General Store", "location": {"address": "143 Front St", "lat": 40.70249776369979, "lng": -73.9874905285664, "labeledLatLngs": [{"label": "display", "lat": 40.70249776369979, "lng": -73.9874905285664}], "distance": 130, "postalCode": "11201", "cc": "US", "city": "Brooklyn", "state": "NY", "country": "United States", "formattedAddress": ["143 Front St", "Brooklyn, NY 11201", "United States"]}, "categories": [{"id": "4bf58dd8d48988d106951735", "name": "Men's Store", "pluralName": "Men's Stores", "shortName": "Men's Store", "icon": {"prefix": "https://ss3.4sqi.net/img/categories_v2/shops/apparel_men_", "suffix": ".png"}, "primary": true}], "photos": {"count": 0, "groups": []}}, "referralId": "e-0-5299237211d27a78ebd3a708-7"}, {"reasons": {"count": 0, "items": [{"summary": "This spot is popular", "type": "general", "reasonName": "globalInteractionReason"}]}, "venue": {"id": "583c7fa58cfe547612b47b93", "name": "Westville DUMBO", "location": {"address": "81 Washington St", "crossStreet": "York St", "lat": 40.70202078928088, "lng": -73.98959649143549, "labeledLatLngs": [{"label": "display", "lat": 40.70202078928088, "lng": -73.98959649143549}], "distance": 147, "postalCode": "11201", "cc": "US", "city": "Brooklyn", "state": "NY", "country": "United States", "formattedAddress": ["81 Washington St (York St)", "Brooklyn, NY 11201", "United States"]}, "categories": [{"id": "4bf58dd8d48988d14e941735", "name": "American Restaurant", "pluralName": "American Restaurants", "shortName": "American", "icon": {"prefix": "https://ss3.4sqi.net/img/categories_v2/food/default_", "suffix": ".png"}, "primary": true}], "delivery": {"id": "384308", "url": "https://www.seamless.com/menu/westville-81-washington-st-brooklyn/384308?affiliate=1131&utm_source=foursquare-affiliate-network&utm_medium=affiliate&utm_campaign=1131&utm_content=384308", "provider": {"name": "seamless", "icon": {"prefix": "https://fastly.4sqi.net/img/general/cap/", "sizes": [40, 50], "name": "/delivery_provider_seamless_20180129.png"}}}, "photos": {"count": 0, "groups": []}}, "referralId": "e-0-583c7fa58cfe547612b47b93-8"}, {"reasons": {"count": 0, "items": [{"summary": "This spot is popular", "type": "general", "reasonName": "globalInteractionReason"}]}, "venue": {"id": "46e53e58f964a520b64a1fe3", "name": "Smack Mellon Gallery", "location": {"address": "92 Plymouth St", "crossStreet": "Washington St", "lat": 40.70387830796485, "lng": -73.989679387644, "labeledLatLngs": [{"label": "display", "lat": 40.70387830796485, "lng": -73.989679387644}, {"label": "entrance", "lat": 40.703809, "lng": -73.989851}], "distance": 110, "postalCode": "11201", "cc": "US", "city": "Brooklyn", "state": "NY", "country": "United States", "formattedAddress": ["92 Plymouth St (Washington St)", "Brooklyn, NY 11201", "United States"]}, "categories": [{"id": "4bf58dd8d48988d1e2931735", "name": "Art Gallery", "pluralName": "Art Galleries", "shortName": "Art Gallery", "icon": {"prefix": "https://ss3.4sqi.net/img/categories_v2/arts_entertainment/artgallery_", "suffix": ".png"}, "primary": true}], "photos": {"count": 0, "groups": []}}, "referralId": "e-0-46e53e58f964a520b64a1fe3-9"}, {"reasons": {"count": 0, "items": [{"summary": "This spot is popular", "type": "general", "reasonName": "globalInteractionReason"}]}, "venue": {"id": "4c0d13e72466a59382fc7621", "name": "Main Street Playground", "location": {"address": "Washington", "crossStreet": "Main", "lat": 40.70413281558408, "lng": -73.99014180102861, "labeledLatLngs": [{"label": "display", "lat": 40.70413281558408, "lng": -73.99014180102861}], "distance": 158, "postalCode": "11201", "cc": "US", "city": "Brooklyn", "state": "NY", "country": "United States", "formattedAddress": ["Washington (Main)", "Brooklyn, NY 11201", "United States"]}, "categories": [{"id": "4bf58dd8d48988d1e7941735", "name": "Playground", "pluralName": "Playgrounds", "shortName": "Playground", "icon": {"prefix": "https://ss3.4sqi.net/img/categories_v2/parks_outdoors/playground_", "suffix": ".png"}, "primary": true}], "photos": {"count": 0, "groups": []}}, "referralId": "e-0-4c0d13e72466a59382fc7621-10"}, {"reasons": {"count": 0, "items": [{"summary": "This spot is popular", "type": "general", "reasonName": "globalInteractionReason"}]}, "venue": {"id": "4d93502452ed224b932f1aac", "name": "Dumbo Waterfront (10 Jay Street)", "location": {"address": "10 Jay St", "lat": 40.704339927516486, "lng": -73.98664919392826, "labeledLatLngs": [{"label": "display", "lat": 40.704339927516486, "lng": -73.98664919392826}], "distance": 219, "postalCode": "11201", "cc": "US", "city": "Brooklyn", "state": "NY", "country": "United States", "formattedAddress": ["10 Jay St", "Brooklyn, NY 11201", "United States"]}, "categories": [{"id": "4bf58dd8d48988d165941735", "name": "Scenic Lookout", "pluralName": "Scenic Lookouts", "shortName": "Scenic Lookout", "icon": {"prefix": "https://ss3.4sqi.net/img/categories_v2/parks_outdoors/sceniclookout_", "suffix": ".png"}, "primary": true}], "photos": {"count": 0, "groups": []}}, "referralId": "e-0-4d93502452ed224b932f1aac-11"}, {"reasons": {"count": 0, "items": [{"summary": "This spot is popular", "type": "general", "reasonName": "globalInteractionReason"}]}, "venue": {"id": "52b204c0498efe3c3be32d91", "name": "Burrow", "location": {"address": "68 Jay St", "crossStreet": "at Front St", "lat": 40.70257934186069, "lng": -73.98670150974452, "labeledLatLngs": [{"label": "display", "lat": 40.70257934186069, "lng": -73.98670150974452}], "distance": 185, "postalCode": "11201", "cc": "US", "city": "Brooklyn", "state": "NY", "country": "United States", "formattedAddress": ["68 Jay St (at Front St)", "Brooklyn, NY 11201", "United States"]}, "categories": [{"id": "4bf58dd8d48988d16a941735", "name": "Bakery", "pluralName": "Bakeries", "shortName": "Bakery", "icon": {"prefix": "https://ss3.4sqi.net/img/categories_v2/food/bakery_", "suffix": ".png"}, "primary": true}], "photos": {"count": 0, "groups": []}}, "referralId": "e-0-52b204c0498efe3c3be32d91-12"}, {"reasons": {"count": 0, "items": [{"summary": "This spot is popular", "type": "general", "reasonName": "globalInteractionReason"}]}, "venue": {"id": "4e2313d4c65b2b5e355768b3", "name": "CrossFit Dumbo", "location": {"address": "48 Pearl St", "lat": 40.70355587265485, "lng": -73.98779136884086, "labeledLatLngs": [{"label": "display", "lat": 40.70355587265485, "lng": -73.98779136884086}, {"label": "entrance", "lat": 40.703648, "lng": -73.987651}], "distance": 91, "postalCode": "11201", "cc": "US", "city": "Brooklyn", "state": "NY", "country": "United States", "formattedAddress": ["48 Pearl St", "Brooklyn, NY 11201", "United States"]}, "categories": [{"id": "4bf58dd8d48988d176941735", "name": "Gym", "pluralName": "Gyms", "shortName": "Gym", "icon": {"prefix": "https://ss3.4sqi.net/img/categories_v2/building/gym_", "suffix": ".png"}, "primary": true}], "photos": {"count": 0, "groups": []}, "venuePage": {"id": "35334799"}}, "referralId": "e-0-4e2313d4c65b2b5e355768b3-13"}, {"reasons": {"count": 0, "items": [{"summary": "This spot is popular", "type": "general", "reasonName": "globalInteractionReason"}]}, "venue": {"id": "55e0ad19498e672d0018fc37", "name": "Shibui", "location": {"address": "38 Washington St", "crossStreet": "Water Street", "lat": 40.70321964578638, "lng": -73.9896113500373, "labeledLatLngs": [{"label": "display", "lat": 40.70321964578638, "lng": -73.9896113500373}], "distance": 72, "postalCode": "11201", "cc": "US", "neighborhood": "DUMBO", "city": "Brooklyn", "state": "NY", "country": "United States", "formattedAddress": ["38 Washington St (Water Street)", "Brooklyn, NY 11201", "United States"]}, "categories": [{"id": "4bf58dd8d48988d116951735", "name": "Antique Shop", "pluralName": "Antique Shops", "shortName": "Antiques", "icon": {"prefix": "https://ss3.4sqi.net/img/categories_v2/shops/antique_", "suffix": ".png"}, "primary": true}], "photos": {"count": 0, "groups": []}}, "referralId": "e-0-55e0ad19498e672d0018fc37-14"}, {"reasons": {"count": 0, "items": [{"summary": "This spot is popular", "type": "general", "reasonName": "globalInteractionReason"}]}, "venue": {"id": "51b0ceff2d4e2ee801fd4ab2", "name": "Foragers", "location": {"address": "56 Adams St", "crossStreet": "at Front St", "lat": 40.70246764263006, "lng": -73.98856904740286, "labeledLatLngs": [{"label": "display", "lat": 40.70246764263006, "lng": -73.98856904740286}, {"label": "entrance", "lat": 40.702696, "lng": -73.988667}], "distance": 80, "postalCode": "11201", "cc": "US", "city": "Brooklyn", "state": "NY", "country": "United States", "formattedAddress": ["56 Adams St (at Front St)", "Brooklyn, NY 11201", "United States"]}, "categories": [{"id": "4bf58dd8d48988d146941735", "name": "Deli / Bodega", "pluralName": "Delis / Bodegas", "shortName": "Deli / Bodega", "icon": {"prefix": "https://ss3.4sqi.net/img/categories_v2/food/deli_", "suffix": ".png"}, "primary": true}], "delivery": {"id": "1237976", "url": "https://www.seamless.com/menu/foragers-market-56-adams-st-brooklyn/1237976?affiliate=1131&utm_source=foursquare-affiliate-network&utm_medium=affiliate&utm_campaign=1131&utm_content=1237976", "provider": {"name": "seamless", "icon": {"prefix": "https://fastly.4sqi.net/img/general/cap/", "sizes": [40, 50], "name": "/delivery_provider_seamless_20180129.png"}}}, "photos": {"count": 0, "groups": []}}, "referralId": "e-0-51b0ceff2d4e2ee801fd4ab2-15"}, {"reasons": {"count": 0, "items": [{"summary": "This spot is popular", "type": "general", "reasonName": "globalInteractionReason"}]}, "venue": {"id": "4dcc5861887714552bd47b34", "name": "Brooklyn Roasting Company", "location": {"address": "25 Jay St", "crossStreet": "btwn Plymouth & John St", "lat": 40.704217608082864, "lng": -73.98659720400087, "labeledLatLngs": [{"label": "display", "lat": 40.704217608082864, "lng": -73.98659720400087}, {"label": "entrance", "lat": 40.704207, "lng": -73.986472}], "distance": 215, "postalCode": "11201", "cc": "US", "city": "Brooklyn", "state": "NY", "country": "United States", "formattedAddress": ["25 Jay St (btwn Plymouth & John St)", "Brooklyn, NY 11201", "United States"]}, "categories": [{"id": "4bf58dd8d48988d1e0931735", "name": "Coffee Shop", "pluralName": "Coffee Shops", "shortName": "Coffee Shop", "icon": {"prefix": "https://ss3.4sqi.net/img/categories_v2/food/coffeeshop_", "suffix": ".png"}, "primary": true}], "photos": {"count": 0, "groups": []}, "venuePage": {"id": "48722666"}}, "referralId": "e-0-4dcc5861887714552bd47b34-16"}, {"reasons": {"count": 0, "items": [{"summary": "This spot is popular", "type": "general", "reasonName": "globalInteractionReason"}]}, "venue": {"id": "45c5a7c9f964a52050421fe3", "name": "Powerhouse Arena", "location": {"address": "28 Adams St", "crossStreet": "Waer St", "lat": 40.703055237220774, "lng": -73.99065016685256, "labeledLatLngs": [{"label": "display", "lat": 40.703055237220774, "lng": -73.99065016685256}, {"label": "entrance", "lat": 40.702971, "lng": -73.988741}], "distance": 160, "postalCode": "11201", "cc": "US", "city": "Brooklyn", "state": "NY", "country": "United States", "formattedAddress": ["28 Adams St (Waer St)", "Brooklyn, NY 11201", "United States"]}, "categories": [{"id": "4bf58dd8d48988d114951735", "name": "Bookstore", "pluralName": "Bookstores", "shortName": "Bookstore", "icon": {"prefix": "https://ss3.4sqi.net/img/categories_v2/shops/bookstore_", "suffix": ".png"}, "primary": true}], "photos": {"count": 0, "groups": []}, "venuePage": {"id": "90488686"}}, "referralId": "e-0-45c5a7c9f964a52050421fe3-17"}, {"reasons": {"count": 0, "items": [{"summary": "This spot is popular", "type": "general", "reasonName": "globalInteractionReason"}]}, "venue": {"id": "4bb8f29998c7ef3bdb9b3102", "name": "Abhaya Yoga Dumbo", "location": {"address": "32 Pearl Street", "crossStreet": "Jay Street", "lat": 40.7040038, "lng": -73.9876783, "labeledLatLngs": [{"label": "display", "lat": 40.7040038, "lng": -73.9876783}], "distance": 129, "postalCode": "11201", "cc": "US", "city": "Brooklyn", "state": "NY", "country": "United States", "formattedAddress": ["32 Pearl Street (Jay Street)", "Brooklyn, NY 11201", "United States"]}, "categories": [{"id": "4bf58dd8d48988d102941735", "name": "Yoga Studio", "pluralName": "Yoga Studios", "shortName": "Yoga Studio", "icon": {"prefix": "https://ss3.4sqi.net/img/categories_v2/shops/gym_yogastudio_", "suffix": ".png"}, "primary": true}], "photos": {"count": 0, "groups": []}, "venuePage": {"id": "67543995"}}, "referralId": "e-0-4bb8f29998c7ef3bdb9b3102-18"}, {"reasons": {"count": 0, "items": [{"summary": "This spot is popular", "type": "general", "reasonName": "globalInteractionReason"}]}, "venue": {"id": "4a7e2902f964a5203ef11fe3", "name": "Gleason's Gym", "location": {"lat": 40.703169, "lng": -73.9891221, "labeledLatLngs": [{"label": "display", "lat": 40.703169, "lng": -73.9891221}], "distance": 31, "postalCode": "11201", "isFuzzed": true, "isServiceAreaBusiness": true, "cc": "US", "city": "Brooklyn", "state": "NY", "country": "United States", "formattedAddress": ["Brooklyn, NY 11201", "United States"]}, "categories": [{"id": "52f2ab2ebcbc57f1066b8b47", "name": "Boxing Gym", "pluralName": "Boxing Gyms", "shortName": "Boxing Gym", "icon": {"prefix": "https://ss3.4sqi.net/img/categories_v2/building/gym_", "suffix": ".png"}, "primary": true}], "photos": {"count": 0, "groups": []}, "venuePage": {"id": "225533087"}}, "referralId": "e-0-4a7e2902f964a5203ef11fe3-19"}, {"reasons": {"count": 0, "items": [{"summary": "This spot is popular", "type": "general", "reasonName": "globalInteractionReason"}]}, "venue": {"id": "550c4a17498e1d6612e9dffc", "name": "Bread & Spread", "location": {"address": "147 Front St", "lat": 40.702541, "lng": -73.987082, "labeledLatLngs": [{"label": "display", "lat": 40.702541, "lng": -73.987082}], "distance": 157, "postalCode": "11201", "cc": "US", "city": "Brooklyn", "state": "NY", "country": "United States", "formattedAddress": ["147 Front St", "Brooklyn, NY 11201", "United States"]}, "categories": [{"id": "4bf58dd8d48988d1c5941735", "name": "Sandwich Place", "pluralName": "Sandwich Places", "shortName": "Sandwiches", "icon": {"prefix": "https://ss3.4sqi.net/img/categories_v2/food/deli_", "suffix": ".png"}, "primary": true}], "delivery": {"id": "1940206", "url": "https://www.seamless.com/menu/bread--spread-151-front-st-kings/1940206?affiliate=1131&utm_source=foursquare-affiliate-network&utm_medium=affiliate&utm_campaign=1131&utm_content=1940206", "provider": {"name": "seamless", "icon": {"prefix": "https://fastly.4sqi.net/img/general/cap/", "sizes": [40, 50], "name": "/delivery_provider_seamless_20180129.png"}}}, "photos": {"count": 0, "groups": []}}, "referralId": "e-0-550c4a17498e1d6612e9dffc-20"}, {"reasons": {"count": 0, "items": [{"summary": "This spot is popular", "type": "general", "reasonName": "globalInteractionReason"}]}, "venue": {"id": "55e521e0498e758dd080d21b", "name": "Brooklyn Bridge Park - Main Street Section", "location": {"lat": 40.704504, "lng": -73.989946, "labeledLatLngs": [{"label": "display", "lat": 40.704504, "lng": -73.989946}], "distance": 178, "postalCode": "11201", "cc": "US", "city": "Brooklyn", "state": "NY", "country": "United States", "formattedAddress": ["Brooklyn, NY 11201", "United States"]}, "categories": [{"id": "4bf58dd8d48988d163941735", "name": "Park", "pluralName": "Parks", "shortName": "Park", "icon": {"prefix": "https://ss3.4sqi.net/img/categories_v2/parks_outdoors/park_", "suffix": ".png"}, "primary": true}], "photos": {"count": 0, "groups": []}}, "referralId": "e-0-55e521e0498e758dd080d21b-21"}, {"reasons": {"count": 0, "items": [{"summary": "This spot is popular", "type": "general", "reasonName": "globalInteractionReason"}]}, "venue": {"id": "57db1eab498e0847385285cc", "name": "Yoga Vida", "location": {"address": "55 Prospect", "lat": 40.700878801585034, "lng": -73.98797866187923, "labeledLatLngs": [{"label": "display", "lat": 40.700878801585034, "lng": -73.98797866187923}], "distance": 263, "postalCode": "11201", "cc": "US", "city": "Brooklyn", "state": "NY", "country": "United States", "formattedAddress": ["55 Prospect", "Brooklyn, NY 11201", "United States"]}, "categories": [{"id": "4bf58dd8d48988d102941735", "name": "Yoga Studio", "pluralName": "Yoga Studios", "shortName": "Yoga Studio", "icon": {"prefix": "https://ss3.4sqi.net/img/categories_v2/shops/gym_yogastudio_", "suffix": ".png"}, "primary": true}], "photos": {"count": 0, "groups": []}}, "referralId": "e-0-57db1eab498e0847385285cc-22"}, {"reasons": {"count": 0, "items": [{"summary": "This spot is popular", "type": "general", "reasonName": "globalInteractionReason"}]}, "venue": {"id": "51dd7c69498ee00b70fa54b8", "name": "Atrium DUMBO", "location": {"address": "15 Main St", "crossStreet": "btwn Water St & Plymouth St", "lat": 40.70341, "lng": -73.990464, "labeledLatLngs": [{"label": "display", "lat": 40.70341, "lng": -73.990464}, {"label": "entrance", "lat": 40.70375, "lng": -73.990467}], "distance": 146, "postalCode": "11201", "cc": "US", "city": "Brooklyn", "state": "NY", "country": "United States", "formattedAddress": ["15 Main St (btwn Water St & Plymouth St)", "Brooklyn, NY 11201", "United States"]}, "categories": [{"id": "4bf58dd8d48988d14e941735", "name": "American Restaurant", "pluralName": "American Restaurants", "shortName": "American", "icon": {"prefix": "https://ss3.4sqi.net/img/categories_v2/food/default_", "suffix": ".png"}, "primary": true}], "delivery": {"id": "2027294", "url": "https://www.seamless.com/menu/atrium-dumbo-15-main-st-brooklyn/2027294?affiliate=1131&utm_source=foursquare-affiliate-network&utm_medium=affiliate&utm_campaign=1131&utm_content=2027294", "provider": {"name": "seamless", "icon": {"prefix": "https://fastly.4sqi.net/img/general/cap/", "sizes": [40, 50], "name": "/delivery_provider_seamless_20180129.png"}}}, "photos": {"count": 0, "groups": []}, "venuePage": {"id": "73664264"}}, "referralId": "e-0-51dd7c69498ee00b70fa54b8-23"}, {"reasons": {"count": 0, "items": [{"summary": "This spot is popular", "type": "general", "reasonName": "globalInteractionReason"}]}, "venue": {"id": "4a74b3b3f964a52045df1fe3", "name": "Blanc & Rouge", "location": {"address": "81 Washington St", "crossStreet": "btw Front & York", "lat": 40.70196999073287, "lng": -73.98966426730664, "labeledLatLngs": [{"label": "display", "lat": 40.70196999073287, "lng": -73.98966426730664}, {"label": "entrance", "lat": 40.701693, "lng": -73.989469}], "distance": 154, "postalCode": "11201", "cc": "US", "city": "Brooklyn", "state": "NY", "country": "United States", "formattedAddress": ["81 Washington St (btw Front & York)", "Brooklyn, NY 11201", "United States"]}, "categories": [{"id": "4bf58dd8d48988d119951735", "name": "Wine Shop", "pluralName": "Wine Shops", "shortName": "Wine Shop", "icon": {"prefix": "https://ss3.4sqi.net/img/categories_v2/shops/food_wineshop_", "suffix": ".png"}, "primary": true}], "photos": {"count": 0, "groups": []}}, "referralId": "e-0-4a74b3b3f964a52045df1fe3-24"}, {"reasons": {"count": 0, "items": [{"summary": "This spot is popular", "type": "general", "reasonName": "globalInteractionReason"}]}, "venue": {"id": "43504680f964a520b2281fe3", "name": "Jacques Torres Chocolate", "location": {"address": "66 Water St", "crossStreet": "btw Dock St & Main St", "lat": 40.70328600237019, "lng": -73.99147648172566, "labeledLatLngs": [{"label": "display", "lat": 40.70328600237019, "lng": -73.99147648172566}, {"label": "entrance", "lat": 40.703203, "lng": -73.991419}], "distance": 230, "postalCode": "11201", "cc": "US", "city": "Brooklyn", "state": "NY", "country": "United States", "formattedAddress": ["66 Water St (btw Dock St & Main St)", "Brooklyn, NY 11201", "United States"]}, "categories": [{"id": "4bf58dd8d48988d117951735", "name": "Candy Store", "pluralName": "Candy Stores", "shortName": "Candy Store", "icon": {"prefix": "https://ss3.4sqi.net/img/categories_v2/shops/candystore_", "suffix": ".png"}, "primary": true}], "photos": {"count": 0, "groups": []}}, "referralId": "e-0-43504680f964a520b2281fe3-25"}, {"reasons": {"count": 0, "items": [{"summary": "This spot is popular", "type": "general", "reasonName": "globalInteractionReason"}]}, "venue": {"id": "4aa2bf6ff964a5202d4220e3", "name": "West Elm", "location": {"address": "2 Main St", "crossStreet": "at Plymouth St", "lat": 40.70364503567157, "lng": -73.99091400495762, "labeledLatLngs": [{"label": "display", "lat": 40.70364503567157, "lng": -73.99091400495762}], "distance": 189, "postalCode": "11201", "cc": "US", "city": "Brooklyn", "state": "NY", "country": "United States", "formattedAddress": ["2 Main St (at Plymouth St)", "Brooklyn, NY 11201", "United States"]}, "categories": [{"id": "4bf58dd8d48988d1f8941735", "name": "Furniture / Home Store", "pluralName": "Furniture / Home Stores", "shortName": "Furniture / Home", "icon": {"prefix": "https://ss3.4sqi.net/img/categories_v2/shops/furniture_", "suffix": ".png"}, "primary": true}], "photos": {"count": 0, "groups": []}}, "referralId": "e-0-4aa2bf6ff964a5202d4220e3-26"}, {"reasons": {"count": 0, "items": [{"summary": "This spot is popular", "type": "general", "reasonName": "globalInteractionReason"}]}, "venue": {"id": "585b20dd03e29a1f50aa9a70", "name": "Shadowbox BK", "location": {"address": "55 Prospect St", "crossStreet": "at Pearl St", "lat": 40.70071451586645, "lng": -73.98806776357429, "labeledLatLngs": [{"label": "display", "lat": 40.70071451586645, "lng": -73.98806776357429}], "distance": 280, "postalCode": "11201", "cc": "US", "city": "Brooklyn", "state": "NY", "country": "United States", "formattedAddress": ["55 Prospect St (at Pearl St)", "Brooklyn, NY 11201", "United States"]}, "categories": [{"id": "52f2ab2ebcbc57f1066b8b47", "name": "Boxing Gym", "pluralName": "Boxing Gyms", "shortName": "Boxing Gym", "icon": {"prefix": "https://ss3.4sqi.net/img/categories_v2/building/gym_", "suffix": ".png"}, "primary": true}], "photos": {"count": 0, "groups": []}}, "referralId": "e-0-585b20dd03e29a1f50aa9a70-27"}, {"reasons": {"count": 0, "items": [{"summary": "This spot is popular", "type": "general", "reasonName": "globalInteractionReason"}]}, "venue": {"id": "55e0aa90498e74dd8b899060", "name": "Brooklyn Bridge Park - John Street Section", "location": {"lat": 40.704823, "lng": -73.986703, "labeledLatLngs": [{"label": "display", "lat": 40.704823, "lng": -73.986703}], "distance": 252, "cc": "US", "city": "Brooklyn", "state": "NY", "country": "United States", "formattedAddress": ["Brooklyn, NY", "United States"]}, "categories": [{"id": "4bf58dd8d48988d163941735", "name": "Park", "pluralName": "Parks", "shortName": "Park", "icon": {"prefix": "https://ss3.4sqi.net/img/categories_v2/parks_outdoors/park_", "suffix": ".png"}, "primary": true}], "photos": {"count": 0, "groups": []}}, "referralId": "e-0-55e0aa90498e74dd8b899060-28"}, {"reasons": {"count": 0, "items": [{"summary": "This spot is popular", "type": "general", "reasonName": "globalInteractionReason"}]}, "venue": {"id": "43504680f964a520b0281fe3", "name": "Almondine Bakery", "location": {"address": "85 Water St", "crossStreet": "btwn Dock & Main St", "lat": 40.70332768198457, "lng": -73.99125319992555, "labeledLatLngs": [{"label": "display", "lat": 40.70332768198457, "lng": -73.99125319992555}, {"label": "entrance", "lat": 40.703336, "lng": -73.99121}], "distance": 211, "postalCode": "11201", "cc": "US", "city": "Brooklyn", "state": "NY", "country": "United States", "formattedAddress": ["85 Water St (btwn Dock & Main St)", "Brooklyn, NY 11201", "United States"]}, "categories": [{"id": "4bf58dd8d48988d16a941735", "name": "Bakery", "pluralName": "Bakeries", "shortName": "Bakery", "icon": {"prefix": "https://ss3.4sqi.net/img/categories_v2/food/bakery_", "suffix": ".png"}, "primary": true}], "photos": {"count": 0, "groups": []}}, "referralId": "e-0-43504680f964a520b0281fe3-29"}, {"reasons": {"count": 0, "items": [{"summary": "This spot is popular", "type": "general", "reasonName": "globalInteractionReason"}]}, "venue": {"id": "5b2932a0f5e9d70039787cf2", "name": "Los Tacos Al Pastor", "location": {"address": "141 Front St", "lat": 40.70243624175102, "lng": -73.98753900608666, "labeledLatLngs": [{"label": "display", "lat": 40.70243624175102, "lng": -73.98753900608666}], "distance": 131, "postalCode": "11201", "cc": "US", "neighborhood": "DUMBO", "city": "New York", "state": "NY", "country": "United States", "formattedAddress": ["141 Front St", "New York, NY 11201", "United States"]}, "categories": [{"id": "4bf58dd8d48988d151941735", "name": "Taco Place", "pluralName": "Taco Places", "shortName": "Tacos", "icon": {"prefix": "https://ss3.4sqi.net/img/categories_v2/food/taco_", "suffix": ".png"}, "primary": true}], "delivery": {"id": "857049", "url": "https://www.seamless.com/menu/los-tacos-al-pastor-141a-front-st-brooklyn/857049?affiliate=1131&utm_source=foursquare-affiliate-network&utm_medium=affiliate&utm_campaign=1131&utm_content=857049", "provider": {"name": "seamless", "icon": {"prefix": "https://fastly.4sqi.net/img/general/cap/", "sizes": [40, 50], "name": "/delivery_provider_seamless_20180129.png"}}}, "photos": {"count": 0, "groups": []}}, "referralId": "e-0-5b2932a0f5e9d70039787cf2-30"}, {"reasons": {"count": 0, "items": [{"summary": "This spot is popular", "type": "general", "reasonName": "globalInteractionReason"}]}, "venue": {"id": "5b7c4cb3c58ed7002c1fd9bd", "name": "Butler Bakeshop", "location": {"address": "40 Water St", "crossStreet": "at Dock St", "lat": 40.70329471282939, "lng": -73.99252603454308, "labeledLatLngs": [{"label": "display", "lat": 40.70329471282939, "lng": -73.99252603454308}], "distance": 318, "postalCode": "11201", "cc": "US", "neighborhood": "Dumbo", "city": "New York", "state": "NY", "country": "United States", "formattedAddress": ["40 Water St (at Dock St)", "New York, NY 11201", "United States"]}, "categories": [{"id": "4bf58dd8d48988d16d941735", "name": "Caf\u00e9", "pluralName": "Caf\u00e9s", "shortName": "Caf\u00e9", "icon": {"prefix": "https://ss3.4sqi.net/img/categories_v2/food/cafe_", "suffix": ".png"}, "primary": true}], "delivery": {"id": "1097896", "url": "https://www.seamless.com/menu/butler-40-water-st-brooklyn/1097896?affiliate=1131&utm_source=foursquare-affiliate-network&utm_medium=affiliate&utm_campaign=1131&utm_content=1097896", "provider": {"name": "seamless", "icon": {"prefix": "https://fastly.4sqi.net/img/general/cap/", "sizes": [40, 50], "name": "/delivery_provider_seamless_20180129.png"}}}, "photos": {"count": 0, "groups": []}}, "referralId": "e-0-5b7c4cb3c58ed7002c1fd9bd-31"}, {"reasons": {"count": 0, "items": [{"summary": "This spot is popular", "type": "general", "reasonName": "globalInteractionReason"}]}, "venue": {"id": "4a622b7cf964a52045c31fe3", "name": "Jane's Carousel", "location": {"address": "45 Main St", "crossStreet": "at Old Dock St", "lat": 40.704288308277285, "lng": -73.99239853675857, "labeledLatLngs": [{"label": "display", "lat": 40.704288308277285, "lng": -73.99239853675857}], "distance": 331, "postalCode": "11201", "cc": "US", "city": "Brooklyn", "state": "NY", "country": "United States", "formattedAddress": ["45 Main St (at Old Dock St)", "Brooklyn, NY 11201", "United States"]}, "categories": [{"id": "5109983191d435c0d71c2bb1", "name": "Theme Park Ride / Attraction", "pluralName": "Theme Park Rides/Attractions", "shortName": "Theme Park", "icon": {"prefix": "https://ss3.4sqi.net/img/categories_v2/arts_entertainment/themepark_", "suffix": ".png"}, "primary": true}], "photos": {"count": 0, "groups": []}}, "referralId": "e-0-4a622b7cf964a52045c31fe3-32"}, {"reasons": {"count": 0, "items": [{"summary": "This spot is popular", "type": "general", "reasonName": "globalInteractionReason"}]}, "venue": {"id": "59dd280192e7a97276e4d52f", "name": "Celestine", "location": {"address": "1 John St", "crossStreet": "at Adam St", "lat": 40.70453731730521, "lng": -73.98802621918485, "labeledLatLngs": [{"label": "display", "lat": 40.70453731730521, "lng": -73.98802621918485}], "distance": 163, "postalCode": "11201", "cc": "US", "neighborhood": "DUMBO", "city": "Brooklyn", "state": "NY", "country": "United States", "formattedAddress": ["1 John St (at Adam St)", "Brooklyn, NY 11201", "United States"]}, "categories": [{"id": "4bf58dd8d48988d1c0941735", "name": "Mediterranean Restaurant", "pluralName": "Mediterranean Restaurants", "shortName": "Mediterranean", "icon": {"prefix": "https://ss3.4sqi.net/img/categories_v2/food/mediterranean_", "suffix": ".png"}, "primary": true}], "photos": {"count": 0, "groups": []}, "venuePage": {"id": "460729328"}}, "referralId": "e-0-59dd280192e7a97276e4d52f-33"}, {"reasons": {"count": 0, "items": [{"summary": "This spot is popular", "type": "general", "reasonName": "globalInteractionReason"}]}, "venue": {"id": "4a5b37fff964a520edba1fe3", "name": "La Bagel Delight", "location": {"address": "104 Front St", "crossStreet": "at Adams St.", "lat": 40.7024170617999, "lng": -73.98859715198265, "labeledLatLngs": [{"label": "display", "lat": 40.7024170617999, "lng": -73.98859715198265}, {"label": "entrance", "lat": 40.702414, "lng": -73.98873}], "distance": 85, "postalCode": "11201", "cc": "US", "city": "Brooklyn", "state": "NY", "country": "United States", "formattedAddress": ["104 Front St (at Adams St.)", "Brooklyn, NY 11201", "United States"]}, "categories": [{"id": "4bf58dd8d48988d179941735", "name": "Bagel Shop", "pluralName": "Bagel Shops", "shortName": "Bagels", "icon": {"prefix": "https://ss3.4sqi.net/img/categories_v2/food/bagels_", "suffix": ".png"}, "primary": true}], "delivery": {"id": "2120068", "url": "https://www.seamless.com/menu/la-bagel-delight-104-front-st-brooklyn/2120068?affiliate=1131&utm_source=foursquare-affiliate-network&utm_medium=affiliate&utm_campaign=1131&utm_content=2120068", "provider": {"name": "seamless", "icon": {"prefix": "https://fastly.4sqi.net/img/general/cap/", "sizes": [40, 50], "name": "/delivery_provider_seamless_20180129.png"}}}, "photos": {"count": 0, "groups": []}, "venuePage": {"id": "80431648"}}, "referralId": "e-0-4a5b37fff964a520edba1fe3-34"}, {"reasons": {"count": 0, "items": [{"summary": "This spot is popular", "type": "general", "reasonName": "globalInteractionReason"}]}, "venue": {"id": "590de1ce018cbb785fcc206e", "name": "FEED Shop & Cafe", "location": {"address": "55 Water St", "lat": 40.703366704893625, "lng": -73.99166515614657, "labeledLatLngs": [{"label": "display", "lat": 40.703366704893625, "lng": -73.99166515614657}], "distance": 246, "postalCode": "10041", "cc": "US", "neighborhood": "DUMBO", "city": "New York", "state": "NY", "country": "United States", "formattedAddress": ["55 Water St", "New York, NY 10041", "United States"]}, "categories": [{"id": "4bf58dd8d48988d1e0931735", "name": "Coffee Shop", "pluralName": "Coffee Shops", "shortName": "Coffee Shop", "icon": {"prefix": "https://ss3.4sqi.net/img/categories_v2/food/coffeeshop_", "suffix": ".png"}, "primary": true}], "photos": {"count": 0, "groups": []}}, "referralId": "e-0-590de1ce018cbb785fcc206e-35"}, {"reasons": {"count": 0, "items": [{"summary": "This spot is popular", "type": "general", "reasonName": "globalInteractionReason"}]}, "venue": {"id": "593c0d2262420b7feccc3048", "name": "Cecconi's", "location": {"address": "55 Water Street", "lat": 40.703759, "lng": -73.991548, "labeledLatLngs": [{"label": "display", "lat": 40.703759, "lng": -73.991548}], "distance": 244, "postalCode": "11201", "cc": "US", "city": "Brooklyn", "state": "NY", "country": "United States", "formattedAddress": ["55 Water Street", "Brooklyn, NY 11201", "United States"]}, "categories": [{"id": "4bf58dd8d48988d110941735", "name": "Italian Restaurant", "pluralName": "Italian Restaurants", "shortName": "Italian", "icon": {"prefix": "https://ss3.4sqi.net/img/categories_v2/food/italian_", "suffix": ".png"}, "primary": true}], "photos": {"count": 0, "groups": []}, "venuePage": {"id": "549457168"}}, "referralId": "e-0-593c0d2262420b7feccc3048-36"}, {"reasons": {"count": 0, "items": [{"summary": "This spot is popular", "type": "general", "reasonName": "globalInteractionReason"}]}, "venue": {"id": "4c0bef5c7e3fc9289109f682", "name": "Bridge Park", "location": {"address": "York Street", "crossStreet": "Jay Street", "lat": 40.700772233792435, "lng": -73.98649334907532, "labeledLatLngs": [{"label": "display", "lat": 40.700772233792435, "lng": -73.98649334907532}], "distance": 328, "postalCode": "11201", "cc": "US", "city": "Brooklyn", "state": "NY", "country": "United States", "formattedAddress": ["York Street (Jay Street)", "Brooklyn, NY 11201", "United States"]}, "categories": [{"id": "4bf58dd8d48988d163941735", "name": "Park", "pluralName": "Parks", "shortName": "Park", "icon": {"prefix": "https://ss3.4sqi.net/img/categories_v2/parks_outdoors/park_", "suffix": ".png"}, "primary": true}], "photos": {"count": 0, "groups": []}}, "referralId": "e-0-4c0bef5c7e3fc9289109f682-37"}, {"reasons": {"count": 0, "items": [{"summary": "This spot is popular", "type": "general", "reasonName": "globalInteractionReason"}]}, "venue": {"id": "41b8e700f964a5207e1e1fe3", "name": "St. Ann's Warehouse", "location": {"address": "45 Water St", "crossStreet": "at Old Dock St", "lat": 40.7034870524696, "lng": -73.9928763948405, "labeledLatLngs": [{"label": "display", "lat": 40.7034870524696, "lng": -73.9928763948405}], "distance": 349, "postalCode": "11201", "cc": "US", "city": "Brooklyn", "state": "NY", "country": "United States", "formattedAddress": ["45 Water St (at Old Dock St)", "Brooklyn, NY 11201", "United States"]}, "categories": [{"id": "4bf58dd8d48988d137941735", "name": "Theater", "pluralName": "Theaters", "shortName": "Theater", "icon": {"prefix": "https://ss3.4sqi.net/img/categories_v2/arts_entertainment/performingarts_theater_", "suffix": ".png"}, "primary": true}], "photos": {"count": 0, "groups": []}, "venuePage": {"id": "33367395"}}, "referralId": "e-0-41b8e700f964a5207e1e1fe3-38"}, {"reasons": {"count": 0, "items": [{"summary": "This spot is popular", "type": "general", "reasonName": "globalInteractionReason"}]}, "venue": {"id": "57b201c9498ea7bf88f1f670", "name": "Bluestone Lane", "location": {"address": "55 Prospect St", "crossStreet": "btwn Adams & Pearl St", "lat": 40.70088000661762, "lng": -73.98805975913996, "labeledLatLngs": [{"label": "display", "lat": 40.70088000661762, "lng": -73.98805975913996}], "distance": 262, "postalCode": "11201", "cc": "US", "neighborhood": "Downtown Brooklyn", "city": "Brooklyn", "state": "NY", "country": "United States", "formattedAddress": ["55 Prospect St (btwn Adams & Pearl St)", "Brooklyn, NY 11201", "United States"]}, "categories": [{"id": "4bf58dd8d48988d16d941735", "name": "Caf\u00e9", "pluralName": "Caf\u00e9s", "shortName": "Caf\u00e9", "icon": {"prefix": "https://ss3.4sqi.net/img/categories_v2/food/cafe_", "suffix": ".png"}, "primary": true}], "delivery": {"id": "2057978", "url": "https://www.seamless.com/menu/bluestone-lane-caf-55-prospect-st-brooklyn/2057978?affiliate=1131&utm_source=foursquare-affiliate-network&utm_medium=affiliate&utm_campaign=1131&utm_content=2057978", "provider": {"name": "seamless", "icon": {"prefix": "https://fastly.4sqi.net/img/general/cap/", "sizes": [40, 50], "name": "/delivery_provider_seamless_20180129.png"}}}, "photos": {"count": 0, "groups": []}}, "referralId": "e-0-57b201c9498ea7bf88f1f670-39"}, {"reasons": {"count": 0, "items": [{"summary": "This spot is popular", "type": "general", "reasonName": "globalInteractionReason"}]}, "venue": {"id": "5bc77657ab42d90039a9a011", "name": "Oddfellows Ice Cream Co.", "location": {"address": "60 Water St", "lat": 40.70324688838354, "lng": -73.99222851157232, "labeledLatLngs": [{"label": "display", "lat": 40.70324688838354, "lng": -73.99222851157232}], "distance": 293, "postalCode": "11201", "cc": "US", "city": "New York", "state": "NY", "country": "United States", "formattedAddress": ["60 Water St", "New York, NY 11201", "United States"]}, "categories": [{"id": "4bf58dd8d48988d1c9941735", "name": "Ice Cream Shop", "pluralName": "Ice Cream Shops", "shortName": "Ice Cream", "icon": {"prefix": "https://ss3.4sqi.net/img/categories_v2/food/icecream_", "suffix": ".png"}, "primary": true}], "photos": {"count": 0, "groups": []}}, "referralId": "e-0-5bc77657ab42d90039a9a011-40"}, {"reasons": {"count": 0, "items": [{"summary": "This spot is popular", "type": "general", "reasonName": "globalInteractionReason"}]}, "venue": {"id": "597b32a92f97ec35330bb3d8", "name": "Empire Stores Rooftop", "location": {"lat": 40.70380344653333, "lng": -73.99185074005578, "labeledLatLngs": [{"label": "display", "lat": 40.70380344653333, "lng": -73.99185074005578}], "distance": 270, "postalCode": "11201", "cc": "US", "city": "New York", "state": "NY", "country": "United States", "formattedAddress": ["New York, NY 11201", "United States"]}, "categories": [{"id": "4bf58dd8d48988d165941735", "name": "Scenic Lookout", "pluralName": "Scenic Lookouts", "shortName": "Scenic Lookout", "icon": {"prefix": "https://ss3.4sqi.net/img/categories_v2/parks_outdoors/sceniclookout_", "suffix": ".png"}, "primary": true}], "photos": {"count": 0, "groups": []}}, "referralId": "e-0-597b32a92f97ec35330bb3d8-41"}, {"reasons": {"count": 0, "items": [{"summary": "This spot is popular", "type": "general", "reasonName": "globalInteractionReason"}]}, "venue": {"id": "5cf3bf2951950e002cef6053", "name": "Clinton St Baking Company", "location": {"address": "55 Water St", "crossStreet": "Time Out Market", "lat": 40.703782, "lng": -73.9918, "labeledLatLngs": [{"label": "display", "lat": 40.703782, "lng": -73.9918}], "distance": 265, "postalCode": "10041", "cc": "US", "city": "New York", "state": "NY", "country": "United States", "formattedAddress": ["55 Water St (Time Out Market)", "New York, NY 10041", "United States"]}, "categories": [{"id": "4bf58dd8d48988d143941735", "name": "Breakfast Spot", "pluralName": "Breakfast Spots", "shortName": "Breakfast", "icon": {"prefix": "https://ss3.4sqi.net/img/categories_v2/food/breakfast_", "suffix": ".png"}, "primary": true}], "photos": {"count": 0, "groups": []}}, "referralId": "e-0-5cf3bf2951950e002cef6053-42"}, {"reasons": {"count": 0, "items": [{"summary": "This spot is popular", "type": "general", "reasonName": "globalInteractionReason"}]}, "venue": {"id": "4b955a1af964a520f29d34e3", "name": "Empire Fulton Ferry Park", "location": {"address": "Main St", "crossStreet": "at Washington St", "lat": 40.70438354518276, "lng": -73.99294137954712, "labeledLatLngs": [{"label": "display", "lat": 40.70438354518276, "lng": -73.99294137954712}], "distance": 378, "postalCode": "11201", "cc": "US", "city": "Brooklyn", "state": "NY", "country": "United States", "formattedAddress": ["Main St (at Washington St)", "Brooklyn, NY 11201", "United States"]}, "categories": [{"id": "4bf58dd8d48988d163941735", "name": "Park", "pluralName": "Parks", "shortName": "Park", "icon": {"prefix": "https://ss3.4sqi.net/img/categories_v2/parks_outdoors/park_", "suffix": ".png"}, "primary": true}], "photos": {"count": 0, "groups": []}}, "referralId": "e-0-4b955a1af964a520f29d34e3-43"}, {"reasons": {"count": 0, "items": [{"summary": "This spot is popular", "type": "general", "reasonName": "globalInteractionReason"}]}, "venue": {"id": "52a778d0498e14c3a0b1e427", "name": "Washington St & Water St", "location": {"address": "Washington St", "crossStreet": "at Water St", "lat": 40.70320646629555, "lng": -73.98952737592285, "labeledLatLngs": [{"label": "display", "lat": 40.70320646629555, "lng": -73.98952737592285}], "distance": 65, "cc": "US", "city": "Brooklyn", "state": "NY", "country": "United States", "formattedAddress": ["Washington St (at Water St)", "Brooklyn, NY", "United States"]}, "categories": [{"id": "4bf58dd8d48988d165941735", "name": "Scenic Lookout", "pluralName": "Scenic Lookouts", "shortName": "Scenic Lookout", "icon": {"prefix": "https://ss3.4sqi.net/img/categories_v2/parks_outdoors/sceniclookout_", "suffix": ".png"}, "primary": true}], "photos": {"count": 0, "groups": []}}, "referralId": "e-0-52a778d0498e14c3a0b1e427-44"}, {"reasons": {"count": 0, "items": [{"summary": "This spot is popular", "type": "general", "reasonName": "globalInteractionReason"}]}, "venue": {"id": "5c48b71616fa04002c604a92", "name": "Time Out Market", "location": {"address": "55 Water St", "crossStreet": "Old Dock St", "lat": 40.7034205, "lng": -73.9921457, "labeledLatLngs": [{"label": "display", "lat": 40.7034205, "lng": -73.9921457}], "distance": 287, "postalCode": "11201", "cc": "US", "city": "Brooklyn", "state": "NY", "country": "United States", "formattedAddress": ["55 Water St (Old Dock St)", "Brooklyn, NY 11201", "United States"]}, "categories": [{"id": "4bf58dd8d48988d120951735", "name": "Food Court", "pluralName": "Food Courts", "shortName": "Food Court", "icon": {"prefix": "https://ss3.4sqi.net/img/categories_v2/shops/food_foodcourt_", "suffix": ".png"}, "primary": true}], "photos": {"count": 0, "groups": []}}, "referralId": "e-0-5c48b71616fa04002c604a92-45"}, {"reasons": {"count": 0, "items": [{"summary": "This spot is popular", "type": "general", "reasonName": "globalInteractionReason"}]}, "venue": {"id": "4f21bb85e5e872143c0ca04b", "name": "One Girl Cookies", "location": {"address": "33 Main St", "crossStreet": "at Water St", "lat": 40.70331749805021, "lng": -73.99069403085525, "labeledLatLngs": [{"label": "display", "lat": 40.70331749805021, "lng": -73.99069403085525}], "distance": 164, "postalCode": "11201", "cc": "US", "city": "Brooklyn", "state": "NY", "country": "United States", "formattedAddress": ["33 Main St (at Water St)", "Brooklyn, NY 11201", "United States"]}, "categories": [{"id": "4bf58dd8d48988d16a941735", "name": "Bakery", "pluralName": "Bakeries", "shortName": "Bakery", "icon": {"prefix": "https://ss3.4sqi.net/img/categories_v2/food/bakery_", "suffix": ".png"}, "primary": true}], "photos": {"count": 0, "groups": []}}, "referralId": "e-0-4f21bb85e5e872143c0ca04b-46"}, {"reasons": {"count": 0, "items": [{"summary": "This spot is popular", "type": "general", "reasonName": "globalInteractionReason"}]}, "venue": {"id": "4f6b61d8e4b0e15b873dad2f", "name": "Picnic Grove", "location": {"address": "New Dock St.", "crossStreet": "Jane's Carousel", "lat": 40.7043745786957, "lng": -73.99276210416295, "labeledLatLngs": [{"label": "display", "lat": 40.7043745786957, "lng": -73.99276210416295}], "distance": 363, "cc": "US", "city": "Brooklyn", "state": "NY", "country": "United States", "formattedAddress": ["New Dock St. (Jane's Carousel)", "Brooklyn, NY", "United States"]}, "categories": [{"id": "4bf58dd8d48988d163941735", "name": "Park", "pluralName": "Parks", "shortName": "Park", "icon": {"prefix": "https://ss3.4sqi.net/img/categories_v2/parks_outdoors/park_", "suffix": ".png"}, "primary": true}], "photos": {"count": 0, "groups": []}}, "referralId": "e-0-4f6b61d8e4b0e15b873dad2f-47"}, {"reasons": {"count": 0, "items": [{"summary": "This spot is popular", "type": "general", "reasonName": "globalInteractionReason"}]}, "venue": {"id": "4f69f2b76d86f87117bb13ab", "name": "Gran El\u00e9ctrica", "location": {"address": "5 Front St", "crossStreet": "at Old Fulton St", "lat": 40.70257045188692, "lng": -73.99309610288697, "labeledLatLngs": [{"label": "display", "lat": 40.70257045188692, "lng": -73.99309610288697}], "distance": 372, "postalCode": "11201", "cc": "US", "city": "Brooklyn", "state": "NY", "country": "United States", "formattedAddress": ["5 Front St (at Old Fulton St)", "Brooklyn, NY 11201", "United States"]}, "categories": [{"id": "4bf58dd8d48988d1c1941735", "name": "Mexican Restaurant", "pluralName": "Mexican Restaurants", "shortName": "Mexican", "icon": {"prefix": "https://ss3.4sqi.net/img/categories_v2/food/mexican_", "suffix": ".png"}, "primary": true}], "delivery": {"id": "2045344", "url": "https://www.seamless.com/menu/gran-electrica-5-front-st-brooklyn/2045344?affiliate=1131&utm_source=foursquare-affiliate-network&utm_medium=affiliate&utm_campaign=1131&utm_content=2045344", "provider": {"name": "seamless", "icon": {"prefix": "https://fastly.4sqi.net/img/general/cap/", "sizes": [40, 50], "name": "/delivery_provider_seamless_20180129.png"}}}, "photos": {"count": 0, "groups": []}, "venuePage": {"id": "83879813"}}, "referralId": "e-0-4f69f2b76d86f87117bb13ab-48"}, {"reasons": {"count": 0, "items": [{"summary": "This spot is popular", "type": "general", "reasonName": "globalInteractionReason"}]}, "venue": {"id": "50ca6337e4b04e1f3135689c", "name": "Juliana's Pizza", "location": {"address": "19 Old Fulton St", "lat": 40.702769, "lng": -73.993616, "labeledLatLngs": [{"label": "display", "lat": 40.702769, "lng": -73.993616}, {"label": "entrance", "lat": 40.702689, "lng": -73.993486}], "distance": 412, "postalCode": "11201", "cc": "US", "city": "Brooklyn", "state": "NY", "country": "United States", "formattedAddress": ["19 Old Fulton St", "Brooklyn, NY 11201", "United States"]}, "categories": [{"id": "4bf58dd8d48988d1ca941735", "name": "Pizza Place", "pluralName": "Pizza Places", "shortName": "Pizza", "icon": {"prefix": "https://ss3.4sqi.net/img/categories_v2/food/pizza_", "suffix": ".png"}, "primary": true}], "photos": {"count": 0, "groups": []}}, "referralId": "e-0-50ca6337e4b04e1f3135689c-49"}, {"reasons": {"count": 0, "items": [{"summary": "This spot is popular", "type": "general", "reasonName": "globalInteractionReason"}]}, "venue": {"id": "58c1d63ebf1a6d6b31daa605", "name": "Brooklyn Roasting Company", "location": {"address": "45 Washington St", "lat": 40.70291605224498, "lng": -73.98945208670187, "labeledLatLngs": [{"label": "display", "lat": 40.70291605224498, "lng": -73.98945208670187}], "distance": 65, "postalCode": "11201", "cc": "US", "city": "Brooklyn", "state": "NY", "country": "United States", "formattedAddress": ["45 Washington St", "Brooklyn, NY 11201", "United States"]}, "categories": [{"id": "4bf58dd8d48988d1e0931735", "name": "Coffee Shop", "pluralName": "Coffee Shops", "shortName": "Coffee Shop", "icon": {"prefix": "https://ss3.4sqi.net/img/categories_v2/food/coffeeshop_", "suffix": ".png"}, "primary": true}], "photos": {"count": 0, "groups": []}}, "referralId": "e-0-58c1d63ebf1a6d6b31daa605-50"}, {"reasons": {"count": 0, "items": [{"summary": "This spot is popular", "type": "general", "reasonName": "globalInteractionReason"}]}, "venue": {"id": "538d22cb498e86974754d6da", "name": "Shake Shack", "location": {"address": "1 Old Fulton St", "crossStreet": "Water Street", "lat": 40.703042738298876, "lng": -73.99427633663989, "labeledLatLngs": [{"label": "display", "lat": 40.703042738298876, "lng": -73.99427633663989}], "distance": 466, "postalCode": "11201", "cc": "US", "city": "Brooklyn", "state": "NY", "country": "United States", "formattedAddress": ["1 Old Fulton St (Water Street)", "Brooklyn, NY 11201", "United States"]}, "categories": [{"id": "4bf58dd8d48988d16c941735", "name": "Burger Joint", "pluralName": "Burger Joints", "shortName": "Burgers", "icon": {"prefix": "https://ss3.4sqi.net/img/categories_v2/food/burger_", "suffix": ".png"}, "primary": true}], "delivery": {"id": "1194241", "url": "https://www.seamless.com/menu/shake-shack-1-old-fulton-st-brooklyn/1194241?affiliate=1131&utm_source=foursquare-affiliate-network&utm_medium=affiliate&utm_campaign=1131&utm_content=1194241", "provider": {"name": "seamless", "icon": {"prefix": "https://fastly.4sqi.net/img/general/cap/", "sizes": [40, 50], "name": "/delivery_provider_seamless_20180129.png"}}}, "photos": {"count": 0, "groups": []}}, "referralId": "e-0-538d22cb498e86974754d6da-51"}, {"reasons": {"count": 0, "items": [{"summary": "This spot is popular", "type": "general", "reasonName": "globalInteractionReason"}]}, "venue": {"id": "4c34a57da0ced13a9379186e", "name": "Under The Brooklyn Bridge", "location": {"address": "Brooklyn Bridge", "crossStreet": "FDR Dr", "lat": 40.703391350401766, "lng": -73.99409925252371, "labeledLatLngs": [{"label": "display", "lat": 40.703391350401766, "lng": -73.99409925252371}], "distance": 451, "cc": "US", "neighborhood": "DUMBO", "city": "New York", "state": "NY", "country": "United States", "formattedAddress": ["Brooklyn Bridge (FDR Dr)", "New York, NY", "United States"]}, "categories": [{"id": "4bf58dd8d48988d165941735", "name": "Scenic Lookout", "pluralName": "Scenic Lookouts", "shortName": "Scenic Lookout", "icon": {"prefix": "https://ss3.4sqi.net/img/categories_v2/parks_outdoors/sceniclookout_", "suffix": ".png"}, "primary": true}], "photos": {"count": 0, "groups": []}}, "referralId": "e-0-4c34a57da0ced13a9379186e-52"}, {"reasons": {"count": 0, "items": [{"summary": "This spot is popular", "type": "general", "reasonName": "globalInteractionReason"}]}, "venue": {"id": "51a3ab412fc69e7654bc731f", "name": "Luke's Lobster", "location": {"address": "11 Water St", "crossStreet": "Under the BK Bridge", "lat": 40.703441276954685, "lng": -73.99409104059436, "labeledLatLngs": [{"label": "display", "lat": 40.703441276954685, "lng": -73.99409104059436}, {"label": "entrance", "lat": 40.703438, "lng": -73.99413}], "distance": 451, "postalCode": "11201", "cc": "US", "city": "Brooklyn", "state": "NY", "country": "United States", "formattedAddress": ["11 Water St (Under the BK Bridge)", "Brooklyn, NY 11201", "United States"]}, "categories": [{"id": "4bf58dd8d48988d1ce941735", "name": "Seafood Restaurant", "pluralName": "Seafood Restaurants", "shortName": "Seafood", "icon": {"prefix": "https://ss3.4sqi.net/img/categories_v2/food/seafood_", "suffix": ".png"}, "primary": true}], "delivery": {"id": "658166", "url": "https://www.seamless.com/menu/lukes-lobster-11-water-st-brooklyn/658166?affiliate=1131&utm_source=foursquare-affiliate-network&utm_medium=affiliate&utm_campaign=1131&utm_content=658166", "provider": {"name": "seamless", "icon": {"prefix": "https://fastly.4sqi.net/img/general/cap/", "sizes": [40, 50], "name": "/delivery_provider_seamless_20180129.png"}}}, "photos": {"count": 0, "groups": []}}, "referralId": "e-0-51a3ab412fc69e7654bc731f-53"}, {"reasons": {"count": 0, "items": [{"summary": "This spot is popular", "type": "general", "reasonName": "globalInteractionReason"}]}, "venue": {"id": "5cfef00ae1f0aa002c1d54ce", "name": "Ample Hills Creamery", "location": {"address": "1 Water St", "crossStreet": "Old Fulton St", "lat": 40.70317572971947, "lng": -73.9946848154068, "labeledLatLngs": [{"label": "display", "lat": 40.70317572971947, "lng": -73.9946848154068}], "distance": 500, "postalCode": "11201", "cc": "US", "city": "Brooklyn", "state": "NY", "country": "United States", "formattedAddress": ["1 Water St (Old Fulton St)", "Brooklyn, NY 11201", "United States"]}, "categories": [{"id": "4bf58dd8d48988d1c9941735", "name": "Ice Cream Shop", "pluralName": "Ice Cream Shops", "shortName": "Ice Cream", "icon": {"prefix": "https://ss3.4sqi.net/img/categories_v2/food/icecream_", "suffix": ".png"}, "primary": true}], "photos": {"count": 0, "groups": []}}, "referralId": "e-0-5cfef00ae1f0aa002c1d54ce-54"}, {"reasons": {"count": 0, "items": [{"summary": "This spot is popular", "type": "general", "reasonName": "globalInteractionReason"}]}, "venue": {"id": "4a6c8f18f964a520d0d01fe3", "name": "Hillside Dog Park", "location": {"address": "Columbia Heights", "crossStreet": "at Vine Street", "lat": 40.701331040237875, "lng": -73.99387738397049, "labeledLatLngs": [{"label": "display", "lat": 40.701331040237875, "lng": -73.99387738397049}], "distance": 478, "postalCode": "11201", "cc": "US", "city": "Brooklyn", "state": "NY", "country": "United States", "formattedAddress": ["Columbia Heights (at Vine Street)", "Brooklyn, NY 11201", "United States"]}, "categories": [{"id": "4bf58dd8d48988d1e5941735", "name": "Dog Run", "pluralName": "Dog Runs", "shortName": "Dog Run", "icon": {"prefix": "https://ss3.4sqi.net/img/categories_v2/parks_outdoors/dogrun_", "suffix": ".png"}, "primary": true}], "photos": {"count": 0, "groups": []}}, "referralId": "e-0-4a6c8f18f964a520d0d01fe3-55"}, {"reasons": {"count": 0, "items": [{"summary": "This spot is popular", "type": "general", "reasonName": "globalInteractionReason"}]}, "venue": {"id": "3fd66200f964a520ece81ee3", "name": "Noodle Pudding", "location": {"address": "38 Henry St", "crossStreet": "btw Cranberry & Middagh Sts", "lat": 40.699714724204235, "lng": -73.99176882165305, "labeledLatLngs": [{"label": "display", "lat": 40.699714724204235, "lng": -73.99176882165305}], "distance": 461, "postalCode": "11201", "cc": "US", "city": "New York", "state": "NY", "country": "United States", "formattedAddress": ["38 Henry St (btw Cranberry & Middagh Sts)", "New York, NY 11201", "United States"]}, "categories": [{"id": "4bf58dd8d48988d110941735", "name": "Italian Restaurant", "pluralName": "Italian Restaurants", "shortName": "Italian", "icon": {"prefix": "https://ss3.4sqi.net/img/categories_v2/food/italian_", "suffix": ".png"}, "primary": true}], "photos": {"count": 0, "groups": []}, "venuePage": {"id": "66593925"}}, "referralId": "e-0-3fd66200f964a520ece81ee3-56"}, {"reasons": {"count": 0, "items": [{"summary": "This spot is popular", "type": "general", "reasonName": "globalInteractionReason"}]}, "venue": {"id": "59713095dee77066f35b557d", "name": "Randolph Beer", "location": {"address": "77 Sands St", "crossStreet": "Jay St", "lat": 40.70054204495188, "lng": -73.98776909606464, "labeledLatLngs": [{"label": "display", "lat": 40.70054204495188, "lng": -73.98776909606464}], "distance": 304, "postalCode": "11201", "cc": "US", "city": "New York", "state": "NY", "country": "United States", "formattedAddress": ["77 Sands St (Jay St)", "New York, NY 11201", "United States"]}, "categories": [{"id": "4bf58dd8d48988d116941735", "name": "Bar", "pluralName": "Bars", "shortName": "Bar", "icon": {"prefix": "https://ss3.4sqi.net/img/categories_v2/nightlife/pub_", "suffix": ".png"}, "primary": true}], "photos": {"count": 0, "groups": []}}, "referralId": "e-0-59713095dee77066f35b557d-57"}, {"reasons": {"count": 0, "items": [{"summary": "This spot is popular", "type": "general", "reasonName": "globalInteractionReason"}]}, "venue": {"id": "5995fc8cbcbf7a4289076636", "name": "Starbucks", "location": {"address": "11 Old Fulton St", "crossStreet": "Elizabeth Pl", "lat": 40.702854716485874, "lng": -73.99387438970747, "labeledLatLngs": [{"label": "display", "lat": 40.702854716485874, "lng": -73.99387438970747}, {"label": "entrance", "lat": 40.702847, "lng": -73.993767}], "distance": 433, "postalCode": "11201", "cc": "US", "city": "Brooklyn", "state": "NY", "country": "United States", "formattedAddress": ["11 Old Fulton St (Elizabeth Pl)", "Brooklyn, NY 11201", "United States"]}, "categories": [{"id": "4bf58dd8d48988d1e0931735", "name": "Coffee Shop", "pluralName": "Coffee Shops", "shortName": "Coffee Shop", "icon": {"prefix": "https://ss3.4sqi.net/img/categories_v2/food/coffeeshop_", "suffix": ".png"}, "primary": true}], "photos": {"count": 0, "groups": []}}, "referralId": "e-0-5995fc8cbcbf7a4289076636-58"}, {"reasons": {"count": 0, "items": [{"summary": "This spot is popular", "type": "general", "reasonName": "globalInteractionReason"}]}, "venue": {"id": "3fd66200f964a520e9e81ee3", "name": "Grimaldi's Pizzeria", "location": {"address": "1 Front St", "crossStreet": "at Cadman Plaza W", "lat": 40.70251245984901, "lng": -73.99314782720094, "labeledLatLngs": [{"label": "display", "lat": 40.70251245984901, "lng": -73.99314782720094}, {"label": "entrance", "lat": 40.702569, "lng": -73.993177}], "distance": 378, "postalCode": "11201", "cc": "US", "city": "Brooklyn", "state": "NY", "country": "United States", "formattedAddress": ["1 Front St (at Cadman Plaza W)", "Brooklyn, NY 11201", "United States"]}, "categories": [{"id": "4bf58dd8d48988d1ca941735", "name": "Pizza Place", "pluralName": "Pizza Places", "shortName": "Pizza", "icon": {"prefix": "https://ss3.4sqi.net/img/categories_v2/food/pizza_", "suffix": ".png"}, "primary": true}], "delivery": {"id": "2032016", "url": "https://www.seamless.com/menu/grimaldis-pizzeria-brooklyn-1-front-st-brooklyn/2032016?affiliate=1131&utm_source=foursquare-affiliate-network&utm_medium=affiliate&utm_campaign=1131&utm_content=2032016", "provider": {"name": "seamless", "icon": {"prefix": "https://fastly.4sqi.net/img/general/cap/", "sizes": [40, 50], "name": "/delivery_provider_seamless_20180129.png"}}}, "photos": {"count": 0, "groups": []}}, "referralId": "e-0-3fd66200f964a520e9e81ee3-59"}]