[{"reasons": {"count": 0, "items": [{"summary": "This spot is popular", "type": "general", "reasonName": "globalInteractionReason"}]}, "venue": {"id": "52b1cc13498e28159d0fadb8", "name": "El Paso Mexican Grill", "location": {"address": "387 Flatbush Ave", "crossStreet": "btwn East 16th & East 17th Sts", "lat": 40.636081355334554, "lng": -73.96207928816314, "labeledLatLngs": [{"label": "display", "lat": 40.636081355334554, "lng": -73.96207928816314}], "distance": 311, "postalCode": "11226", "cc": "US", "city": "Brooklyn", "state": "NY", "country": "United States", "formattedAddress": ["387 Flatbush Ave (btwn East 16th & East 17th Sts)", "Brooklyn, NY 11226", "United States"]}, "categories": [{"id": "4bf58dd8d48988d1c1941735", "name": "Mexican Restaurant", "pluralName": "Mexican Restaurants", "shortName": "Mexican", "icon": {"prefix": "https://ss3.4sqi.net/img/categories_v2/food/mexican_", "suffix": ".png"}, "primary": true}], "delivery": {"id": "1339867", "url": "https://www.seamless.com/menu/taqueria-el-paso-1610-newkirk-ave-brooklyn/1339867?affiliate=1131&utm_source=foursquare-affiliate-network&utm_medium=affiliate&utm_campaign=1131&utm_content=1339867", "provider": {"name": "seamless", "icon": {"prefix": "https://fastly.4sqi.net/img/general/cap/", "sizes": [40, 50], "name": "/delivery_provider_seamless_20180129.png"}}}, "photos": {"count": 0, "groups": []}}, "referralId": "e-0-52b1cc13498e28159d0fadb8-0"}, {"reasons": {"count": 0, "items": [{"summary": "This spot is popular", "type": "general", "reasonName": "globalInteractionReason"}]}, "venue": {"id": "5172b2d4498e646485496d05", "name": "Coffee Mob", "location": {"address": "1514 Newkirk Ave", "crossStreet": "at E 16th St", "lat": 40.635841273905065, "lng": -73.96256072887337, "labeledLatLngs": [{"label": "display", "lat": 40.635841273905065, "lng": -73.96256072887337}, {"label": "entrance", "lat": 40.635667, "lng": -73.96279}], "distance": 355, "postalCode": "11226", "cc": "US", "city": "Brooklyn", "state": "NY", "country": "United States", "formattedAddress": ["1514 Newkirk Ave (at E 16th St)", "Brooklyn, NY 11226", "United States"]}, "categories": [{"id": "4bf58dd8d48988d1e0931735", "name": "Coffee Shop", "pluralName": "Coffee Shops", "shortName": "Coffee Shop", "icon": {"prefix": "https://ss3.4sqi.net/img/categories_v2/food/coffeeshop_", "suffix": ".png"}, "primary": true}], "photos": {"count": 0, "groups": []}, "venuePage": {"id": "57618547"}}, "referralId": "e-0-5172b2d4498e646485496d05-1"}, {"reasons": {"count": 0, "items": [{"summary": "This spot is popular", "type": "general", "reasonName": "globalInteractionReason"}]}, "venue": {"id": "516f20fce4b0556e4b41d6eb", "name": "Jamba Juice", "location": {"address": "Brooklyn College", "lat": 40.636371456751796, "lng": -73.9564489438687, "labeledLatLngs": [{"label": "display", "lat": 40.636371456751796, "lng": -73.9564489438687}], "distance": 164, "cc": "US", "city": "Brooklyn", "state": "NY", "country": "United States", "formattedAddress": ["Brooklyn College", "Brooklyn, NY", "United States"]}, "categories": [{"id": "4bf58dd8d48988d112941735", "name": "Juice Bar", "pluralName": "Juice Bars", "shortName": "Juice Bar", "icon": {"prefix": "https://ss3.4sqi.net/img/categories_v2/food/juicebar_", "suffix": ".png"}, "primary": true}], "photos": {"count": 0, "groups": []}}, "referralId": "e-0-516f20fce4b0556e4b41d6eb-2"}, {"reasons": {"count": 0, "items": [{"summary": "This spot is popular", "type": "general", "reasonName": "globalInteractionReason"}]}, "venue": {"id": "4b9543f7f964a520e99834e3", "name": "LoDuca Pizza", "location": {"address": "14 Newkirk Plz", "crossStreet": "Foster Ave.", "lat": 40.63492093049167, "lng": -73.96266286813962, "labeledLatLngs": [{"label": "display", "lat": 40.63492093049167, "lng": -73.96266286813962}, {"label": "entrance", "lat": 40.634968, "lng": -73.962635}], "distance": 392, "postalCode": "11226", "cc": "US", "city": "Brooklyn", "state": "NY", "country": "United States", "formattedAddress": ["14 Newkirk Plz (Foster Ave.)", "Brooklyn, NY 11226", "United States"]}, "categories": [{"id": "4bf58dd8d48988d1ca941735", "name": "Pizza Place", "pluralName": "Pizza Places", "shortName": "Pizza", "icon": {"prefix": "https://ss3.4sqi.net/img/categories_v2/food/pizza_", "suffix": ".png"}, "primary": true}], "photos": {"count": 0, "groups": []}}, "referralId": "e-0-4b9543f7f964a520e99834e3-3"}, {"reasons": {"count": 0, "items": [{"summary": "This spot is popular", "type": "general", "reasonName": "globalInteractionReason"}]}, "venue": {"id": "4d90d33b5091a1cdf601c401", "name": "Gyro King", "location": {"address": "26-46 Newkirk Plaza", "lat": 40.63457481549049, "lng": -73.9627754594031, "labeledLatLngs": [{"label": "display", "lat": 40.63457481549049, "lng": -73.9627754594031}, {"label": "entrance", "lat": 40.634539, "lng": -73.962837}], "distance": 417, "postalCode": "11226", "cc": "US", "city": "Brooklyn", "state": "NY", "country": "United States", "formattedAddress": ["26-46 Newkirk Plaza", "Brooklyn, NY 11226", "United States"]}, "categories": [{"id": "4bf58dd8d48988d115941735", "name": "Middle Eastern Restaurant", "pluralName": "Middle Eastern Restaurants", "shortName": "Middle Eastern", "icon": {"prefix": "https://ss3.4sqi.net/img/categories_v2/food/middleeastern_", "suffix": ".png"}, "primary": true}], "photos": {"count": 0, "groups": []}}, "referralId": "e-0-4d90d33b5091a1cdf601c401-4"}, {"reasons": {"count": 0, "items": [{"summary": "This spot is popular", "type": "general", "reasonName": "globalInteractionReason"}]}, "venue": {"id": "4caf57ae75ebb60cc078bbad", "name": "F1 Lounge", "location": {"address": "1254 Flatbush Ave", "lat": 40.63972658251667, "lng": -73.95481096046801, "labeledLatLngs": [{"label": "display", "lat": 40.63972658251667, "lng": -73.95481096046801}, {"label": "entrance", "lat": 40.63971, "lng": -73.955034}], "distance": 485, "postalCode": "11226", "cc": "US", "city": "Brooklyn", "state": "NY", "country": "United States", "formattedAddress": ["1254 Flatbush Ave", "Brooklyn, NY 11226", "United States"]}, "categories": [{"id": "4bf58dd8d48988d121941735", "name": "Lounge", "pluralName": "Lounges", "shortName": "Lounge", "icon": {"prefix": "https://ss3.4sqi.net/img/categories_v2/nightlife/default_", "suffix": ".png"}, "primary": true}], "photos": {"count": 0, "groups": []}}, "referralId": "e-0-4caf57ae75ebb60cc078bbad-5"}, {"reasons": {"count": 0, "items": [{"summary": "This spot is popular", "type": "general", "reasonName": "globalInteractionReason"}]}, "venue": {"id": "4b92e166f964a520062434e3", "name": "Don Burrito", "location": {"address": "5 Newkirk Plz", "lat": 40.63543097378465, "lng": -73.96282905284257, "labeledLatLngs": [{"label": "display", "lat": 40.63543097378465, "lng": -73.96282905284257}, {"label": "entrance", "lat": 40.635458, "lng": -73.962725}], "distance": 387, "postalCode": "11226", "cc": "US", "city": "Brooklyn", "state": "NY", "country": "United States", "formattedAddress": ["5 Newkirk Plz", "Brooklyn, NY 11226", "United States"]}, "categories": [{"id": "4bf58dd8d48988d1c1941735", "name": "Mexican Restaurant", "pluralName": "Mexican Restaurants", "shortName": "Mexican", "icon": {"prefix": "https://ss3.4sqi.net/img/categories_v2/food/mexican_", "suffix": ".png"}, "primary": true}], "delivery": {"id": "549932", "url": "https://www.seamless.com/menu/don-burrito-5-newkirk-plz-brooklyn/549932?affiliate=1131&utm_source=foursquare-affiliate-network&utm_medium=affiliate&utm_campaign=1131&utm_content=549932", "provider": {"name": "seamless", "icon": {"prefix": "https://fastly.4sqi.net/img/general/cap/", "sizes": [40, 50], "name": "/delivery_provider_seamless_20180129.png"}}}, "photos": {"count": 0, "groups": []}}, "referralId": "e-0-4b92e166f964a520062434e3-6"}, {"reasons": {"count": 0, "items": [{"summary": "This spot is popular", "type": "general", "reasonName": "globalInteractionReason"}]}, "venue": {"id": "4b899adcf964a520894532e3", "name": "Chase Bank", "location": {"address": "1509 Foster Ave", "lat": 40.63437692904673, "lng": -73.9628924926424, "labeledLatLngs": [{"label": "entrance", "lat": 40.634317, "lng": -73.962852}, {"label": "display", "lat": 40.63437692904673, "lng": -73.9628924926424}], "distance": 437, "postalCode": "11230", "cc": "US", "city": "Brooklyn", "state": "NY", "country": "United States", "formattedAddress": ["1509 Foster Ave", "Brooklyn, NY 11230", "United States"]}, "categories": [{"id": "4bf58dd8d48988d10a951735", "name": "Bank", "pluralName": "Banks", "shortName": "Bank", "icon": {"prefix": "https://ss3.4sqi.net/img/categories_v2/shops/financial_", "suffix": ".png"}, "primary": true}], "photos": {"count": 0, "groups": []}}, "referralId": "e-0-4b899adcf964a520894532e3-7"}, {"reasons": {"count": 0, "items": [{"summary": "This spot is popular", "type": "general", "reasonName": "globalInteractionReason"}]}, "venue": {"id": "4bf2cabb82002d7febf7d0bb", "name": "Golden Krust Caribbean Bakery and Grill", "location": {"address": "37 Newkirk Plz", "lat": 40.634923, "lng": -73.963013, "labeledLatLngs": [{"label": "display", "lat": 40.634923, "lng": -73.963013}], "distance": 419, "postalCode": "11226", "cc": "US", "city": "Brooklyn", "state": "NY", "country": "United States", "formattedAddress": ["37 Newkirk Plz", "Brooklyn, NY 11226", "United States"]}, "categories": [{"id": "4bf58dd8d48988d144941735", "name": "Caribbean Restaurant", "pluralName": "Caribbean Restaurants", "shortName": "Caribbean", "icon": {"prefix": "https://ss3.4sqi.net/img/categories_v2/food/caribbean_", "suffix": ".png"}, "primary": true}], "photos": {"count": 0, "groups": []}}, "referralId": "e-0-4bf2cabb82002d7febf7d0bb-8"}, {"reasons": {"count": 0, "items": [{"summary": "This spot is popular", "type": "general", "reasonName": "globalInteractionReason"}]}, "venue": {"id": "5915368c86f4cc184356de2e", "name": "Sunset Bagels", "location": {"address": "1501 Foster Ave", "crossStreet": "Marlborough Rd", "lat": 40.634338492639735, "lng": -73.96298278792874, "labeledLatLngs": [{"label": "display", "lat": 40.634338492639735, "lng": -73.96298278792874}, {"label": "entrance", "lat": 40.634274, "lng": -73.962969}], "distance": 445, "postalCode": "11230", "cc": "US", "city": "Brooklyn", "state": "NY", "country": "United States", "formattedAddress": ["1501 Foster Ave (Marlborough Rd)", "Brooklyn, NY 11230", "United States"]}, "categories": [{"id": "4bf58dd8d48988d179941735", "name": "Bagel Shop", "pluralName": "Bagel Shops", "shortName": "Bagels", "icon": {"prefix": "https://ss3.4sqi.net/img/categories_v2/food/bagels_", "suffix": ".png"}, "primary": true}], "photos": {"count": 0, "groups": []}}, "referralId": "e-0-5915368c86f4cc184356de2e-9"}, {"reasons": {"count": 0, "items": [{"summary": "This spot is popular", "type": "general", "reasonName": "globalInteractionReason"}]}, "venue": {"id": "55845926498e6ad57d30d6f8", "name": "Coffee Z", "location": {"address": "30 Newkirk Plz", "lat": 40.634682472077664, "lng": -73.96278208484142, "labeledLatLngs": [{"label": "display", "lat": 40.634682472077664, "lng": -73.96278208484142}, {"label": "entrance", "lat": 40.634672, "lng": -73.962864}], "distance": 412, "postalCode": "11226", "cc": "US", "city": "Brooklyn", "state": "NY", "country": "United States", "formattedAddress": ["30 Newkirk Plz", "Brooklyn, NY 11226", "United States"]}, "categories": [{"id": "4bf58dd8d48988d1e0931735", "name": "Coffee Shop", "pluralName": "Coffee Shops", "shortName": "Coffee Shop", "icon": {"prefix": "https://ss3.4sqi.net/img/categories_v2/food/coffeeshop_", "suffix": ".png"}, "primary": true}], "photos": {"count": 0, "groups": []}}, "referralId": "e-0-55845926498e6ad57d30d6f8-10"}, {"reasons": {"count": 0, "items": [{"summary": "This spot is popular", "type": "general", "reasonName": "globalInteractionReason"}]}, "venue": {"id": "4bbd184f8ec3d13af9ae1b28", "name": "Fisherman's Cove", "location": {"address": "4 Newkirk Plz", "lat": 40.63546710297942, "lng": -73.96286913080004, "labeledLatLngs": [{"label": "display", "lat": 40.63546710297942, "lng": -73.96286913080004}, {"label": "entrance", "lat": 40.635512, "lng": -73.962744}], "distance": 389, "postalCode": "11226", "cc": "US", "city": "Brooklyn", "state": "NY", "country": "United States", "formattedAddress": ["4 Newkirk Plz", "Brooklyn, NY 11226", "United States"]}, "categories": [{"id": "4bf58dd8d48988d144941735", "name": "Caribbean Restaurant", "pluralName": "Caribbean Restaurants", "shortName": "Caribbean", "icon": {"prefix": "https://ss3.4sqi.net/img/categories_v2/food/caribbean_", "suffix": ".png"}, "primary": true}], "delivery": {"id": "1709730", "url": "https://www.seamless.com/menu/fishermans-cove-4-newkirk-plaza-brooklyn/1709730?affiliate=1131&utm_source=foursquare-affiliate-network&utm_medium=affiliate&utm_campaign=1131&utm_content=1709730", "provider": {"name": "seamless", "icon": {"prefix": "https://fastly.4sqi.net/img/general/cap/", "sizes": [40, 50], "name": "/delivery_provider_seamless_20180129.png"}}}, "photos": {"count": 0, "groups": []}}, "referralId": "e-0-4bbd184f8ec3d13af9ae1b28-11"}, {"reasons": {"count": 0, "items": [{"summary": "This spot is popular", "type": "general", "reasonName": "globalInteractionReason"}]}, "venue": {"id": "4b5a79d8f964a52062c728e3", "name": "Double Dragon Chinese Restaurant", "location": {"address": "41A Newkirk Plz", "lat": 40.635112109261534, "lng": -73.96290739899798, "labeledLatLngs": [{"label": "display", "lat": 40.635112109261534, "lng": -73.96290739899798}], "distance": 403, "postalCode": "11226", "cc": "US", "city": "Brooklyn", "state": "NY", "country": "United States", "formattedAddress": ["41A Newkirk Plz", "Brooklyn, NY 11226", "United States"]}, "categories": [{"id": "4bf58dd8d48988d145941735", "name": "Chinese Restaurant", "pluralName": "Chinese Restaurants", "shortName": "Chinese", "icon": {"prefix": "https://ss3.4sqi.net/img/categories_v2/food/asian_", "suffix": ".png"}, "primary": true}], "photos": {"count": 0, "groups": []}}, "referralId": "e-0-4b5a79d8f964a52062c728e3-12"}, {"reasons": {"count": 0, "items": [{"summary": "This spot is popular", "type": "general", "reasonName": "globalInteractionReason"}]}, "venue": {"id": "4c000158360a9c741be3d8a0", "name": "Subway Sandwiches", "location": {"address": "41B Newkirk Plz", "crossStreet": "btw Newkirk & Foster", "lat": 40.63503761468299, "lng": -73.96290853277442, "labeledLatLngs": [{"label": "display", "lat": 40.63503761468299, "lng": -73.96290853277442}, {"label": "entrance", "lat": 40.63504, "lng": -73.96293}], "distance": 406, "postalCode": "11226", "cc": "US", "city": "Brooklyn", "state": "NY", "country": "United States", "formattedAddress": ["41B Newkirk Plz (btw Newkirk & Foster)", "Brooklyn, NY 11226", "United States"]}, "categories": [{"id": "4bf58dd8d48988d1c5941735", "name": "Sandwich Place", "pluralName": "Sandwich Places", "shortName": "Sandwiches", "icon": {"prefix": "https://ss3.4sqi.net/img/categories_v2/food/deli_", "suffix": ".png"}, "primary": true}], "photos": {"count": 0, "groups": []}}, "referralId": "e-0-4c000158360a9c741be3d8a0-13"}, {"reasons": {"count": 0, "items": [{"summary": "This spot is popular", "type": "general", "reasonName": "globalInteractionReason"}]}, "venue": {"id": "4b9a84bdf964a5201cbd35e3", "name": "Dunkin'", "location": {"address": "10 Newkirk Plz", "lat": 40.635218751844334, "lng": -73.96255314847946, "labeledLatLngs": [{"label": "display", "lat": 40.635218751844334, "lng": -73.96255314847946}, {"label": "entrance", "lat": 40.635186, "lng": -73.962678}], "distance": 371, "postalCode": "11226", "cc": "US", "city": "Brooklyn", "state": "NY", "country": "United States", "formattedAddress": ["10 Newkirk Plz", "Brooklyn, NY 11226", "United States"]}, "categories": [{"id": "4bf58dd8d48988d148941735", "name": "Donut Shop", "pluralName": "Donut Shops", "shortName": "Donuts", "icon": {"prefix": "https://ss3.4sqi.net/img/categories_v2/food/donuts_", "suffix": ".png"}, "primary": true}], "delivery": {"id": "1162380", "url": "https://www.seamless.com/menu/dunkin-10-newkirk-plz-brooklyn/1162380?affiliate=1131&utm_source=foursquare-affiliate-network&utm_medium=affiliate&utm_campaign=1131&utm_content=1162380", "provider": {"name": "seamless", "icon": {"prefix": "https://fastly.4sqi.net/img/general/cap/", "sizes": [40, 50], "name": "/delivery_provider_seamless_20180129.png"}}}, "photos": {"count": 0, "groups": []}}, "referralId": "e-0-4b9a84bdf964a5201cbd35e3-14"}, {"reasons": {"count": 0, "items": [{"summary": "This spot is popular", "type": "general", "reasonName": "globalInteractionReason"}]}, "venue": {"id": "4f0a4ea7e4b033211b9d7660", "name": "Newkirk Plaza", "location": {"address": "Newkirk Ave, Brooklyn, NY", "lat": 40.635130426037044, "lng": -73.96283295091466, "labeledLatLngs": [{"label": "display", "lat": 40.635130426037044, "lng": -73.96283295091466}], "distance": 397, "postalCode": "11230", "cc": "US", "city": "Brooklyn", "state": "NY", "country": "United States", "formattedAddress": ["Newkirk Ave, Brooklyn, NY", "Brooklyn, NY 11230", "United States"]}, "categories": [{"id": "4bf58dd8d48988d164941735", "name": "Plaza", "pluralName": "Plazas", "shortName": "Plaza", "icon": {"prefix": "https://ss3.4sqi.net/img/categories_v2/parks_outdoors/plaza_", "suffix": ".png"}, "primary": true}], "photos": {"count": 0, "groups": []}}, "referralId": "e-0-4f0a4ea7e4b033211b9d7660-15"}, {"reasons": {"count": 0, "items": [{"summary": "This spot is popular", "type": "general", "reasonName": "globalInteractionReason"}]}, "venue": {"id": "4ea8ac868231694b67751b5e", "name": "Newkirk Plaza Gourmet Deli", "location": {"lat": 40.6351259737643, "lng": -73.9628005177241, "labeledLatLngs": [{"label": "display", "lat": 40.6351259737643, "lng": -73.9628005177241}], "distance": 394, "cc": "US", "state": "New York", "country": "United States", "formattedAddress": ["New York", "United States"]}, "categories": [{"id": "4bf58dd8d48988d146941735", "name": "Deli / Bodega", "pluralName": "Delis / Bodegas", "shortName": "Deli / Bodega", "icon": {"prefix": "https://ss3.4sqi.net/img/categories_v2/food/deli_", "suffix": ".png"}, "primary": true}], "photos": {"count": 0, "groups": []}}, "referralId": "e-0-4ea8ac868231694b67751b5e-16"}, {"reasons": {"count": 0, "items": [{"summary": "This spot is popular", "type": "general", "reasonName": "globalInteractionReason"}]}, "venue": {"id": "4e8bdf2bf790db5ec37f4d82", "name": "Newkirk Grocery", "location": {"address": "Newkirk Plaza", "lat": 40.63515967937645, "lng": -73.96140818593642, "labeledLatLngs": [{"label": "display", "lat": 40.63515967937645, "lng": -73.96140818593642}], "distance": 285, "cc": "US", "state": "New York", "country": "United States", "formattedAddress": ["Newkirk Plaza", "New York", "United States"]}, "categories": [{"id": "4bf58dd8d48988d146941735", "name": "Deli / Bodega", "pluralName": "Delis / Bodegas", "shortName": "Deli / Bodega", "icon": {"prefix": "https://ss3.4sqi.net/img/categories_v2/food/deli_", "suffix": ".png"}, "primary": true}], "photos": {"count": 0, "groups": []}}, "referralId": "e-0-4e8bdf2bf790db5ec37f4d82-17"}, {"reasons": {"count": 0, "items": [{"summary": "This spot is popular", "type": "general", "reasonName": "globalInteractionReason"}]}, "venue": {"id": "521be23311d265d3b0253d94", "name": "Crown Fried Chicken& Coffee Shop", "location": {"address": "1604 Newkirk Ave", "crossStreet": "betw. E. 16th & 17th St", "lat": 40.63582, "lng": -73.962243, "labeledLatLngs": [{"label": "display", "lat": 40.63582, "lng": -73.962243}], "distance": 329, "postalCode": "11226", "cc": "US", "city": "Brooklyn", "state": "NY", "country": "United States", "formattedAddress": ["1604 Newkirk Ave (betw. E. 16th & 17th St)", "Brooklyn, NY 11226", "United States"]}, "categories": [{"id": "4bf58dd8d48988d16e941735", "name": "Fast Food Restaurant", "pluralName": "Fast Food Restaurants", "shortName": "Fast Food", "icon": {"prefix": "https://ss3.4sqi.net/img/categories_v2/food/fastfood_", "suffix": ".png"}, "primary": true}], "photos": {"count": 0, "groups": []}}, "referralId": "e-0-521be23311d265d3b0253d94-18"}, {"reasons": {"count": 0, "items": [{"summary": "This spot is popular", "type": "general", "reasonName": "globalInteractionReason"}]}, "venue": {"id": "53b37776498e7cdb976616ec", "name": "Newkirk Fruit Inc.", "location": {"address": "17 Newkirk Plz", "crossStreet": "btwn Newkirk & Foster Aves", "lat": 40.634817, "lng": -73.962503, "labeledLatLngs": [{"label": "display", "lat": 40.634817, "lng": -73.962503}, {"label": "entrance", "lat": 40.634806, "lng": -73.962602}], "distance": 385, "postalCode": "11226", "cc": "US", "city": "Brooklyn", "state": "NY", "country": "United States", "formattedAddress": ["17 Newkirk Plz (btwn Newkirk & Foster Aves)", "Brooklyn, NY 11226", "United States"]}, "categories": [{"id": "4bf58dd8d48988d112941735", "name": "Juice Bar", "pluralName": "Juice Bars", "shortName": "Juice Bar", "icon": {"prefix": "https://ss3.4sqi.net/img/categories_v2/food/juicebar_", "suffix": ".png"}, "primary": true}], "photos": {"count": 0, "groups": []}}, "referralId": "e-0-53b37776498e7cdb976616ec-19"}, {"reasons": {"count": 0, "items": [{"summary": "This spot is popular", "type": "general", "reasonName": "globalInteractionReason"}]}, "venue": {"id": "4c615eed1e5cd13af4d3a3ed", "name": "Santander Bank", "location": {"address": "23 Newkirk Plz", "crossStreet": "Foster Avenue", "lat": 40.63461259884189, "lng": -73.96243795752531, "labeledLatLngs": [{"label": "display", "lat": 40.63461259884189, "lng": -73.96243795752531}, {"label": "entrance", "lat": 40.634525, "lng": -73.962563}], "distance": 390, "postalCode": "11226", "cc": "US", "city": "Brooklyn", "state": "NY", "country": "United States", "formattedAddress": ["23 Newkirk Plz (Foster Avenue)", "Brooklyn, NY 11226", "United States"]}, "categories": [{"id": "4bf58dd8d48988d10a951735", "name": "Bank", "pluralName": "Banks", "shortName": "Bank", "icon": {"prefix": "https://ss3.4sqi.net/img/categories_v2/shops/financial_", "suffix": ".png"}, "primary": true}], "photos": {"count": 0, "groups": []}}, "referralId": "e-0-4c615eed1e5cd13af4d3a3ed-20"}, {"reasons": {"count": 0, "items": [{"summary": "This spot is popular", "type": "general", "reasonName": "globalInteractionReason"}]}, "venue": {"id": "4b816721f964a520eaa330e3", "name": "Armando & Pablo's Restaurant", "location": {"address": "43 Newkirk Plz", "crossStreet": "at Foster Ave", "lat": 40.63510823238249, "lng": -73.96301214839362, "labeledLatLngs": [{"label": "display", "lat": 40.63510823238249, "lng": -73.96301214839362}, {"label": "entrance", "lat": 40.635125, "lng": -73.962947}], "distance": 412, "postalCode": "11226", "cc": "US", "city": "Brooklyn", "state": "NY", "country": "United States", "formattedAddress": ["43 Newkirk Plz (at Foster Ave)", "Brooklyn, NY 11226", "United States"]}, "categories": [{"id": "4bf58dd8d48988d147941735", "name": "Diner", "pluralName": "Diners", "shortName": "Diner", "icon": {"prefix": "https://ss3.4sqi.net/img/categories_v2/food/diner_", "suffix": ".png"}, "primary": true}], "delivery": {"id": "72353", "url": "https://www.seamless.com/menu/pablos-restaurant-43-newkirk-plz-brooklyn/72353?affiliate=1131&utm_source=foursquare-affiliate-network&utm_medium=affiliate&utm_campaign=1131&utm_content=72353", "provider": {"name": "seamless", "icon": {"prefix": "https://fastly.4sqi.net/img/general/cap/", "sizes": [40, 50], "name": "/delivery_provider_seamless_20180129.png"}}}, "photos": {"count": 0, "groups": []}}, "referralId": "e-0-4b816721f964a520eaa330e3-21"}, {"reasons": {"count": 0, "items": [{"summary": "This spot is popular", "type": "general", "reasonName": "globalInteractionReason"}]}, "venue": {"id": "5756a451cd101318052bd7df", "name": "Kabir's Bakery", "location": {"address": "1425 Foster Ave", "lat": 40.634219, "lng": -73.96324200000001, "labeledLatLngs": [{"label": "display", "lat": 40.634219, "lng": -73.96324200000001}, {"label": "entrance", "lat": 40.634134, "lng": -73.963226}], "distance": 471, "postalCode": "11230", "cc": "US", "city": "Brooklyn", "state": "NY", "country": "United States", "formattedAddress": ["1425 Foster Ave", "Brooklyn, NY 11230", "United States"]}, "categories": [{"id": "4bf58dd8d48988d16a941735", "name": "Bakery", "pluralName": "Bakeries", "shortName": "Bakery", "icon": {"prefix": "https://ss3.4sqi.net/img/categories_v2/food/bakery_", "suffix": ".png"}, "primary": true}], "photos": {"count": 0, "groups": []}}, "referralId": "e-0-5756a451cd101318052bd7df-22"}, {"reasons": {"count": 0, "items": [{"summary": "This spot is popular", "type": "general", "reasonName": "globalInteractionReason"}]}, "venue": {"id": "4b818a37f964a5208ead30e3", "name": "Rite Aid", "location": {"address": "1419 Newkirk Ave", "crossStreet": "at Marlboro Rd.", "lat": 40.6355752, "lng": -73.9635141, "labeledLatLngs": [{"label": "display", "lat": 40.6355752, "lng": -73.9635141}], "distance": 439, "postalCode": "11226", "cc": "US", "city": "Brooklyn", "state": "NY", "country": "United States", "formattedAddress": ["1419 Newkirk Ave (at Marlboro Rd.)", "Brooklyn, NY 11226", "United States"]}, "categories": [{"id": "4bf58dd8d48988d10f951735", "name": "Pharmacy", "pluralName": "Pharmacies", "shortName": "Pharmacy", "icon": {"prefix": "https://ss3.4sqi.net/img/categories_v2/shops/pharmacy_", "suffix": ".png"}, "primary": true}], "photos": {"count": 0, "groups": []}}, "referralId": "e-0-4b818a37f964a5208ead30e3-23"}]