[{"reasons": {"count": 0, "items": [{"summary": "This spot is popular", "type": "general", "reasonName": "globalInteractionReason"}]}, "venue": {"id": "4ae39cb6f964a520439721e3", "name": "Debasaki", "location": {"address": "33-67 Farrington St", "lat": 40.764851521130126, "lng": -73.83176733519196, "labeledLatLngs": [{"label": "display", "lat": 40.764851521130126, "lng": -73.83176733519196}], "distance": 44, "postalCode": "11354", "cc": "US", "city": "Flushing", "state": "NY", "country": "United States", "formattedAddress": ["33-67 Farrington St", "Flushing, NY 11354", "United States"]}, "categories": [{"id": "4bf58dd8d48988d113941735", "name": "Korean Restaurant", "pluralName": "Korean Restaurants", "shortName": "Korean", "icon": {"prefix": "https://ss3.4sqi.net/img/categories_v2/food/korean_", "suffix": ".png"}, "primary": true}], "photos": {"count": 0, "groups": []}}, "referralId": "e-0-4ae39cb6f964a520439721e3-0"}, {"reasons": {"count": 0, "items": [{"summary": "This spot is popular", "type": "general", "reasonName": "globalInteractionReason"}]}, "venue": {"id": "4ae490d2f964a520b89b21e3", "name": "Flushing Town Hall", "location": {"address": "137-35 Northern Blvd", "crossStreet": "at Linden Pl", "lat": 40.763623167949845, "lng": -73.83013898652432, "labeledLatLngs": [{"label": "display", "lat": 40.763623167949845, "lng": -73.83013898652432}], "distance": 165, "postalCode": "11354", "cc": "US", "city": "Flushing", "state": "NY", "country": "United States", "formattedAddress": ["137-35 Northern Blvd (at Linden Pl)", "Flushing, NY 11354", "United States"]}, "categories": [{"id": "4bf58dd8d48988d1f2931735", "name": "Performing Arts Venue", "pluralName": "Performing Arts Venues", "shortName": "Performing Arts", "icon": {"prefix": "https://ss3.4sqi.net/img/categories_v2/arts_entertainment/performingarts_", "suffix": ".png"}, "primary": true}], "photos": {"count": 0, "groups": []}}, "referralId": "e-0-4ae490d2f964a520b89b21e3-1"}, {"reasons": {"count": 0, "items": [{"summary": "This spot is popular", "type": "general", "reasonName": "globalInteractionReason"}]}, "venue": {"id": "4f4473a219836ed001943208", "name": "Joo Mak Gol Korean Restaurant", "location": {"address": "3526 Farrington St", "lat": 40.763658, "lng": -73.831737, "labeledLatLngs": [{"label": "display", "lat": 40.763658, "lng": -73.831737}, {"label": "entrance", "lat": 40.763682, "lng": -73.831595}], "distance": 88, "postalCode": "11354", "cc": "US", "city": "Flushing", "state": "NY", "country": "United States", "formattedAddress": ["3526 Farrington St", "Flushing, NY 11354", "United States"]}, "categories": [{"id": "4d4b7105d754a06374d81259", "name": "Food", "pluralName": "Food", "shortName": "Food", "icon": {"prefix": "https://ss3.4sqi.net/img/categories_v2/food/default_", "suffix": ".png"}, "primary": true}], "photos": {"count": 0, "groups": []}}, "referralId": "e-0-4f4473a219836ed001943208-2"}, {"reasons": {"count": 0, "items": [{"summary": "This spot is popular", "type": "general", "reasonName": "globalInteractionReason"}]}, "venue": {"id": "4cdef310df986ea8511adf16", "name": "New York Badminton Center", "location": {"address": "132-63 34th Ave", "lat": 40.76529959854244, "lng": -73.83443777007867, "labeledLatLngs": [{"label": "display", "lat": 40.76529959854244, "lng": -73.83443777007867}], "distance": 243, "postalCode": "11354", "cc": "US", "city": "Flushing", "state": "NY", "country": "United States", "formattedAddress": ["132-63 34th Ave", "Flushing, NY 11354", "United States"]}, "categories": [{"id": "4bf58dd8d48988d175941735", "name": "Gym / Fitness Center", "pluralName": "Gyms or Fitness Centers", "shortName": "Gym / Fitness", "icon": {"prefix": "https://ss3.4sqi.net/img/categories_v2/building/gym_", "suffix": ".png"}, "primary": true}], "photos": {"count": 0, "groups": []}}, "referralId": "e-0-4cdef310df986ea8511adf16-3"}, {"reasons": {"count": 0, "items": [{"summary": "This spot is popular", "type": "general", "reasonName": "globalInteractionReason"}]}, "venue": {"id": "4afe2dd7f964a520882e22e3", "name": "Bodhi Fitness Center", "location": {"address": "3511 Prince St", "lat": 40.763665846982555, "lng": -73.83321052169947, "labeledLatLngs": [{"label": "display", "lat": 40.763665846982555, "lng": -73.83321052169947}], "distance": 149, "postalCode": "11354", "cc": "US", "city": "Flushing", "state": "NY", "country": "United States", "formattedAddress": ["3511 Prince St", "Flushing, NY 11354", "United States"]}, "categories": [{"id": "4bf58dd8d48988d176941735", "name": "Gym", "pluralName": "Gyms", "shortName": "Gym", "icon": {"prefix": "https://ss3.4sqi.net/img/categories_v2/building/gym_", "suffix": ".png"}, "primary": true}], "photos": {"count": 0, "groups": []}}, "referralId": "e-0-4afe2dd7f964a520882e22e3-4"}, {"reasons": {"count": 0, "items": [{"summary": "This spot is popular", "type": "general", "reasonName": "globalInteractionReason"}]}, "venue": {"id": "4f772e5ae4b015b23ccaf2d3", "name": "Quaker Meeting House", "location": {"address": "137-16 Northern Blvd", "crossStreet": "Linden Pl", "lat": 40.763127877567435, "lng": -73.83052804358613, "labeledLatLngs": [{"label": "display", "lat": 40.763127877567435, "lng": -73.83052804358613}], "distance": 181, "postalCode": "11354", "cc": "US", "city": "Flushing", "state": "NY", "country": "United States", "formattedAddress": ["137-16 Northern Blvd (Linden Pl)", "Flushing, NY 11354", "United States"]}, "categories": [{"id": "4bf58dd8d48988d132941735", "name": "Church", "pluralName": "Churches", "shortName": "Church", "icon": {"prefix": "https://ss3.4sqi.net/img/categories_v2/building/religious_church_", "suffix": ".png"}, "primary": true}], "photos": {"count": 0, "groups": []}}, "referralId": "e-0-4f772e5ae4b015b23ccaf2d3-5"}, {"reasons": {"count": 0, "items": [{"summary": "This spot is popular", "type": "general", "reasonName": "globalInteractionReason"}]}, "venue": {"id": "4f8379737716785a1637c2e3", "name": "Little Sheep Mongolian Hot Pot \u5c0f\u80a5\u7f8a", "location": {"address": "136-59 37th Ave", "crossStreet": "btwn 138th & Union St.", "lat": 40.762082722288476, "lng": -73.82896298002208, "labeledLatLngs": [{"label": "display", "lat": 40.762082722288476, "lng": -73.82896298002208}], "distance": 354, "postalCode": "11354", "cc": "US", "city": "Flushing", "state": "NY", "country": "United States", "formattedAddress": ["136-59 37th Ave (btwn 138th & Union St.)", "Flushing, NY 11354", "United States"]}, "categories": [{"id": "52af0bd33cf9994f4e043bdd", "name": "Hotpot Restaurant", "pluralName": "Hotpot Restaurants", "shortName": "Hotpot", "icon": {"prefix": "https://ss3.4sqi.net/img/categories_v2/food/asian_", "suffix": ".png"}, "primary": true}], "photos": {"count": 0, "groups": []}, "venuePage": {"id": "54937444"}}, "referralId": "e-0-4f8379737716785a1637c2e3-6"}, {"reasons": {"count": 0, "items": [{"summary": "This spot is popular", "type": "general", "reasonName": "globalInteractionReason"}]}, "venue": {"id": "546fe3ac498eb0b4972d89dc", "name": "Spring Shabu Shabu Buffet", "location": {"address": "136-20 38th Ave Fl 2", "lat": 40.76108332906161, "lng": -73.82960945600507, "labeledLatLngs": [{"label": "display", "lat": 40.76108332906161, "lng": -73.82960945600507}], "distance": 417, "postalCode": "11354", "cc": "US", "city": "Flushing", "state": "NY", "country": "United States", "formattedAddress": ["136-20 38th Ave Fl 2", "Flushing, NY 11354", "United States"]}, "categories": [{"id": "52af0bd33cf9994f4e043bdd", "name": "Hotpot Restaurant", "pluralName": "Hotpot Restaurants", "shortName": "Hotpot", "icon": {"prefix": "https://ss3.4sqi.net/img/categories_v2/food/asian_", "suffix": ".png"}, "primary": true}], "photos": {"count": 0, "groups": []}}, "referralId": "e-0-546fe3ac498eb0b4972d89dc-7"}, {"reasons": {"count": 0, "items": [{"summary": "This spot is popular", "type": "general", "reasonName": "globalInteractionReason"}]}, "venue": {"id": "50f23422e4b076543a002c0c", "name": "Zebra Lounge 2", "location": {"address": "136-11 38th Ave, Flushing, NY 11354", "lat": 40.761012452562085, "lng": -73.83019342905824, "labeledLatLngs": [{"label": "display", "lat": 40.761012452562085, "lng": -73.83019342905824}], "distance": 405, "postalCode": "11354", "cc": "US", "city": "Flushing", "state": "NY", "country": "United States", "formattedAddress": ["136-11 38th Ave, Flushing, NY 11354", "Flushing, NY 11354", "United States"]}, "categories": [{"id": "4bf58dd8d48988d120941735", "name": "Karaoke Bar", "pluralName": "Karaoke Bars", "shortName": "Karaoke", "icon": {"prefix": "https://ss3.4sqi.net/img/categories_v2/nightlife/karaoke_", "suffix": ".png"}, "primary": true}], "photos": {"count": 0, "groups": []}}, "referralId": "e-0-50f23422e4b076543a002c0c-8"}, {"reasons": {"count": 0, "items": [{"summary": "This spot is popular", "type": "general", "reasonName": "globalInteractionReason"}]}, "venue": {"id": "5747a89b498ee4b7a5106556", "name": "DunHuang Lanzhou Beef Noodle", "location": {"address": "136-93 37th Ave", "lat": 40.76231631938525, "lng": -73.82763322903858, "labeledLatLngs": [{"label": "display", "lat": 40.76231631938525, "lng": -73.82763322903858}], "distance": 422, "postalCode": "11354", "cc": "US", "city": "Flushing", "state": "NY", "country": "United States", "formattedAddress": ["136-93 37th Ave", "Flushing, NY 11354", "United States"]}, "categories": [{"id": "4bf58dd8d48988d145941735", "name": "Chinese Restaurant", "pluralName": "Chinese Restaurants", "shortName": "Chinese", "icon": {"prefix": "https://ss3.4sqi.net/img/categories_v2/food/asian_", "suffix": ".png"}, "primary": true}], "photos": {"count": 0, "groups": []}}, "referralId": "e-0-5747a89b498ee4b7a5106556-9"}, {"reasons": {"count": 0, "items": [{"summary": "This spot is popular", "type": "general", "reasonName": "globalInteractionReason"}]}, "venue": {"id": "54109d43498ef1477a9c0868", "name": "Prince Tea House", "location": {"address": "36-39 Prince St", "lat": 40.761274908391854, "lng": -73.83284727640397, "labeledLatLngs": [{"label": "display", "lat": 40.761274908391854, "lng": -73.83284727640397}], "distance": 365, "postalCode": "11354", "cc": "US", "city": "Flushing", "state": "NY", "country": "United States", "formattedAddress": ["36-39 Prince St", "Flushing, NY 11354", "United States"]}, "categories": [{"id": "4bf58dd8d48988d1dc931735", "name": "Tea Room", "pluralName": "Tea Rooms", "shortName": "Tea Room", "icon": {"prefix": "https://ss3.4sqi.net/img/categories_v2/food/tearoom_", "suffix": ".png"}, "primary": true}], "delivery": {"id": "1939225", "url": "https://www.seamless.com/menu/prince-tea-house-36-39-prince-st-flushing/1939225?affiliate=1131&utm_source=foursquare-affiliate-network&utm_medium=affiliate&utm_campaign=1131&utm_content=1939225", "provider": {"name": "seamless", "icon": {"prefix": "https://fastly.4sqi.net/img/general/cap/", "sizes": [40, 50], "name": "/delivery_provider_seamless_20180129.png"}}}, "photos": {"count": 0, "groups": []}}, "referralId": "e-0-54109d43498ef1477a9c0868-10"}, {"reasons": {"count": 0, "items": [{"summary": "This spot is popular", "type": "general", "reasonName": "globalInteractionReason"}]}, "venue": {"id": "5adb9250e4c459213de70918", "name": "M\u00f6ge Tee", "location": {"address": "3803 Main St", "crossStreet": "btwn 38th & 39th Ave", "lat": 40.76078078960038, "lng": -73.8306104995843, "labeledLatLngs": [{"label": "display", "lat": 40.76078078960038, "lng": -73.8306104995843}], "distance": 420, "postalCode": "11354", "cc": "US", "neighborhood": "Downtown Flushing", "city": "Queens", "state": "NY", "country": "United States", "formattedAddress": ["3803 Main St (btwn 38th & 39th Ave)", "Queens, NY 11354", "United States"]}, "categories": [{"id": "52e81612bcbc57f1066b7a0c", "name": "Bubble Tea Shop", "pluralName": "Bubble Tea Shops", "shortName": "Bubble Tea", "icon": {"prefix": "https://ss3.4sqi.net/img/categories_v2/food/bubble_", "suffix": ".png"}, "primary": true}], "photos": {"count": 0, "groups": []}}, "referralId": "e-0-5adb9250e4c459213de70918-11"}, {"reasons": {"count": 0, "items": [{"summary": "This spot is popular", "type": "general", "reasonName": "globalInteractionReason"}]}, "venue": {"id": "5cfeaedba8eb600039a444cc", "name": "Haidilao Hotpot", "location": {"address": "138-23 39th Ave", "crossStreet": "Union St", "lat": 40.761195237520774, "lng": -73.82774949073792, "labeledLatLngs": [{"label": "display", "lat": 40.761195237520774, "lng": -73.82774949073792}], "distance": 496, "postalCode": "11354", "cc": "US", "city": "Flushing", "state": "NY", "country": "United States", "formattedAddress": ["138-23 39th Ave (Union St)", "Flushing, NY 11354", "United States"]}, "categories": [{"id": "52af0bd33cf9994f4e043bdd", "name": "Hotpot Restaurant", "pluralName": "Hotpot Restaurants", "shortName": "Hotpot", "icon": {"prefix": "https://ss3.4sqi.net/img/categories_v2/food/asian_", "suffix": ".png"}, "primary": true}], "photos": {"count": 0, "groups": []}, "venuePage": {"id": "545810201"}}, "referralId": "e-0-5cfeaedba8eb600039a444cc-12"}, {"reasons": {"count": 0, "items": [{"summary": "This spot is popular", "type": "general", "reasonName": "globalInteractionReason"}]}, "venue": {"id": "52235ea211d2fe55782d764c", "name": "Dong Yi Feng", "location": {"address": "135-29 37th Ave", "lat": 40.761293642626924, "lng": -73.83199812607717, "labeledLatLngs": [{"label": "display", "lat": 40.761293642626924, "lng": -73.83199812607717}], "distance": 352, "postalCode": "11354", "cc": "US", "city": "Flushing", "state": "NY", "country": "United States", "formattedAddress": ["135-29 37th Ave", "Flushing, NY 11354", "United States"]}, "categories": [{"id": "4bf58dd8d48988d145941735", "name": "Chinese Restaurant", "pluralName": "Chinese Restaurants", "shortName": "Chinese", "icon": {"prefix": "https://ss3.4sqi.net/img/categories_v2/food/asian_", "suffix": ".png"}, "primary": true}], "photos": {"count": 0, "groups": []}}, "referralId": "e-0-52235ea211d2fe55782d764c-13"}, {"reasons": {"count": 0, "items": [{"summary": "This spot is popular", "type": "general", "reasonName": "globalInteractionReason"}]}, "venue": {"id": "4b1c4e40f964a520cb0524e3", "name": "Joe's Shanghai \u9e7f\u9e23\u6625", "location": {"address": "136-21 37th Ave", "lat": 40.76179424882944, "lng": -73.83034147868909, "labeledLatLngs": [{"label": "display", "lat": 40.76179424882944, "lng": -73.83034147868909}], "distance": 319, "postalCode": "11354", "cc": "US", "city": "Flushing", "state": "NY", "country": "United States", "formattedAddress": ["136-21 37th Ave", "Flushing, NY 11354", "United States"]}, "categories": [{"id": "4bf58dd8d48988d108941735", "name": "Dumpling Restaurant", "pluralName": "Dumpling Restaurants", "shortName": "Dumplings", "icon": {"prefix": "https://ss3.4sqi.net/img/categories_v2/food/dumplings_", "suffix": ".png"}, "primary": true}], "photos": {"count": 0, "groups": []}}, "referralId": "e-0-4b1c4e40f964a520cb0524e3-14"}, {"reasons": {"count": 0, "items": [{"summary": "This spot is popular", "type": "general", "reasonName": "globalInteractionReason"}]}, "venue": {"id": "41f98080f964a520341f1fe3", "name": "Carom Cafe Billiards", "location": {"address": "3402 Linden Pl", "lat": 40.7661544623852, "lng": -73.83143071082816, "labeledLatLngs": [{"label": "display", "lat": 40.7661544623852, "lng": -73.83143071082816}], "distance": 191, "postalCode": "11354", "cc": "US", "city": "Flushing", "state": "NY", "country": "United States", "formattedAddress": ["3402 Linden Pl", "Flushing, NY 11354", "United States"]}, "categories": [{"id": "4bf58dd8d48988d1e3931735", "name": "Pool Hall", "pluralName": "Pool Halls", "shortName": "Billiards", "icon": {"prefix": "https://ss3.4sqi.net/img/categories_v2/arts_entertainment/billiards_", "suffix": ".png"}, "primary": true}], "photos": {"count": 0, "groups": []}}, "referralId": "e-0-41f98080f964a520341f1fe3-15"}, {"reasons": {"count": 0, "items": [{"summary": "This spot is popular", "type": "general", "reasonName": "globalInteractionReason"}]}, "venue": {"id": "578a9ffe498ec46be04908f8", "name": "Shaking Crab", "location": {"address": "37-02 Prince St", "crossStreet": "37th", "lat": 40.76083858953649, "lng": -73.83290496088568, "labeledLatLngs": [{"label": "display", "lat": 40.76083858953649, "lng": -73.83290496088568}], "distance": 413, "postalCode": "11354", "cc": "US", "neighborhood": "Downtown Flushing", "city": "Flushing", "state": "NY", "country": "United States", "formattedAddress": ["37-02 Prince St (37th)", "Flushing, NY 11354", "United States"]}, "categories": [{"id": "4bf58dd8d48988d1ce941735", "name": "Seafood Restaurant", "pluralName": "Seafood Restaurants", "shortName": "Seafood", "icon": {"prefix": "https://ss3.4sqi.net/img/categories_v2/food/seafood_", "suffix": ".png"}, "primary": true}], "delivery": {"id": "2046154", "url": "https://www.seamless.com/menu/shaking-crab-flushing-37-02-prince-st-flushing/2046154?affiliate=1131&utm_source=foursquare-affiliate-network&utm_medium=affiliate&utm_campaign=1131&utm_content=2046154", "provider": {"name": "seamless", "icon": {"prefix": "https://fastly.4sqi.net/img/general/cap/", "sizes": [40, 50], "name": "/delivery_provider_seamless_20180129.png"}}}, "photos": {"count": 0, "groups": []}}, "referralId": "e-0-578a9ffe498ec46be04908f8-16"}, {"reasons": {"count": 0, "items": [{"summary": "This spot is popular", "type": "general", "reasonName": "globalInteractionReason"}]}, "venue": {"id": "5a0107761bc704786174e907", "name": "Macao Imperial Tea", "location": {"address": "38-21 Main St", "lat": 40.76034835958667, "lng": -73.83051301439708, "labeledLatLngs": [{"label": "display", "lat": 40.76034835958667, "lng": -73.83051301439708}], "distance": 469, "postalCode": "11354", "cc": "US", "neighborhood": "Downtown Flushing", "city": "Queens", "state": "NY", "country": "United States", "formattedAddress": ["38-21 Main St", "Queens, NY 11354", "United States"]}, "categories": [{"id": "52e81612bcbc57f1066b7a0c", "name": "Bubble Tea Shop", "pluralName": "Bubble Tea Shops", "shortName": "Bubble Tea", "icon": {"prefix": "https://ss3.4sqi.net/img/categories_v2/food/bubble_", "suffix": ".png"}, "primary": true}], "photos": {"count": 0, "groups": []}}, "referralId": "e-0-5a0107761bc704786174e907-17"}, {"reasons": {"count": 0, "items": [{"summary": "This spot is popular", "type": "general", "reasonName": "globalInteractionReason"}]}, "venue": {"id": "4abfef82f964a520179320e3", "name": "New Imperial Palace \u6771\u6e56", "location": {"address": "13613 37th Ave", "crossStreet": "at Main St.", "lat": 40.76174430274193, "lng": -73.83052763667311, "labeledLatLngs": [{"label": "display", "lat": 40.76174430274193, "lng": -73.83052763667311}], "distance": 319, "postalCode": "11354", "cc": "US", "city": "Flushing", "state": "NY", "country": "United States", "formattedAddress": ["13613 37th Ave (at Main St.)", "Flushing, NY 11354", "United States"]}, "categories": [{"id": "4bf58dd8d48988d145941735", "name": "Chinese Restaurant", "pluralName": "Chinese Restaurants", "shortName": "Chinese", "icon": {"prefix": "https://ss3.4sqi.net/img/categories_v2/food/asian_", "suffix": ".png"}, "primary": true}], "photos": {"count": 0, "groups": []}}, "referralId": "e-0-4abfef82f964a520179320e3-18"}, {"reasons": {"count": 0, "items": [{"summary": "This spot is popular", "type": "general", "reasonName": "globalInteractionReason"}]}, "venue": {"id": "4bb2532b35f0c9b6721fbb83", "name": "Marco LaGuardia Hotel by Lexington", "location": {"address": "137-07 Northern Blvd", "lat": 40.76356716962587, "lng": -73.83104794108021, "labeledLatLngs": [{"label": "display", "lat": 40.76356716962587, "lng": -73.83104794108021}], "distance": 116, "postalCode": "11354", "cc": "US", "city": "Flushing", "state": "NY", "country": "United States", "formattedAddress": ["137-07 Northern Blvd", "Flushing, NY 11354", "United States"]}, "categories": [{"id": "4bf58dd8d48988d1fa931735", "name": "Hotel", "pluralName": "Hotels", "shortName": "Hotel", "icon": {"prefix": "https://ss3.4sqi.net/img/categories_v2/travel/hotel_", "suffix": ".png"}, "primary": true}], "photos": {"count": 0, "groups": []}}, "referralId": "e-0-4bb2532b35f0c9b6721fbb83-19"}, {"reasons": {"count": 0, "items": [{"summary": "This spot is popular", "type": "general", "reasonName": "globalInteractionReason"}]}, "venue": {"id": "4bb92b2598c7ef3b95e03102", "name": "Paris Baguette", "location": {"address": "136-17 39th Ave", "crossStreet": "at 138th St", "lat": 40.760663018474624, "lng": -73.82926844349444, "labeledLatLngs": [{"label": "display", "lat": 40.760663018474624, "lng": -73.82926844349444}], "distance": 471, "postalCode": "11354", "cc": "US", "city": "Flushing", "state": "NY", "country": "United States", "formattedAddress": ["136-17 39th Ave (at 138th St)", "Flushing, NY 11354", "United States"]}, "categories": [{"id": "4bf58dd8d48988d16a941735", "name": "Bakery", "pluralName": "Bakeries", "shortName": "Bakery", "icon": {"prefix": "https://ss3.4sqi.net/img/categories_v2/food/bakery_", "suffix": ".png"}, "primary": true}], "photos": {"count": 0, "groups": []}}, "referralId": "e-0-4bb92b2598c7ef3b95e03102-20"}, {"reasons": {"count": 0, "items": [{"summary": "This spot is popular", "type": "general", "reasonName": "globalInteractionReason"}]}, "venue": {"id": "4ad1023ff964a520eadb20e3", "name": "Maxin Bakery", "location": {"address": "37-01 Main St", "crossStreet": "at 37th Ave.", "lat": 40.76157406207356, "lng": -73.83105760283283, "labeledLatLngs": [{"label": "display", "lat": 40.76157406207356, "lng": -73.83105760283283}], "distance": 326, "postalCode": "11354", "cc": "US", "city": "Flushing", "state": "NY", "country": "United States", "formattedAddress": ["37-01 Main St (at 37th Ave.)", "Flushing, NY 11354", "United States"]}, "categories": [{"id": "4bf58dd8d48988d16a941735", "name": "Bakery", "pluralName": "Bakeries", "shortName": "Bakery", "icon": {"prefix": "https://ss3.4sqi.net/img/categories_v2/food/bakery_", "suffix": ".png"}, "primary": true}], "photos": {"count": 0, "groups": []}}, "referralId": "e-0-4ad1023ff964a520eadb20e3-21"}, {"reasons": {"count": 0, "items": [{"summary": "This spot is popular", "type": "general", "reasonName": "globalInteractionReason"}]}, "venue": {"id": "54858fb9498e5a6cf73d6dee", "name": "Starbucks", "location": {"address": "3805 Main St", "crossStreet": "at 38th Ave", "lat": 40.76076522285495, "lng": -73.83055298489074, "labeledLatLngs": [{"label": "display", "lat": 40.76076522285495, "lng": -73.83055298489074}], "distance": 423, "postalCode": "11354", "cc": "US", "city": "Flushing", "state": "NY", "country": "United States", "formattedAddress": ["3805 Main St (at 38th Ave)", "Flushing, NY 11354", "United States"]}, "categories": [{"id": "4bf58dd8d48988d1e0931735", "name": "Coffee Shop", "pluralName": "Coffee Shops", "shortName": "Coffee Shop", "icon": {"prefix": "https://ss3.4sqi.net/img/categories_v2/food/coffeeshop_", "suffix": ".png"}, "primary": true}], "photos": {"count": 0, "groups": []}}, "referralId": "e-0-54858fb9498e5a6cf73d6dee-22"}, {"reasons": {"count": 0, "items": [{"summary": "This spot is popular", "type": "general", "reasonName": "globalInteractionReason"}]}, "venue": {"id": "4b19974ef964a52014e023e3", "name": "Anime Castle", "location": {"address": "35-32 Union Sq W", "crossStreet": "Northern Boulevard", "lat": 40.764514955067135, "lng": -73.82802593385244, "labeledLatLngs": [{"label": "display", "lat": 40.764514955067135, "lng": -73.82802593385244}], "distance": 315, "postalCode": "10003", "cc": "US", "city": "New York", "state": "NY", "country": "United States", "formattedAddress": ["35-32 Union Sq W (Northern Boulevard)", "New York, NY 10003", "United States"]}, "categories": [{"id": "4bf58dd8d48988d1f3941735", "name": "Toy / Game Store", "pluralName": "Toy / Game Stores", "shortName": "Toys & Games", "icon": {"prefix": "https://ss3.4sqi.net/img/categories_v2/shops/toys_", "suffix": ".png"}, "primary": true}], "photos": {"count": 0, "groups": []}}, "referralId": "e-0-4b19974ef964a52014e023e3-23"}, {"reasons": {"count": 0, "items": [{"summary": "This spot is popular", "type": "general", "reasonName": "globalInteractionReason"}]}, "venue": {"id": "4ea4a75d722ec75adf3ebf8b", "name": "Ming Xing BBQ", "location": {"address": "35-14 Farrington St", "lat": 40.76389028537949, "lng": -73.83155010785148, "labeledLatLngs": [{"label": "display", "lat": 40.76389028537949, "lng": -73.83155010785148}, {"label": "entrance", "lat": 40.763983, "lng": -73.831711}], "distance": 65, "postalCode": "11354", "cc": "US", "city": "New York", "state": "NY", "country": "United States", "formattedAddress": ["35-14 Farrington St", "New York, NY 11354", "United States"]}, "categories": [{"id": "4bf58dd8d48988d142941735", "name": "Asian Restaurant", "pluralName": "Asian Restaurants", "shortName": "Asian", "icon": {"prefix": "https://ss3.4sqi.net/img/categories_v2/food/asian_", "suffix": ".png"}, "primary": true}], "photos": {"count": 0, "groups": []}}, "referralId": "e-0-4ea4a75d722ec75adf3ebf8b-24"}, {"reasons": {"count": 0, "items": [{"summary": "This spot is popular", "type": "general", "reasonName": "globalInteractionReason"}]}, "venue": {"id": "51957b1e498edc652485698c", "name": "Yumcha Yoga", "location": {"address": "33-59 Farrington St Fl 2", "lat": 40.76457449948219, "lng": -73.83185816987397, "labeledLatLngs": [{"label": "display", "lat": 40.76457449948219, "lng": -73.83185816987397}], "distance": 15, "postalCode": "11354", "cc": "US", "city": "Flushing", "state": "NY", "country": "United States", "formattedAddress": ["33-59 Farrington St Fl 2", "Flushing, NY 11354", "United States"]}, "categories": [{"id": "4bf58dd8d48988d102941735", "name": "Yoga Studio", "pluralName": "Yoga Studios", "shortName": "Yoga Studio", "icon": {"prefix": "https://ss3.4sqi.net/img/categories_v2/shops/gym_yogastudio_", "suffix": ".png"}, "primary": true}], "photos": {"count": 0, "groups": []}}, "referralId": "e-0-51957b1e498edc652485698c-25"}, {"reasons": {"count": 0, "items": [{"summary": "This spot is popular", "type": "general", "reasonName": "globalInteractionReason"}]}, "venue": {"id": "51859f14498e0b26369b2710", "name": "Mamak House", "location": {"address": "3520 Farrington St", "crossStreet": "at Northern Blvd", "lat": 40.76377513304329, "lng": -73.83149530640749, "labeledLatLngs": [{"label": "display", "lat": 40.76377513304329, "lng": -73.83149530640749}], "distance": 79, "postalCode": "11354", "cc": "US", "city": "Flushing", "state": "NY", "country": "United States", "formattedAddress": ["3520 Farrington St (at Northern Blvd)", "Flushing, NY 11354", "United States"]}, "categories": [{"id": "4bf58dd8d48988d156941735", "name": "Malay Restaurant", "pluralName": "Malay Restaurants", "shortName": "Malay", "icon": {"prefix": "https://ss3.4sqi.net/img/categories_v2/food/malaysian_", "suffix": ".png"}, "primary": true}], "photos": {"count": 0, "groups": []}}, "referralId": "e-0-51859f14498e0b26369b2710-26"}, {"reasons": {"count": 0, "items": [{"summary": "This spot is popular", "type": "general", "reasonName": "globalInteractionReason"}]}, "venue": {"id": "5c845657029a550039782ce0", "name": "\u91cd\u5e86\u8001\u7076 (Chong Qing Lao Zao)", "location": {"address": "37-04 Prince St", "lat": 40.760649, "lng": -73.833037, "labeledLatLngs": [{"label": "display", "lat": 40.760649, "lng": -73.833037}, {"label": "entrance", "lat": 40.760674, "lng": -73.832971}], "distance": 436, "postalCode": "11354", "cc": "US", "city": "New York", "state": "NY", "country": "United States", "formattedAddress": ["37-04 Prince St", "New York, NY 11354", "United States"]}, "categories": [{"id": "52af0bd33cf9994f4e043bdd", "name": "Hotpot Restaurant", "pluralName": "Hotpot Restaurants", "shortName": "Hotpot", "icon": {"prefix": "https://ss3.4sqi.net/img/categories_v2/food/asian_", "suffix": ".png"}, "primary": true}], "photos": {"count": 0, "groups": []}}, "referralId": "e-0-5c845657029a550039782ce0-27"}, {"reasons": {"count": 0, "items": [{"summary": "This spot is popular", "type": "general", "reasonName": "globalInteractionReason"}]}, "venue": {"id": "4a19b74af964a5203d7a1fe3", "name": "Tai Pan Bakery \u5927\u73ed", "location": {"address": "3725 Main St", "crossStreet": "btwn 37th & 38th Ave.", "lat": 40.76098521358553, "lng": -73.83076551893204, "labeledLatLngs": [{"label": "display", "lat": 40.76098521358553, "lng": -73.83076551893204}], "distance": 395, "postalCode": "11354", "cc": "US", "city": "Flushing", "state": "NY", "country": "United States", "formattedAddress": ["3725 Main St (btwn 37th & 38th Ave.)", "Flushing, NY 11354", "United States"]}, "categories": [{"id": "4bf58dd8d48988d16a941735", "name": "Bakery", "pluralName": "Bakeries", "shortName": "Bakery", "icon": {"prefix": "https://ss3.4sqi.net/img/categories_v2/food/bakery_", "suffix": ".png"}, "primary": true}], "photos": {"count": 0, "groups": []}}, "referralId": "e-0-4a19b74af964a5203d7a1fe3-28"}, {"reasons": {"count": 0, "items": [{"summary": "This spot is popular", "type": "general", "reasonName": "globalInteractionReason"}]}, "venue": {"id": "4d8635685e70224b44dd3109", "name": "Kung Fu Tea (\u529f\u592b\u8336)", "location": {"address": "136-20 38th Ave Flushing NY", "lat": 40.760745715429465, "lng": -73.82948955092621, "labeledLatLngs": [{"label": "display", "lat": 40.760745715429465, "lng": -73.82948955092621}], "distance": 455, "postalCode": "11354", "cc": "US", "city": "Flushing", "state": "NY", "country": "United States", "formattedAddress": ["136-20 38th Ave Flushing NY", "Flushing, NY 11354", "United States"]}, "categories": [{"id": "52e81612bcbc57f1066b7a0c", "name": "Bubble Tea Shop", "pluralName": "Bubble Tea Shops", "shortName": "Bubble Tea", "icon": {"prefix": "https://ss3.4sqi.net/img/categories_v2/food/bubble_", "suffix": ".png"}, "primary": true}], "photos": {"count": 0, "groups": []}}, "referralId": "e-0-4d8635685e70224b44dd3109-29"}, {"reasons": {"count": 0, "items": [{"summary": "This spot is popular", "type": "general", "reasonName": "globalInteractionReason"}]}, "venue": {"id": "56bbf40c498ef1c1d6144fe7", "name": "Minus10 Ice Cream", "location": {"address": "136-17 39th Ave", "crossStreet": "btwn Main & 138th St", "lat": 40.760591420828305, "lng": -73.82960103321317, "labeledLatLngs": [{"label": "display", "lat": 40.760591420828305, "lng": -73.82960103321317}], "distance": 467, "postalCode": "11354", "cc": "US", "city": "Flushing", "state": "NY", "country": "United States", "formattedAddress": ["136-17 39th Ave (btwn Main & 138th St)", "Flushing, NY 11354", "United States"]}, "categories": [{"id": "4bf58dd8d48988d1c9941735", "name": "Ice Cream Shop", "pluralName": "Ice Cream Shops", "shortName": "Ice Cream", "icon": {"prefix": "https://ss3.4sqi.net/img/categories_v2/food/icecream_", "suffix": ".png"}, "primary": true}], "photos": {"count": 0, "groups": []}}, "referralId": "e-0-56bbf40c498ef1c1d6144fe7-30"}, {"reasons": {"count": 0, "items": [{"summary": "This spot is popular", "type": "general", "reasonName": "globalInteractionReason"}]}, "venue": {"id": "59ecbd4ce97dfb5a1b7e2fd8", "name": "New Mulan Seafood Restaurant", "location": {"address": "136-17 39th Ave", "crossStreet": "at Main St", "lat": 40.7602852871001, "lng": -73.8302496884466, "labeledLatLngs": [{"label": "display", "lat": 40.7602852871001, "lng": -73.8302496884466}, {"label": "entrance", "lat": 40.760414, "lng": -73.829908}], "distance": 481, "postalCode": "11354", "cc": "US", "neighborhood": "Downtown Flushing", "city": "New York", "state": "NY", "country": "United States", "formattedAddress": ["136-17 39th Ave (at Main St)", "New York, NY 11354", "United States"]}, "categories": [{"id": "4bf58dd8d48988d1f5931735", "name": "Dim Sum Restaurant", "pluralName": "Dim Sum Restaurants", "shortName": "Dim Sum", "icon": {"prefix": "https://ss3.4sqi.net/img/categories_v2/food/dimsum_", "suffix": ".png"}, "primary": true}], "photos": {"count": 0, "groups": []}}, "referralId": "e-0-59ecbd4ce97dfb5a1b7e2fd8-31"}, {"reasons": {"count": 0, "items": [{"summary": "This spot is popular", "type": "general", "reasonName": "globalInteractionReason"}]}, "venue": {"id": "56e480a9498e00f877b96faf", "name": "Sprout Market", "location": {"address": "37-02 Union Street", "lat": 40.76226495693353, "lng": -73.82795663220128, "labeledLatLngs": [{"label": "display", "lat": 40.76226495693353, "lng": -73.82795663220128}], "distance": 403, "postalCode": "11354", "cc": "US", "city": "Flushing", "state": "NY", "country": "United States", "formattedAddress": ["37-02 Union Street", "Flushing, NY 11354", "United States"]}, "categories": [{"id": "52f2ab2ebcbc57f1066b8b45", "name": "Organic Grocery", "pluralName": "Organic Groceries", "shortName": "Organic Grocery", "icon": {"prefix": "https://ss3.4sqi.net/img/categories_v2/shops/food_grocery_", "suffix": ".png"}, "primary": true}], "photos": {"count": 0, "groups": []}}, "referralId": "e-0-56e480a9498e00f877b96faf-32"}, {"reasons": {"count": 0, "items": [{"summary": "This spot is popular", "type": "general", "reasonName": "globalInteractionReason"}]}, "venue": {"id": "4beb13f018389521dcec0acf", "name": "The UPS Store", "location": {"address": "35-11B Farrington St", "lat": 40.764167866675756, "lng": -73.83142338773155, "labeledLatLngs": [{"label": "display", "lat": 40.764167866675756, "lng": -73.83142338773155}, {"label": "entrance", "lat": 40.76391, "lng": -73.83141}], "distance": 43, "postalCode": "11354", "cc": "US", "city": "Flushing", "state": "NY", "country": "United States", "formattedAddress": ["35-11B Farrington St", "Flushing, NY 11354", "United States"]}, "categories": [{"id": "52f2ab2ebcbc57f1066b8b1f", "name": "Shipping Store", "pluralName": "Shipping Stores", "shortName": "Shipping Store", "icon": {"prefix": "https://ss3.4sqi.net/img/categories_v2/shops/default_", "suffix": ".png"}, "primary": true}], "photos": {"count": 0, "groups": []}}, "referralId": "e-0-4beb13f018389521dcec0acf-33"}, {"reasons": {"count": 0, "items": [{"summary": "This spot is popular", "type": "general", "reasonName": "globalInteractionReason"}]}, "venue": {"id": "4aa5ae46f964a520264920e3", "name": "KumGangSan", "location": {"address": "13828 Northern Blvd", "crossStreet": "btwn Union St & Bowne St", "lat": 40.763804403940526, "lng": -73.82714310018443, "labeledLatLngs": [{"label": "display", "lat": 40.763804403940526, "lng": -73.82714310018443}], "distance": 397, "postalCode": "11354", "cc": "US", "city": "Flushing", "state": "NY", "country": "United States", "formattedAddress": ["13828 Northern Blvd (btwn Union St & Bowne St)", "Flushing, NY 11354", "United States"]}, "categories": [{"id": "4bf58dd8d48988d113941735", "name": "Korean Restaurant", "pluralName": "Korean Restaurants", "shortName": "Korean", "icon": {"prefix": "https://ss3.4sqi.net/img/categories_v2/food/korean_", "suffix": ".png"}, "primary": true}], "photos": {"count": 0, "groups": []}}, "referralId": "e-0-4aa5ae46f964a520264920e3-34"}, {"reasons": {"count": 0, "items": [{"summary": "This spot is popular", "type": "general", "reasonName": "globalInteractionReason"}]}, "venue": {"id": "598512a7c4df1d5dfaf4d535", "name": "Szechuan Story", "location": {"lat": 40.763645, "lng": -73.827392, "labeledLatLngs": [{"label": "display", "lat": 40.763645, "lng": -73.827392}], "distance": 380, "postalCode": "11354", "cc": "US", "neighborhood": "Downtown Flushing", "city": "Flushing", "state": "NY", "country": "United States", "formattedAddress": ["Flushing, NY 11354", "United States"]}, "categories": [{"id": "52af3b773cf9994f4e043c03", "name": "Szechuan Restaurant", "pluralName": "Szechuan Restaurants", "shortName": "Szechuan", "icon": {"prefix": "https://ss3.4sqi.net/img/categories_v2/food/asian_", "suffix": ".png"}, "primary": true}], "photos": {"count": 0, "groups": []}}, "referralId": "e-0-598512a7c4df1d5dfaf4d535-35"}, {"reasons": {"count": 0, "items": [{"summary": "This spot is popular", "type": "general", "reasonName": "globalInteractionReason"}]}, "venue": {"id": "4c583966d12a20a1647168bd", "name": "Sushi Family", "location": {"address": "3548 Union St", "lat": 40.76414470829056, "lng": -73.82816286139875, "labeledLatLngs": [{"label": "display", "lat": 40.76414470829056, "lng": -73.82816286139875}], "distance": 306, "postalCode": "11354", "cc": "US", "city": "Flushing", "state": "NY", "country": "United States", "formattedAddress": ["3548 Union St", "Flushing, NY 11354", "United States"]}, "categories": [{"id": "4bf58dd8d48988d1d2941735", "name": "Sushi Restaurant", "pluralName": "Sushi Restaurants", "shortName": "Sushi", "icon": {"prefix": "https://ss3.4sqi.net/img/categories_v2/food/sushi_", "suffix": ".png"}, "primary": true}], "delivery": {"id": "2017298", "url": "https://www.seamless.com/menu/sushi-family-express-3548-union-st-flushing/2017298?affiliate=1131&utm_source=foursquare-affiliate-network&utm_medium=affiliate&utm_campaign=1131&utm_content=2017298", "provider": {"name": "seamless", "icon": {"prefix": "https://fastly.4sqi.net/img/general/cap/", "sizes": [40, 50], "name": "/delivery_provider_seamless_20180129.png"}}}, "photos": {"count": 0, "groups": []}}, "referralId": "e-0-4c583966d12a20a1647168bd-36"}, {"reasons": {"count": 0, "items": [{"summary": "This spot is popular", "type": "general", "reasonName": "globalInteractionReason"}]}, "venue": {"id": "53db462e498e43c1f93c00c3", "name": "Soho KTV", "location": {"address": "32-3 Farrington St", "crossStreet": "at 32th Ave", "lat": 40.76720020239545, "lng": -73.8327002922672, "labeledLatLngs": [{"label": "display", "lat": 40.76720020239545, "lng": -73.8327002922672}], "distance": 315, "postalCode": "11354", "cc": "US", "city": "Flushing", "state": "NY", "country": "United States", "formattedAddress": ["32-3 Farrington St (at 32th Ave)", "Flushing, NY 11354", "United States"]}, "categories": [{"id": "4bf58dd8d48988d120941735", "name": "Karaoke Bar", "pluralName": "Karaoke Bars", "shortName": "Karaoke", "icon": {"prefix": "https://ss3.4sqi.net/img/categories_v2/nightlife/karaoke_", "suffix": ".png"}, "primary": true}], "photos": {"count": 0, "groups": []}}, "referralId": "e-0-53db462e498e43c1f93c00c3-37"}, {"reasons": {"count": 0, "items": [{"summary": "This spot is popular", "type": "general", "reasonName": "globalInteractionReason"}]}, "venue": {"id": "522732b611d232d9f01b8651", "name": "The One Boutique Hotel", "location": {"address": "137-37 Northern Blvd", "crossStreet": "Union Avenue", "lat": 40.76374294055137, "lng": -73.8285238457772, "labeledLatLngs": [{"label": "display", "lat": 40.76374294055137, "lng": -73.8285238457772}], "distance": 285, "postalCode": "11358", "cc": "US", "city": "Flushing", "state": "NY", "country": "United States", "formattedAddress": ["137-37 Northern Blvd (Union Avenue)", "Flushing, NY 11358", "United States"]}, "categories": [{"id": "4bf58dd8d48988d12f951735", "name": "Resort", "pluralName": "Resorts", "shortName": "Resort", "icon": {"prefix": "https://ss3.4sqi.net/img/categories_v2/travel/resort_", "suffix": ".png"}, "primary": true}], "photos": {"count": 0, "groups": []}}, "referralId": "e-0-522732b611d232d9f01b8651-38"}, {"reasons": {"count": 0, "items": [{"summary": "This spot is popular", "type": "general", "reasonName": "globalInteractionReason"}]}, "venue": {"id": "4f18655fe4b0cae4b4fc2555", "name": "Pathmark", "location": {"lat": 40.76782422705998, "lng": -73.83088749926212, "labeledLatLngs": [{"label": "display", "lat": 40.76782422705998, "lng": -73.83088749926212}], "distance": 382, "postalCode": "11354", "cc": "US", "city": "Queens", "state": "NY", "country": "United States", "formattedAddress": ["Queens, NY 11354", "United States"]}, "categories": [{"id": "52f2ab2ebcbc57f1066b8b46", "name": "Supermarket", "pluralName": "Supermarkets", "shortName": "Supermarket", "icon": {"prefix": "https://ss3.4sqi.net/img/categories_v2/shops/food_grocery_", "suffix": ".png"}, "primary": true}], "photos": {"count": 0, "groups": []}}, "referralId": "e-0-4f18655fe4b0cae4b4fc2555-39"}, {"reasons": {"count": 0, "items": [{"summary": "This spot is popular", "type": "general", "reasonName": "globalInteractionReason"}]}, "venue": {"id": "4b546c9ef964a520ceba27e3", "name": "Flushing YMCA", "location": {"address": "138-46 Northern Blvd", "crossStreet": "Bowne St", "lat": 40.763588, "lng": -73.826538, "labeledLatLngs": [{"label": "display", "lat": 40.763588, "lng": -73.826538}], "distance": 451, "postalCode": "11354", "cc": "US", "city": "Flushing", "state": "NY", "country": "United States", "formattedAddress": ["138-46 Northern Blvd (Bowne St)", "Flushing, NY 11354", "United States"]}, "categories": [{"id": "4bf58dd8d48988d175941735", "name": "Gym / Fitness Center", "pluralName": "Gyms or Fitness Centers", "shortName": "Gym / Fitness", "icon": {"prefix": "https://ss3.4sqi.net/img/categories_v2/building/gym_", "suffix": ".png"}, "primary": true}], "photos": {"count": 0, "groups": []}, "venuePage": {"id": "88100781"}}, "referralId": "e-0-4b546c9ef964a520ceba27e3-40"}, {"reasons": {"count": 0, "items": [{"summary": "This spot is popular", "type": "general", "reasonName": "globalInteractionReason"}]}, "venue": {"id": "5353290b498e00ca62fb5382", "name": "Moon Caf\u00e9", "location": {"address": "137-06 Northern Blvd", "lat": 40.76319647608123, "lng": -73.83083471603518, "labeledLatLngs": [{"label": "display", "lat": 40.76319647608123, "lng": -73.83083471603518}], "distance": 160, "postalCode": "11354", "cc": "US", "city": "Flushing", "state": "NY", "country": "United States", "formattedAddress": ["137-06 Northern Blvd", "Flushing, NY 11354", "United States"]}, "categories": [{"id": "4bf58dd8d48988d16d941735", "name": "Caf\u00e9", "pluralName": "Caf\u00e9s", "shortName": "Caf\u00e9", "icon": {"prefix": "https://ss3.4sqi.net/img/categories_v2/food/cafe_", "suffix": ".png"}, "primary": true}], "delivery": {"id": "1945192", "url": "https://www.seamless.com/menu/moon-cafe-13706-northern-blvd-northern-blvd/1945192?affiliate=1131&utm_source=foursquare-affiliate-network&utm_medium=affiliate&utm_campaign=1131&utm_content=1945192", "provider": {"name": "seamless", "icon": {"prefix": "https://fastly.4sqi.net/img/general/cap/", "sizes": [40, 50], "name": "/delivery_provider_seamless_20180129.png"}}}, "photos": {"count": 0, "groups": []}}, "referralId": "e-0-5353290b498e00ca62fb5382-41"}, {"reasons": {"count": 0, "items": [{"summary": "This spot is popular", "type": "general", "reasonName": "globalInteractionReason"}]}, "venue": {"id": "4f3f0e2ce4b028ca587b092b", "name": "Blu Lounge", "location": {"lat": 40.764603156336044, "lng": -73.83168431213561, "labeledLatLngs": [{"label": "display", "lat": 40.764603156336044, "lng": -73.83168431213561}], "distance": 18, "postalCode": "11354", "cc": "US", "city": "Flushing", "state": "NY", "country": "United States", "formattedAddress": ["Flushing, NY 11354", "United States"]}, "categories": [{"id": "4bf58dd8d48988d120941735", "name": "Karaoke Bar", "pluralName": "Karaoke Bars", "shortName": "Karaoke", "icon": {"prefix": "https://ss3.4sqi.net/img/categories_v2/nightlife/karaoke_", "suffix": ".png"}, "primary": true}], "photos": {"count": 0, "groups": []}}, "referralId": "e-0-4f3f0e2ce4b028ca587b092b-42"}, {"reasons": {"count": 0, "items": [{"summary": "This spot is popular", "type": "general", "reasonName": "globalInteractionReason"}]}, "venue": {"id": "4d7a7310fed6a09393e5a256", "name": "Joomakgol (\uc8fc\ub9c9\uace8)", "location": {"address": "35-26 Farrington St", "crossStreet": "at Northern Blvd", "lat": 40.76369620214061, "lng": -73.8312378602101, "labeledLatLngs": [{"label": "display", "lat": 40.76369620214061, "lng": -73.8312378602101}], "distance": 95, "postalCode": "11354", "cc": "US", "city": "Flushing", "state": "NY", "country": "United States", "formattedAddress": ["35-26 Farrington St (at Northern Blvd)", "Flushing, NY 11354", "United States"]}, "categories": [{"id": "4bf58dd8d48988d113941735", "name": "Korean Restaurant", "pluralName": "Korean Restaurants", "shortName": "Korean", "icon": {"prefix": "https://ss3.4sqi.net/img/categories_v2/food/korean_", "suffix": ".png"}, "primary": true}], "photos": {"count": 0, "groups": []}}, "referralId": "e-0-4d7a7310fed6a09393e5a256-43"}, {"reasons": {"count": 0, "items": [{"summary": "This spot is popular", "type": "general", "reasonName": "globalInteractionReason"}]}, "venue": {"id": "4c794cc7df08a1cdc52bda5d", "name": "Hidden Beauty, Inc.", "location": {"address": "35-11 Farrington St", "lat": 40.76635679064318, "lng": -73.83258760559968, "labeledLatLngs": [{"label": "display", "lat": 40.76635679064318, "lng": -73.83258760559968}], "distance": 222, "postalCode": "11354", "cc": "US", "city": "Flushing", "state": "NY", "country": "United States", "formattedAddress": ["35-11 Farrington St", "Flushing, NY 11354", "United States"]}, "categories": [{"id": "4bf58dd8d48988d10c951735", "name": "Cosmetics Shop", "pluralName": "Cosmetics Shops", "shortName": "Cosmetics", "icon": {"prefix": "https://ss3.4sqi.net/img/categories_v2/shops/beauty_cosmetic_", "suffix": ".png"}, "primary": true}], "photos": {"count": 0, "groups": []}}, "referralId": "e-0-4c794cc7df08a1cdc52bda5d-44"}, {"reasons": {"count": 0, "items": [{"summary": "This spot is popular", "type": "general", "reasonName": "globalInteractionReason"}]}, "venue": {"id": "57c85645498efb232eba9f6e", "name": "\u53cb\u60c5\u5ba2\u4e32 Friendship BBQ", "location": {"address": "36-22 Union St", "lat": 40.76318488598494, "lng": -73.82807837990501, "labeledLatLngs": [{"label": "display", "lat": 40.76318488598494, "lng": -73.82807837990501}], "distance": 342, "postalCode": "11354", "cc": "US", "city": "Flushing", "state": "NY", "country": "United States", "formattedAddress": ["36-22 Union St", "Flushing, NY 11354", "United States"]}, "categories": [{"id": "4bf58dd8d48988d1df931735", "name": "BBQ Joint", "pluralName": "BBQ Joints", "shortName": "BBQ", "icon": {"prefix": "https://ss3.4sqi.net/img/categories_v2/food/bbqalt_", "suffix": ".png"}, "primary": true}], "photos": {"count": 0, "groups": []}}, "referralId": "e-0-57c85645498efb232eba9f6e-45"}, {"reasons": {"count": 0, "items": [{"summary": "This spot is popular", "type": "general", "reasonName": "globalInteractionReason"}]}, "venue": {"id": "4f3c1c6ae4b0b0c434648541", "name": "Pine Village Spa", "location": {"lat": 40.76721358756296, "lng": -73.83193283664671, "labeledLatLngs": [{"label": "display", "lat": 40.76721358756296, "lng": -73.83193283664671}], "distance": 307, "postalCode": "11354", "cc": "US", "city": "Flushing", "state": "NY", "country": "United States", "formattedAddress": ["Flushing, NY 11354", "United States"]}, "categories": [{"id": "4bf58dd8d48988d1ed941735", "name": "Spa", "pluralName": "Spas", "shortName": "Spa", "icon": {"prefix": "https://ss3.4sqi.net/img/categories_v2/shops/spa_", "suffix": ".png"}, "primary": true}], "photos": {"count": 0, "groups": []}}, "referralId": "e-0-4f3c1c6ae4b0b0c434648541-46"}, {"reasons": {"count": 0, "items": [{"summary": "This spot is popular", "type": "general", "reasonName": "globalInteractionReason"}]}, "venue": {"id": "4b8a857ff964a520797032e3", "name": "Dunkin'", "location": {"address": "3402 Union St", "lat": 40.76680772060121, "lng": -73.82762872138284, "labeledLatLngs": [{"label": "display", "lat": 40.76680772060121, "lng": -73.82762872138284}], "distance": 436, "postalCode": "11354", "cc": "US", "city": "Flushing", "state": "NY", "country": "United States", "formattedAddress": ["3402 Union St", "Flushing, NY 11354", "United States"]}, "categories": [{"id": "4bf58dd8d48988d148941735", "name": "Donut Shop", "pluralName": "Donut Shops", "shortName": "Donuts", "icon": {"prefix": "https://ss3.4sqi.net/img/categories_v2/food/donuts_", "suffix": ".png"}, "primary": true}], "photos": {"count": 0, "groups": []}}, "referralId": "e-0-4b8a857ff964a520797032e3-47"}, {"reasons": {"count": 0, "items": [{"summary": "This spot is popular", "type": "general", "reasonName": "globalInteractionReason"}]}, "venue": {"id": "4e762bba1f6e072f13ff201e", "name": "Sa Sa Cosmetic & Skin Care Spa", "location": {"address": "136-79 41st Ave", "crossStreet": "Union Street", "lat": 40.7673526514512, "lng": -73.83165714380716, "labeledLatLngs": [{"label": "display", "lat": 40.7673526514512, "lng": -73.83165714380716}], "distance": 322, "postalCode": "11355", "cc": "US", "city": "Flushing", "state": "NY", "country": "United States", "formattedAddress": ["136-79 41st Ave (Union Street)", "Flushing, NY 11355", "United States"]}, "categories": [{"id": "4bf58dd8d48988d1ed941735", "name": "Spa", "pluralName": "Spas", "shortName": "Spa", "icon": {"prefix": "https://ss3.4sqi.net/img/categories_v2/shops/spa_", "suffix": ".png"}, "primary": true}], "photos": {"count": 0, "groups": []}}, "referralId": "e-0-4e762bba1f6e072f13ff201e-48"}, {"reasons": {"count": 0, "items": [{"summary": "This spot is popular", "type": "general", "reasonName": "globalInteractionReason"}]}, "venue": {"id": "57c4d090498e63a7fbe2d077", "name": "Union Sushi", "location": {"address": "36-30 Union St", "lat": 40.762875, "lng": -73.827883, "labeledLatLngs": [{"label": "display", "lat": 40.762875, "lng": -73.827883}], "distance": 372, "postalCode": "11354", "cc": "US", "city": "Flushing", "state": "NY", "country": "United States", "formattedAddress": ["36-30 Union St", "Flushing, NY 11354", "United States"]}, "categories": [{"id": "4bf58dd8d48988d1d2941735", "name": "Sushi Restaurant", "pluralName": "Sushi Restaurants", "shortName": "Sushi", "icon": {"prefix": "https://ss3.4sqi.net/img/categories_v2/food/sushi_", "suffix": ".png"}, "primary": true}], "delivery": {"id": "1940032", "url": "https://www.seamless.com/menu/union-sushi-36-30-union-st-flushing/1940032?affiliate=1131&utm_source=foursquare-affiliate-network&utm_medium=affiliate&utm_campaign=1131&utm_content=1940032", "provider": {"name": "seamless", "icon": {"prefix": "https://fastly.4sqi.net/img/general/cap/", "sizes": [40, 50], "name": "/delivery_provider_seamless_20180129.png"}}}, "photos": {"count": 0, "groups": []}}, "referralId": "e-0-57c4d090498e63a7fbe2d077-49"}, {"reasons": {"count": 0, "items": [{"summary": "This spot is popular", "type": "general", "reasonName": "globalInteractionReason"}]}, "venue": {"id": "4df4a36bb61cbd3ec01f635a", "name": "Oh! Bagels Cafe", "location": {"address": "Union St", "crossStreet": "at 34th Rd", "lat": 40.7661191764503, "lng": -73.82789432887749, "labeledLatLngs": [{"label": "display", "lat": 40.7661191764503, "lng": -73.82789432887749}], "distance": 375, "postalCode": "11354", "cc": "US", "city": "Flushing", "state": "NY", "country": "United States", "formattedAddress": ["Union St (at 34th Rd)", "Flushing, NY 11354", "United States"]}, "categories": [{"id": "4bf58dd8d48988d179941735", "name": "Bagel Shop", "pluralName": "Bagel Shops", "shortName": "Bagels", "icon": {"prefix": "https://ss3.4sqi.net/img/categories_v2/food/bagels_", "suffix": ".png"}, "primary": true}], "photos": {"count": 0, "groups": []}}, "referralId": "e-0-4df4a36bb61cbd3ec01f635a-50"}, {"reasons": {"count": 0, "items": [{"summary": "This spot is popular", "type": "general", "reasonName": "globalInteractionReason"}]}, "venue": {"id": "4ba56790f964a520ca0339e3", "name": "Janchi Janchi", "location": {"address": "138-28 Northern Blvd", "lat": 40.76380109793378, "lng": -73.82729769969163, "labeledLatLngs": [{"label": "display", "lat": 40.76380109793378, "lng": -73.82729769969163}], "distance": 384, "postalCode": "11354", "cc": "US", "city": "Flushing", "state": "NY", "country": "United States", "formattedAddress": ["138-28 Northern Blvd", "Flushing, NY 11354", "United States"]}, "categories": [{"id": "4bf58dd8d48988d113941735", "name": "Korean Restaurant", "pluralName": "Korean Restaurants", "shortName": "Korean", "icon": {"prefix": "https://ss3.4sqi.net/img/categories_v2/food/korean_", "suffix": ".png"}, "primary": true}], "photos": {"count": 0, "groups": []}}, "referralId": "e-0-4ba56790f964a520ca0339e3-51"}, {"reasons": {"count": 0, "items": [{"summary": "This spot is popular", "type": "general", "reasonName": "globalInteractionReason"}]}, "venue": {"id": "570d12d9cd10fded6917dc44", "name": "Coline Cabinetry Wholesale", "location": {"lat": 40.765961, "lng": -73.836736, "labeledLatLngs": [{"label": "display", "lat": 40.765961, "lng": -73.836736}], "distance": 450, "cc": "US", "city": "Queens", "state": "NY", "country": "United States", "formattedAddress": ["Queens, NY", "United States"]}, "categories": [{"id": "5454144b498ec1f095bff2f2", "name": "Construction & Landscaping", "pluralName": "Construction & Landscaping", "shortName": "Construction", "icon": {"prefix": "https://ss3.4sqi.net/img/categories_v2/shops/realestate_", "suffix": ".png"}, "primary": true}], "photos": {"count": 0, "groups": []}}, "referralId": "e-0-570d12d9cd10fded6917dc44-52"}, {"reasons": {"count": 0, "items": [{"summary": "This spot is popular", "type": "general", "reasonName": "globalInteractionReason"}]}, "venue": {"id": "4f0c87dee4b0cdfb02d79dc1", "name": "Orient Retreat Spa", "location": {"address": "3720 Prince St Fl 3", "crossStreet": "38th Ave", "lat": 40.76013318991135, "lng": -73.8323061700621, "labeledLatLngs": [{"label": "display", "lat": 40.76013318991135, "lng": -73.8323061700621}], "distance": 483, "postalCode": "11354", "cc": "US", "city": "Flushing", "state": "NY", "country": "United States", "formattedAddress": ["3720 Prince St Fl 3 (38th Ave)", "Flushing, NY 11354", "United States"]}, "categories": [{"id": "4bf58dd8d48988d1ed941735", "name": "Spa", "pluralName": "Spas", "shortName": "Spa", "icon": {"prefix": "https://ss3.4sqi.net/img/categories_v2/shops/spa_", "suffix": ".png"}, "primary": true}], "photos": {"count": 0, "groups": []}, "venuePage": {"id": "116926823"}}, "referralId": "e-0-4f0c87dee4b0cdfb02d79dc1-53"}, {"reasons": {"count": 0, "items": [{"summary": "This spot is popular", "type": "general", "reasonName": "globalInteractionReason"}]}, "venue": {"id": "5a6cfc53f1fdaf2a3caa5048", "name": "Desire Kitchen And Tiles", "location": {"address": "32-17 College Point Blvd", "lat": 40.76586, "lng": -73.83735, "labeledLatLngs": [{"label": "display", "lat": 40.76586, "lng": -73.83735}], "distance": 495, "postalCode": "11354", "cc": "US", "city": "Flushing", "state": "NY", "country": "United States", "formattedAddress": ["32-17 College Point Blvd", "Flushing, NY 11354", "United States"]}, "categories": [{"id": "5454144b498ec1f095bff2f2", "name": "Construction & Landscaping", "pluralName": "Construction & Landscaping", "shortName": "Construction", "icon": {"prefix": "https://ss3.4sqi.net/img/categories_v2/shops/realestate_", "suffix": ".png"}, "primary": true}], "photos": {"count": 0, "groups": []}}, "referralId": "e-0-5a6cfc53f1fdaf2a3caa5048-54"}]