[{"reasons": {"count": 0, "items": [{"summary": "This spot is popular", "type": "general", "reasonName": "globalInteractionReason"}]}, "venue": {"id": "4bb0fa35f964a5208d6f3ce3", "name": "Bonelle Pastry Shop", "location": {"address": "10830 Ascan Ave", "crossStreet": "at Austin St.", "lat": 40.717103617695436, "lng": -73.8405707302451, "labeledLatLngs": [{"label": "display", "lat": 40.717103617695436, "lng": -73.8405707302451}], "distance": 280, "postalCode": "11375", "cc": "US", "city": "Forest Hills", "state": "NY", "country": "United States", "formattedAddress": ["10830 Ascan Ave (at Austin St.)", "Forest Hills, NY 11375", "United States"]}, "categories": [{"id": "4bf58dd8d48988d16a941735", "name": "Bakery", "pluralName": "Bakeries", "shortName": "Bakery", "icon": {"prefix": "https://ss3.4sqi.net/img/categories_v2/food/bakery_", "suffix": ".png"}, "primary": true}], "photos": {"count": 0, "groups": []}}, "referralId": "e-0-4bb0fa35f964a5208d6f3ce3-0"}, {"reasons": {"count": 0, "items": [{"summary": "This spot is popular", "type": "general", "reasonName": "globalInteractionReason"}]}, "venue": {"id": "4bdc771dfed22d7fd64958c9", "name": "Flagpole Green - Forest Hills Gardens", "location": {"address": "Forest Hills", "lat": 40.716881096526066, "lng": -73.84405145419831, "labeledLatLngs": [{"label": "display", "lat": 40.716881096526066, "lng": -73.84405145419831}], "distance": 359, "postalCode": "11375", "cc": "US", "city": "Forest Hills", "state": "NY", "country": "United States", "formattedAddress": ["Forest Hills", "Forest Hills, NY 11375", "United States"]}, "categories": [{"id": "4bf58dd8d48988d164941735", "name": "Plaza", "pluralName": "Plazas", "shortName": "Plaza", "icon": {"prefix": "https://ss3.4sqi.net/img/categories_v2/parks_outdoors/plaza_", "suffix": ".png"}, "primary": true}], "photos": {"count": 0, "groups": []}}, "referralId": "e-0-4bdc771dfed22d7fd64958c9-1"}, {"reasons": {"count": 0, "items": [{"summary": "This spot is popular", "type": "general", "reasonName": "globalInteractionReason"}]}, "venue": {"id": "45ac11b0f964a5205b411fe3", "name": "Nick's Pizza", "location": {"address": "108-26 Ascan Ave", "crossStreet": "at Austin St", "lat": 40.718179971534305, "lng": -73.84069151979246, "labeledLatLngs": [{"label": "display", "lat": 40.718179971534305, "lng": -73.84069151979246}], "distance": 398, "postalCode": "11375", "cc": "US", "city": "Forest Hills", "state": "NY", "country": "United States", "formattedAddress": ["108-26 Ascan Ave (at Austin St)", "Forest Hills, NY 11375", "United States"]}, "categories": [{"id": "4bf58dd8d48988d1ca941735", "name": "Pizza Place", "pluralName": "Pizza Places", "shortName": "Pizza", "icon": {"prefix": "https://ss3.4sqi.net/img/categories_v2/food/pizza_", "suffix": ".png"}, "primary": true}], "photos": {"count": 0, "groups": []}, "venuePage": {"id": "96659872"}}, "referralId": "e-0-45ac11b0f964a5205b411fe3-2"}, {"reasons": {"count": 0, "items": [{"summary": "This spot is popular", "type": "general", "reasonName": "globalInteractionReason"}]}, "venue": {"id": "4be5ab4f2468c9286e580043", "name": "Hawthorne Park", "location": {"address": "Burns Street at Borage Place", "lat": 40.71642237092222, "lng": -73.840082832447, "labeledLatLngs": [{"label": "display", "lat": 40.71642237092222, "lng": -73.840082832447}], "distance": 216, "postalCode": "11375", "cc": "US", "city": "Forest Hills", "state": "NY", "country": "United States", "formattedAddress": ["Burns Street at Borage Place", "Forest Hills, NY 11375", "United States"]}, "categories": [{"id": "4bf58dd8d48988d163941735", "name": "Park", "pluralName": "Parks", "shortName": "Park", "icon": {"prefix": "https://ss3.4sqi.net/img/categories_v2/parks_outdoors/park_", "suffix": ".png"}, "primary": true}], "photos": {"count": 0, "groups": []}}, "referralId": "e-0-4be5ab4f2468c9286e580043-3"}, {"reasons": {"count": 0, "items": [{"summary": "This spot is popular", "type": "general", "reasonName": "globalInteractionReason"}]}, "venue": {"id": "505a3b6ae4b082424f14742d", "name": "Jack & Nellie's", "location": {"address": "108-25 Ascan Ave", "lat": 40.71819461230475, "lng": -73.84071241686942, "labeledLatLngs": [{"label": "display", "lat": 40.71819461230475, "lng": -73.84071241686942}], "distance": 399, "postalCode": "11375", "cc": "US", "city": "Forest Hills", "state": "NY", "country": "United States", "formattedAddress": ["108-25 Ascan Ave", "Forest Hills, NY 11375", "United States"]}, "categories": [{"id": "4bf58dd8d48988d1db931735", "name": "Tapas Restaurant", "pluralName": "Tapas Restaurants", "shortName": "Tapas", "icon": {"prefix": "https://ss3.4sqi.net/img/categories_v2/food/tapas_", "suffix": ".png"}, "primary": true}], "photos": {"count": 0, "groups": []}}, "referralId": "e-0-505a3b6ae4b082424f14742d-4"}, {"reasons": {"count": 0, "items": [{"summary": "This spot is popular", "type": "general", "reasonName": "globalInteractionReason"}]}, "venue": {"id": "4b79c997f964a5200a122fe3", "name": "Sakura-Ya", "location": {"address": "73-05 Austin St", "crossStreet": "at Ascan Ave", "lat": 40.71827603630656, "lng": -73.84042376984726, "labeledLatLngs": [{"label": "display", "lat": 40.71827603630656, "lng": -73.84042376984726}], "distance": 411, "postalCode": "11375", "cc": "US", "city": "Forest Hills", "state": "NY", "country": "United States", "formattedAddress": ["73-05 Austin St (at Ascan Ave)", "Forest Hills, NY 11375", "United States"]}, "categories": [{"id": "4bf58dd8d48988d1f9941735", "name": "Food & Drink Shop", "pluralName": "Food & Drink Shops", "shortName": "Food & Drink", "icon": {"prefix": "https://ss3.4sqi.net/img/categories_v2/shops/foodanddrink_", "suffix": ".png"}, "primary": true}], "photos": {"count": 0, "groups": []}}, "referralId": "e-0-4b79c997f964a5200a122fe3-5"}, {"reasons": {"count": 0, "items": [{"summary": "This spot is popular", "type": "general", "reasonName": "globalInteractionReason"}]}, "venue": {"id": "4b58ed76f964a520967328e3", "name": "Sushi Time", "location": {"address": "72-42 Austin St", "crossStreet": "btwn 72nd Rd & Ascan Ave", "lat": 40.71868261238623, "lng": -73.84145335857528, "labeledLatLngs": [{"label": "display", "lat": 40.71868261238623, "lng": -73.84145335857528}], "distance": 454, "postalCode": "11375", "cc": "US", "neighborhood": "Forest Hills", "city": "Forest Hills", "state": "NY", "country": "United States", "formattedAddress": ["72-42 Austin St (btwn 72nd Rd & Ascan Ave)", "Forest Hills, NY 11375", "United States"]}, "categories": [{"id": "4bf58dd8d48988d1d2941735", "name": "Sushi Restaurant", "pluralName": "Sushi Restaurants", "shortName": "Sushi", "icon": {"prefix": "https://ss3.4sqi.net/img/categories_v2/food/sushi_", "suffix": ".png"}, "primary": true}], "photos": {"count": 0, "groups": []}}, "referralId": "e-0-4b58ed76f964a520967328e3-6"}, {"reasons": {"count": 0, "items": [{"summary": "This spot is popular", "type": "general", "reasonName": "globalInteractionReason"}]}, "venue": {"id": "4afc8e0ff964a520d72322e3", "name": "Natural Market", "location": {"address": "72-56 Austin St", "crossStreet": "at Ascan Ave.", "lat": 40.718450066039274, "lng": -73.84076188991867, "labeledLatLngs": [{"label": "display", "lat": 40.718450066039274, "lng": -73.84076188991867}], "distance": 427, "postalCode": "11375", "cc": "US", "city": "Forest Hills", "state": "NY", "country": "United States", "formattedAddress": ["72-56 Austin St (at Ascan Ave.)", "Forest Hills, NY 11375", "United States"]}, "categories": [{"id": "4bf58dd8d48988d118951735", "name": "Grocery Store", "pluralName": "Grocery Stores", "shortName": "Grocery Store", "icon": {"prefix": "https://ss3.4sqi.net/img/categories_v2/shops/food_grocery_", "suffix": ".png"}, "primary": true}], "photos": {"count": 0, "groups": []}}, "referralId": "e-0-4afc8e0ff964a520d72322e3-7"}, {"reasons": {"count": 0, "items": [{"summary": "This spot is popular", "type": "general", "reasonName": "globalInteractionReason"}]}, "venue": {"id": "56469a83498e3f710d2490a6", "name": "Rove", "location": {"address": "72-27 Austin St", "lat": 40.71905818315889, "lng": -73.84187926477888, "labeledLatLngs": [{"label": "display", "lat": 40.71905818315889, "lng": -73.84187926477888}], "distance": 500, "postalCode": "11375", "cc": "US", "city": "Forest Hills", "state": "NY", "country": "United States", "formattedAddress": ["72-27 Austin St", "Forest Hills, NY 11375", "United States"]}, "categories": [{"id": "4bf58dd8d48988d157941735", "name": "New American Restaurant", "pluralName": "New American Restaurants", "shortName": "New American", "icon": {"prefix": "https://ss3.4sqi.net/img/categories_v2/food/newamerican_", "suffix": ".png"}, "primary": true}], "photos": {"count": 0, "groups": []}}, "referralId": "e-0-56469a83498e3f710d2490a6-8"}, {"reasons": {"count": 0, "items": [{"summary": "This spot is popular", "type": "general", "reasonName": "globalInteractionReason"}]}, "venue": {"id": "4b8cf152f964a520abe132e3", "name": "Bagels etc etc etc", "location": {"address": "108-27 Ascan Ave", "crossStreet": "Austin St", "lat": 40.718215995372496, "lng": -73.84071353973411, "labeledLatLngs": [{"label": "display", "lat": 40.718215995372496, "lng": -73.84071353973411}], "distance": 402, "postalCode": "11375", "cc": "US", "city": "Forest Hills", "state": "NY", "country": "United States", "formattedAddress": ["108-27 Ascan Ave (Austin St)", "Forest Hills, NY 11375", "United States"]}, "categories": [{"id": "4bf58dd8d48988d179941735", "name": "Bagel Shop", "pluralName": "Bagel Shops", "shortName": "Bagels", "icon": {"prefix": "https://ss3.4sqi.net/img/categories_v2/food/bagels_", "suffix": ".png"}, "primary": true}], "photos": {"count": 0, "groups": []}}, "referralId": "e-0-4b8cf152f964a520abe132e3-9"}, {"reasons": {"count": 0, "items": [{"summary": "This spot is popular", "type": "general", "reasonName": "globalInteractionReason"}]}, "venue": {"id": "5a2ac3065f68b93e2d145a2c", "name": "Xin Taste Lan Zhou Hand Pull Noodle", "location": {"address": "7238 Austin St", "lat": 40.718712990190745, "lng": -73.84155482053757, "labeledLatLngs": [{"label": "display", "lat": 40.718712990190745, "lng": -73.84155482053757}], "distance": 458, "postalCode": "11375", "cc": "US", "neighborhood": "Forest Hills", "city": "New York", "state": "NY", "country": "United States", "formattedAddress": ["7238 Austin St", "New York, NY 11375", "United States"]}, "categories": [{"id": "4bf58dd8d48988d1d1941735", "name": "Noodle House", "pluralName": "Noodle Houses", "shortName": "Noodles", "icon": {"prefix": "https://ss3.4sqi.net/img/categories_v2/food/ramen_", "suffix": ".png"}, "primary": true}], "photos": {"count": 0, "groups": []}}, "referralId": "e-0-5a2ac3065f68b93e2d145a2c-10"}, {"reasons": {"count": 0, "items": [{"summary": "This spot is popular", "type": "general", "reasonName": "globalInteractionReason"}]}, "venue": {"id": "4f32391f19836c91c7c24a46", "name": "Michaels Bagels", "location": {"address": "10827 Ascan Ave", "lat": 40.718199821536025, "lng": -73.8407061863382, "labeledLatLngs": [{"label": "display", "lat": 40.718199821536025, "lng": -73.8407061863382}], "distance": 400, "postalCode": "11375", "cc": "US", "city": "Forest Hills", "state": "NY", "country": "United States", "formattedAddress": ["10827 Ascan Ave", "Forest Hills, NY 11375", "United States"]}, "categories": [{"id": "4bf58dd8d48988d16a941735", "name": "Bakery", "pluralName": "Bakeries", "shortName": "Bakery", "icon": {"prefix": "https://ss3.4sqi.net/img/categories_v2/food/bakery_", "suffix": ".png"}, "primary": true}], "photos": {"count": 0, "groups": []}}, "referralId": "e-0-4f32391f19836c91c7c24a46-11"}, {"reasons": {"count": 0, "items": [{"summary": "This spot is popular", "type": "general", "reasonName": "globalInteractionReason"}]}, "venue": {"id": "4e4e451ebd4101d0d7a6764f", "name": "Baskin-Robbins", "location": {"address": "7302 Austin St", "lat": 40.71814087733085, "lng": -73.84047243030386, "labeledLatLngs": [{"label": "display", "lat": 40.71814087733085, "lng": -73.84047243030386}], "distance": 395, "postalCode": "11375", "cc": "US", "city": "Forest Hills", "state": "NY", "country": "United States", "formattedAddress": ["7302 Austin St", "Forest Hills, NY 11375", "United States"]}, "categories": [{"id": "4bf58dd8d48988d1c9941735", "name": "Ice Cream Shop", "pluralName": "Ice Cream Shops", "shortName": "Ice Cream", "icon": {"prefix": "https://ss3.4sqi.net/img/categories_v2/food/icecream_", "suffix": ".png"}, "primary": true}], "photos": {"count": 0, "groups": []}}, "referralId": "e-0-4e4e451ebd4101d0d7a6764f-12"}, {"reasons": {"count": 0, "items": [{"summary": "This spot is popular", "type": "general", "reasonName": "globalInteractionReason"}]}, "venue": {"id": "54bd13e4498e9ede49ec2e69", "name": "Dunkin'", "location": {"address": "7302 Austin St", "crossStreet": "at Ascan Ave", "lat": 40.7182208, "lng": -73.8404874, "labeledLatLngs": [{"label": "display", "lat": 40.7182208, "lng": -73.8404874}], "distance": 404, "postalCode": "11375", "cc": "US", "neighborhood": "Forest Hills", "city": "Forest Hills", "state": "NY", "country": "United States", "formattedAddress": ["7302 Austin St (at Ascan Ave)", "Forest Hills, NY 11375", "United States"]}, "categories": [{"id": "4bf58dd8d48988d148941735", "name": "Donut Shop", "pluralName": "Donut Shops", "shortName": "Donuts", "icon": {"prefix": "https://ss3.4sqi.net/img/categories_v2/food/donuts_", "suffix": ".png"}, "primary": true}], "delivery": {"id": "1160193", "url": "https://www.seamless.com/menu/dunkin-7302-austin-st-forest-hills/1160193?affiliate=1131&utm_source=foursquare-affiliate-network&utm_medium=affiliate&utm_campaign=1131&utm_content=1160193", "provider": {"name": "seamless", "icon": {"prefix": "https://fastly.4sqi.net/img/general/cap/", "sizes": [40, 50], "name": "/delivery_provider_seamless_20180129.png"}}}, "photos": {"count": 0, "groups": []}}, "referralId": "e-0-54bd13e4498e9ede49ec2e69-13"}, {"reasons": {"count": 0, "items": [{"summary": "This spot is popular", "type": "general", "reasonName": "globalInteractionReason"}]}, "venue": {"id": "4ba661a4f964a5204e4c39e3", "name": "Ehrenreich-Austin Playground", "location": {"address": "Austin St.", "lat": 40.71578694653614, "lng": -73.83706550044597, "labeledLatLngs": [{"label": "display", "lat": 40.71578694653614, "lng": -73.83706550044597}], "distance": 358, "cc": "US", "neighborhood": "Forest Hills", "city": "Forest Hills", "state": "NY", "country": "United States", "formattedAddress": ["Austin St.", "Forest Hills, NY", "United States"]}, "categories": [{"id": "4bf58dd8d48988d1e7941735", "name": "Playground", "pluralName": "Playgrounds", "shortName": "Playground", "icon": {"prefix": "https://ss3.4sqi.net/img/categories_v2/parks_outdoors/playground_", "suffix": ".png"}, "primary": true}], "photos": {"count": 0, "groups": []}}, "referralId": "e-0-4ba661a4f964a5204e4c39e3-14"}, {"reasons": {"count": 0, "items": [{"summary": "This spot is popular", "type": "general", "reasonName": "globalInteractionReason"}]}, "venue": {"id": "4fce31f4e4b0fb844df7a09e", "name": "Sammie's To Go", "location": {"address": "72-34 Austin St", "crossStreet": "72 Road", "lat": 40.71903258171348, "lng": -73.84154456628488, "labeledLatLngs": [{"label": "display", "lat": 40.71903258171348, "lng": -73.84154456628488}], "distance": 494, "postalCode": "11375", "cc": "US", "city": "Forest Hills", "state": "NY", "country": "United States", "formattedAddress": ["72-34 Austin St (72 Road)", "Forest Hills, NY 11375", "United States"]}, "categories": [{"id": "4bf58dd8d48988d1c5941735", "name": "Sandwich Place", "pluralName": "Sandwich Places", "shortName": "Sandwiches", "icon": {"prefix": "https://ss3.4sqi.net/img/categories_v2/food/deli_", "suffix": ".png"}, "primary": true}], "photos": {"count": 0, "groups": []}}, "referralId": "e-0-4fce31f4e4b0fb844df7a09e-15"}, {"reasons": {"count": 0, "items": [{"summary": "This spot is popular", "type": "general", "reasonName": "globalInteractionReason"}]}, "venue": {"id": "4ba3f7a9f964a520847238e3", "name": "Happy Fresh Tortilla Grill", "location": {"address": "7236 Austin St", "lat": 40.71896187740996, "lng": -73.84134177289579, "labeledLatLngs": [{"label": "display", "lat": 40.71896187740996, "lng": -73.84134177289579}], "distance": 485, "postalCode": "11375", "cc": "US", "city": "Forest Hills", "state": "NY", "country": "United States", "formattedAddress": ["7236 Austin St", "Forest Hills, NY 11375", "United States"]}, "categories": [{"id": "4bf58dd8d48988d1c1941735", "name": "Mexican Restaurant", "pluralName": "Mexican Restaurants", "shortName": "Mexican", "icon": {"prefix": "https://ss3.4sqi.net/img/categories_v2/food/mexican_", "suffix": ".png"}, "primary": true}], "photos": {"count": 0, "groups": []}}, "referralId": "e-0-4ba3f7a9f964a520847238e3-16"}, {"reasons": {"count": 0, "items": [{"summary": "This spot is popular", "type": "general", "reasonName": "globalInteractionReason"}]}, "venue": {"id": "4e396e8d14959f8577a8bba6", "name": "Subway", "location": {"address": "110-78 Queens Blvd, Store #5", "lat": 40.71863889018832, "lng": -73.83860621383712, "labeledLatLngs": [{"label": "display", "lat": 40.71863889018832, "lng": -73.83860621383712}], "distance": 492, "postalCode": "11375", "cc": "US", "city": "Forest Hills", "state": "NY", "country": "United States", "formattedAddress": ["110-78 Queens Blvd, Store #5", "Forest Hills, NY 11375", "United States"]}, "categories": [{"id": "4bf58dd8d48988d1c5941735", "name": "Sandwich Place", "pluralName": "Sandwich Places", "shortName": "Sandwiches", "icon": {"prefix": "https://ss3.4sqi.net/img/categories_v2/food/deli_", "suffix": ".png"}, "primary": true}], "photos": {"count": 0, "groups": []}}, "referralId": "e-0-4e396e8d14959f8577a8bba6-17"}, {"reasons": {"count": 0, "items": [{"summary": "This spot is popular", "type": "general", "reasonName": "globalInteractionReason"}]}, "venue": {"id": "4b6c92d1f964a52014442ce3", "name": "Rite Aid", "location": {"address": "110-88 Queens Blvd", "lat": 40.718438, "lng": -73.838177, "labeledLatLngs": [{"label": "display", "lat": 40.718438, "lng": -73.838177}], "distance": 488, "postalCode": "11375", "cc": "US", "city": "Forest Hills", "state": "NY", "country": "United States", "formattedAddress": ["110-88 Queens Blvd", "Forest Hills, NY 11375", "United States"]}, "categories": [{"id": "4bf58dd8d48988d10f951735", "name": "Pharmacy", "pluralName": "Pharmacies", "shortName": "Pharmacy", "icon": {"prefix": "https://ss3.4sqi.net/img/categories_v2/shops/pharmacy_", "suffix": ".png"}, "primary": true}], "photos": {"count": 0, "groups": []}}, "referralId": "e-0-4b6c92d1f964a52014442ce3-18"}, {"reasons": {"count": 0, "items": [{"summary": "This spot is popular", "type": "general", "reasonName": "globalInteractionReason"}]}, "venue": {"id": "5db358c8ebfc3c000858710b", "name": "Walgreens", "location": {"address": "110-88 Queens Blvd", "lat": 40.71843, "lng": -73.838142, "labeledLatLngs": [{"label": "display", "lat": 40.71843, "lng": -73.838142}], "distance": 489, "postalCode": "11375", "cc": "US", "city": "Forest Hills", "state": "NY", "country": "United States", "formattedAddress": ["110-88 Queens Blvd", "Forest Hills, NY 11375", "United States"]}, "categories": [{"id": "4bf58dd8d48988d10f951735", "name": "Pharmacy", "pluralName": "Pharmacies", "shortName": "Pharmacy", "icon": {"prefix": "https://ss3.4sqi.net/img/categories_v2/shops/pharmacy_", "suffix": ".png"}, "primary": true}], "photos": {"count": 0, "groups": []}}, "referralId": "e-0-5db358c8ebfc3c000858710b-19"}, {"reasons": {"count": 0, "items": [{"summary": "This spot is popular", "type": "general", "reasonName": "globalInteractionReason"}]}, "venue": {"id": "4ba2caa5f964a520791938e3", "name": "CTown Supermarkets", "location": {"address": "72-48 Austin St", "crossStreet": "72nd Rd", "lat": 40.71855715650813, "lng": -73.84109884500504, "labeledLatLngs": [{"label": "display", "lat": 40.71855715650813, "lng": -73.84109884500504}], "distance": 439, "postalCode": "11375", "cc": "US", "city": "Forest Hills", "state": "NY", "country": "United States", "formattedAddress": ["72-48 Austin St (72nd Rd)", "Forest Hills, NY 11375", "United States"]}, "categories": [{"id": "4bf58dd8d48988d118951735", "name": "Grocery Store", "pluralName": "Grocery Stores", "shortName": "Grocery Store", "icon": {"prefix": "https://ss3.4sqi.net/img/categories_v2/shops/food_grocery_", "suffix": ".png"}, "primary": true}], "photos": {"count": 0, "groups": []}}, "referralId": "e-0-4ba2caa5f964a520791938e3-20"}, {"reasons": {"count": 0, "items": [{"summary": "This spot is popular", "type": "general", "reasonName": "globalInteractionReason"}]}, "venue": {"id": "4f32a2fc19836c91c7eb1992", "name": "Albertos Restaurant", "location": {"address": "9831 Metropolitan Ave", "lat": 40.710902, "lng": -73.84316, "labeledLatLngs": [{"label": "display", "lat": 40.710902, "lng": -73.84316}], "distance": 450, "postalCode": "11375", "cc": "US", "city": "Forest Hills", "state": "NY", "country": "United States", "formattedAddress": ["9831 Metropolitan Ave", "Forest Hills, NY 11375", "United States"]}, "categories": [{"id": "4d4b7105d754a06374d81259", "name": "Food", "pluralName": "Food", "shortName": "Food", "icon": {"prefix": "https://ss3.4sqi.net/img/categories_v2/food/default_", "suffix": ".png"}, "primary": true}], "photos": {"count": 0, "groups": []}}, "referralId": "e-0-4f32a2fc19836c91c7eb1992-21"}, {"reasons": {"count": 0, "items": [{"summary": "This spot is popular", "type": "general", "reasonName": "globalInteractionReason"}]}, "venue": {"id": "4e25eb72091a817e3dd6cebc", "name": "DMITRY Ties", "location": {"address": "72-28 Austin St", "lat": 40.71894880656658, "lng": -73.84136438369751, "labeledLatLngs": [{"label": "display", "lat": 40.71894880656658, "lng": -73.84136438369751}], "distance": 483, "postalCode": "11375", "cc": "US", "city": "Forest Hills", "state": "NY", "country": "United States", "formattedAddress": ["72-28 Austin St", "Forest Hills, NY 11375", "United States"]}, "categories": [{"id": "4bf58dd8d48988d106951735", "name": "Men's Store", "pluralName": "Men's Stores", "shortName": "Men's Store", "icon": {"prefix": "https://ss3.4sqi.net/img/categories_v2/shops/apparel_men_", "suffix": ".png"}, "primary": true}], "photos": {"count": 0, "groups": []}}, "referralId": "e-0-4e25eb72091a817e3dd6cebc-22"}, {"reasons": {"count": 0, "items": [{"summary": "This spot is popular", "type": "general", "reasonName": "globalInteractionReason"}]}, "venue": {"id": "58c4a2df5e78962f922bace2", "name": "Hibachi", "location": {"lat": 40.71817, "lng": -73.83745, "labeledLatLngs": [{"label": "display", "lat": 40.71817, "lng": -73.83745}], "distance": 497, "postalCode": "11375", "cc": "US", "city": "Queens", "state": "NY", "country": "United States", "formattedAddress": ["Queens, NY 11375", "United States"]}, "categories": [{"id": "4bf58dd8d48988d1c4941735", "name": "Restaurant", "pluralName": "Restaurants", "shortName": "Restaurant", "icon": {"prefix": "https://ss3.4sqi.net/img/categories_v2/food/default_", "suffix": ".png"}, "primary": true}], "photos": {"count": 0, "groups": []}}, "referralId": "e-0-58c4a2df5e78962f922bace2-23"}]