[{"reasons": {"count": 0, "items": [{"summary": "This spot is popular", "type": "general", "reasonName": "globalInteractionReason"}]}, "venue": {"id": "525c26bc11d277827d14468f", "name": "Campania Coal Fired Pizza", "location": {"address": "9824 4th Ave", "crossStreet": "btwn 99th St & Marine Ave", "lat": 40.613465980586724, "lng": -74.0332371696127, "labeledLatLngs": [{"label": "display", "lat": 40.613465980586724, "lng": -74.0332371696127}, {"label": "entrance", "lat": 40.613558, "lng": -74.033235}], "distance": 179, "postalCode": "11209", "cc": "US", "city": "Brooklyn", "state": "NY", "country": "United States", "formattedAddress": ["9824 4th Ave (btwn 99th St & Marine Ave)", "Brooklyn, NY 11209", "United States"]}, "categories": [{"id": "4bf58dd8d48988d110941735", "name": "Italian Restaurant", "pluralName": "Italian Restaurants", "shortName": "Italian", "icon": {"prefix": "https://ss3.4sqi.net/img/categories_v2/food/italian_", "suffix": ".png"}, "primary": true}], "photos": {"count": 0, "groups": []}, "venuePage": {"id": "76258133"}}, "referralId": "e-0-525c26bc11d277827d14468f-0"}, {"reasons": {"count": 0, "items": [{"summary": "This spot is popular", "type": "general", "reasonName": "globalInteractionReason"}]}, "venue": {"id": "4bd3644da8b3a593abe3695f", "name": "Hunter's Steak & Ale House", "location": {"address": "9404 4th Ave", "lat": 40.61660563943881, "lng": -74.03098585281313, "labeledLatLngs": [{"label": "display", "lat": 40.61660563943881, "lng": -74.03098585281313}, {"label": "entrance", "lat": 40.616612, "lng": -74.03107}], "distance": 221, "postalCode": "11209", "cc": "US", "city": "Brooklyn", "state": "NY", "country": "United States", "formattedAddress": ["9404 4th Ave", "Brooklyn, NY 11209", "United States"]}, "categories": [{"id": "4bf58dd8d48988d1cc941735", "name": "Steakhouse", "pluralName": "Steakhouses", "shortName": "Steakhouse", "icon": {"prefix": "https://ss3.4sqi.net/img/categories_v2/food/steakhouse_", "suffix": ".png"}, "primary": true}], "photos": {"count": 0, "groups": []}, "venuePage": {"id": "67128271"}}, "referralId": "e-0-4bd3644da8b3a593abe3695f-1"}, {"reasons": {"count": 0, "items": [{"summary": "This spot is popular", "type": "general", "reasonName": "globalInteractionReason"}]}, "venue": {"id": "4cab2ef644a8224bb2892b40", "name": "Espresso Pizza", "location": {"address": "9403 5th Ave", "lat": 40.61639003656646, "lng": -74.03070991895045, "labeledLatLngs": [{"label": "display", "lat": 40.61639003656646, "lng": -74.03070991895045}, {"label": "entrance", "lat": 40.616323, "lng": -74.030488}], "distance": 210, "postalCode": "11209", "cc": "US", "city": "Brooklyn", "state": "NY", "country": "United States", "formattedAddress": ["9403 5th Ave", "Brooklyn, NY 11209", "United States"]}, "categories": [{"id": "4bf58dd8d48988d1ca941735", "name": "Pizza Place", "pluralName": "Pizza Places", "shortName": "Pizza", "icon": {"prefix": "https://ss3.4sqi.net/img/categories_v2/food/pizza_", "suffix": ".png"}, "primary": true}], "photos": {"count": 0, "groups": []}}, "referralId": "e-0-4cab2ef644a8224bb2892b40-2"}, {"reasons": {"count": 0, "items": [{"summary": "This spot is popular", "type": "general", "reasonName": "globalInteractionReason"}]}, "venue": {"id": "541af677498eaa82cbfe98e2", "name": "Pasticceria Rocco", "location": {"address": "9402 4th Ave", "crossStreet": "94th Street", "lat": 40.6167545562255, "lng": -74.03085571890367, "labeledLatLngs": [{"label": "display", "lat": 40.6167545562255, "lng": -74.03085571890367}, {"label": "entrance", "lat": 40.616665, "lng": -74.031048}], "distance": 240, "postalCode": "11209", "cc": "US", "city": "Brooklyn", "state": "NY", "country": "United States", "formattedAddress": ["9402 4th Ave (94th Street)", "Brooklyn, NY 11209", "United States"]}, "categories": [{"id": "4bf58dd8d48988d16a941735", "name": "Bakery", "pluralName": "Bakeries", "shortName": "Bakery", "icon": {"prefix": "https://ss3.4sqi.net/img/categories_v2/food/bakery_", "suffix": ".png"}, "primary": true}], "delivery": {"id": "353336", "url": "https://www.seamless.com/menu/pasticceria-rocco-9402-4th-ave-brooklyn/353336?affiliate=1131&utm_source=foursquare-affiliate-network&utm_medium=affiliate&utm_campaign=1131&utm_content=353336", "provider": {"name": "seamless", "icon": {"prefix": "https://fastly.4sqi.net/img/general/cap/", "sizes": [40, 50], "name": "/delivery_provider_seamless_20180129.png"}}}, "photos": {"count": 0, "groups": []}}, "referralId": "e-0-541af677498eaa82cbfe98e2-3"}, {"reasons": {"count": 0, "items": [{"summary": "This spot is popular", "type": "general", "reasonName": "globalInteractionReason"}]}, "venue": {"id": "4ac78a4ff964a520dcb720e3", "name": "Narrows Cafe", "location": {"address": "10001 4th Ave", "crossStreet": "at 100th St", "lat": 40.612752069375105, "lng": -74.03368088173326, "labeledLatLngs": [{"label": "display", "lat": 40.612752069375105, "lng": -74.03368088173326}, {"label": "entrance", "lat": 40.612662, "lng": -74.03356}], "distance": 266, "postalCode": "11209", "cc": "US", "neighborhood": "Bay Ridge", "city": "Brooklyn", "state": "NY", "country": "United States", "formattedAddress": ["10001 4th Ave (at 100th St)", "Brooklyn, NY 11209", "United States"]}, "categories": [{"id": "4bf58dd8d48988d16d941735", "name": "Caf\u00e9", "pluralName": "Caf\u00e9s", "shortName": "Caf\u00e9", "icon": {"prefix": "https://ss3.4sqi.net/img/categories_v2/food/cafe_", "suffix": ".png"}, "primary": true}], "photos": {"count": 0, "groups": []}}, "referralId": "e-0-4ac78a4ff964a520dcb720e3-4"}, {"reasons": {"count": 0, "items": [{"summary": "This spot is popular", "type": "general", "reasonName": "globalInteractionReason"}]}, "venue": {"id": "5081cf66e4b0b8e84399ecdf", "name": "The Wicked Monk", "location": {"address": "9510 3rd Ave", "crossStreet": "Btwn 95th & 96th St", "lat": 40.617128601968595, "lng": -74.03384858127117, "labeledLatLngs": [{"label": "display", "lat": 40.617128601968595, "lng": -74.03384858127117}, {"label": "entrance", "lat": 40.617012, "lng": -74.03389}], "distance": 306, "postalCode": "11209", "cc": "US", "city": "Brooklyn", "state": "NY", "country": "United States", "formattedAddress": ["9510 3rd Ave (Btwn 95th & 96th St)", "Brooklyn, NY 11209", "United States"]}, "categories": [{"id": "4bf58dd8d48988d116941735", "name": "Bar", "pluralName": "Bars", "shortName": "Bar", "icon": {"prefix": "https://ss3.4sqi.net/img/categories_v2/nightlife/pub_", "suffix": ".png"}, "primary": true}], "photos": {"count": 0, "groups": []}, "venuePage": {"id": "65201467"}}, "referralId": "e-0-5081cf66e4b0b8e84399ecdf-5"}, {"reasons": {"count": 0, "items": [{"summary": "This spot is popular", "type": "general", "reasonName": "globalInteractionReason"}]}, "venue": {"id": "4ccc513fee23a1431b021ea8", "name": "Shobu Sushi", "location": {"address": "9427 5th Ave", "crossStreet": "95th St", "lat": 40.61599613867154, "lng": -74.03102593223436, "labeledLatLngs": [{"label": "display", "lat": 40.61599613867154, "lng": -74.03102593223436}, {"label": "entrance", "lat": 40.615887, "lng": -74.030859}], "distance": 158, "postalCode": "11209", "cc": "US", "city": "Brooklyn", "state": "NY", "country": "United States", "formattedAddress": ["9427 5th Ave (95th St)", "Brooklyn, NY 11209", "United States"]}, "categories": [{"id": "4bf58dd8d48988d1d2941735", "name": "Sushi Restaurant", "pluralName": "Sushi Restaurants", "shortName": "Sushi", "icon": {"prefix": "https://ss3.4sqi.net/img/categories_v2/food/sushi_", "suffix": ".png"}, "primary": true}], "photos": {"count": 0, "groups": []}}, "referralId": "e-0-4ccc513fee23a1431b021ea8-6"}, {"reasons": {"count": 0, "items": [{"summary": "This spot is popular", "type": "general", "reasonName": "globalInteractionReason"}]}, "venue": {"id": "4e91ffb64901733aac84d36d", "name": "Swan Beauty", "location": {"address": "9515 3rd Ave", "crossStreet": "btwn 95th and 96th street", "lat": 40.61667, "lng": -74.03354300000001, "labeledLatLngs": [{"label": "display", "lat": 40.61667, "lng": -74.03354300000001}, {"label": "entrance", "lat": 40.61673, "lng": -74.033662}], "distance": 249, "postalCode": "11209", "cc": "US", "city": "Brooklyn", "state": "NY", "country": "United States", "formattedAddress": ["9515 3rd Ave (btwn 95th and 96th street)", "Brooklyn, NY 11209", "United States"]}, "categories": [{"id": "54541900498ea6ccd0202697", "name": "Health & Beauty Service", "pluralName": "Health & Beauty Services", "shortName": "Health & Beauty", "icon": {"prefix": "https://ss3.4sqi.net/img/categories_v2/shops/salon_barber_", "suffix": ".png"}, "primary": true}], "photos": {"count": 0, "groups": []}}, "referralId": "e-0-4e91ffb64901733aac84d36d-7"}, {"reasons": {"count": 0, "items": [{"summary": "This spot is popular", "type": "general", "reasonName": "globalInteractionReason"}]}, "venue": {"id": "520fb9d811d293022672d543", "name": "Met Fresh Supermarket", "location": {"address": "9606 3rd Ave", "crossStreet": "at 96th St.", "lat": 40.61652838683681, "lng": -74.03400301572239, "labeledLatLngs": [{"label": "display", "lat": 40.61652838683681, "lng": -74.03400301572239}], "distance": 260, "postalCode": "11209", "cc": "US", "city": "Brooklyn", "state": "NY", "country": "United States", "formattedAddress": ["9606 3rd Ave (at 96th St.)", "Brooklyn, NY 11209", "United States"]}, "categories": [{"id": "52f2ab2ebcbc57f1066b8b46", "name": "Supermarket", "pluralName": "Supermarkets", "shortName": "Supermarket", "icon": {"prefix": "https://ss3.4sqi.net/img/categories_v2/shops/food_grocery_", "suffix": ".png"}, "primary": true}], "photos": {"count": 0, "groups": []}}, "referralId": "e-0-520fb9d811d293022672d543-8"}, {"reasons": {"count": 0, "items": [{"summary": "This spot is popular", "type": "general", "reasonName": "globalInteractionReason"}]}, "venue": {"id": "55ff210c498ef9c10335dc0b", "name": "Positano", "location": {"address": "10018 4th Ave", "crossStreet": "101st Street", "lat": 40.612384661710394, "lng": -74.03405892854195, "labeledLatLngs": [{"label": "display", "lat": 40.612384661710394, "lng": -74.03405892854195}], "distance": 318, "postalCode": "11209", "cc": "US", "city": "Brooklyn", "state": "NY", "country": "United States", "formattedAddress": ["10018 4th Ave (101st Street)", "Brooklyn, NY 11209", "United States"]}, "categories": [{"id": "4bf58dd8d48988d110941735", "name": "Italian Restaurant", "pluralName": "Italian Restaurants", "shortName": "Italian", "icon": {"prefix": "https://ss3.4sqi.net/img/categories_v2/food/italian_", "suffix": ".png"}, "primary": true}], "photos": {"count": 0, "groups": []}}, "referralId": "e-0-55ff210c498ef9c10335dc0b-9"}, {"reasons": {"count": 0, "items": [{"summary": "This spot is popular", "type": "general", "reasonName": "globalInteractionReason"}]}, "venue": {"id": "4c2678eef1272d7f43a986c5", "name": "Fushimi", "location": {"address": "9316 4th Ave", "crossStreet": "btwn 93rd & 94th St", "lat": 40.61727, "lng": -74.03101, "labeledLatLngs": [{"label": "display", "lat": 40.61727, "lng": -74.03101}, {"label": "entrance", "lat": 40.61725, "lng": -74.030831}], "distance": 290, "postalCode": "11209", "cc": "US", "city": "Brooklyn", "state": "NY", "country": "United States", "formattedAddress": ["9316 4th Ave (btwn 93rd & 94th St)", "Brooklyn, NY 11209", "United States"]}, "categories": [{"id": "4bf58dd8d48988d111941735", "name": "Japanese Restaurant", "pluralName": "Japanese Restaurants", "shortName": "Japanese", "icon": {"prefix": "https://ss3.4sqi.net/img/categories_v2/food/japanese_", "suffix": ".png"}, "primary": true}], "delivery": {"id": "283750", "url": "https://www.seamless.com/menu/fushimi-modern-japanese-cuisine-9316-4th-ave-brooklyn/283750?affiliate=1131&utm_source=foursquare-affiliate-network&utm_medium=affiliate&utm_campaign=1131&utm_content=283750", "provider": {"name": "seamless", "icon": {"prefix": "https://fastly.4sqi.net/img/general/cap/", "sizes": [40, 50], "name": "/delivery_provider_seamless_20180129.png"}}}, "photos": {"count": 0, "groups": []}}, "referralId": "e-0-4c2678eef1272d7f43a986c5-10"}, {"reasons": {"count": 0, "items": [{"summary": "This spot is popular", "type": "general", "reasonName": "globalInteractionReason"}]}, "venue": {"id": "51068fb7183f01adb53c3586", "name": "The Lock Yard", "location": {"address": "9221 5th Ave", "crossStreet": "92nd Street", "lat": 40.61736777473677, "lng": -74.02964943412427, "labeledLatLngs": [{"label": "display", "lat": 40.61736777473677, "lng": -74.02964943412427}], "distance": 350, "postalCode": "11209", "cc": "US", "city": "Brooklyn", "state": "NY", "country": "United States", "formattedAddress": ["9221 5th Ave (92nd Street)", "Brooklyn, NY 11209", "United States"]}, "categories": [{"id": "4bf58dd8d48988d117941735", "name": "Beer Garden", "pluralName": "Beer Gardens", "shortName": "Beer Garden", "icon": {"prefix": "https://ss3.4sqi.net/img/categories_v2/nightlife/beergarden_", "suffix": ".png"}, "primary": true}], "delivery": {"id": "1199742", "url": "https://www.seamless.com/menu/lock-yard-9221-5th-ave-brooklyn/1199742?affiliate=1131&utm_source=foursquare-affiliate-network&utm_medium=affiliate&utm_campaign=1131&utm_content=1199742", "provider": {"name": "seamless", "icon": {"prefix": "https://fastly.4sqi.net/img/general/cap/", "sizes": [40, 50], "name": "/delivery_provider_seamless_20180129.png"}}}, "photos": {"count": 0, "groups": []}, "venuePage": {"id": "90039676"}}, "referralId": "e-0-51068fb7183f01adb53c3586-11"}, {"reasons": {"count": 0, "items": [{"summary": "This spot is popular", "type": "general", "reasonName": "globalInteractionReason"}]}, "venue": {"id": "4c0bc2d6ffb8c9b65dac6d61", "name": "TD Bank", "location": {"address": "9904 4th Ave", "lat": 40.6134121, "lng": -74.0334809, "labeledLatLngs": [{"label": "display", "lat": 40.6134121, "lng": -74.0334809}], "distance": 197, "postalCode": "11209", "cc": "US", "city": "Brooklyn", "state": "NY", "country": "United States", "formattedAddress": ["9904 4th Ave", "Brooklyn, NY 11209", "United States"]}, "categories": [{"id": "4bf58dd8d48988d10a951735", "name": "Bank", "pluralName": "Banks", "shortName": "Bank", "icon": {"prefix": "https://ss3.4sqi.net/img/categories_v2/shops/financial_", "suffix": ".png"}, "primary": true}], "photos": {"count": 0, "groups": []}}, "referralId": "e-0-4c0bc2d6ffb8c9b65dac6d61-12"}, {"reasons": {"count": 0, "items": [{"summary": "This spot is popular", "type": "general", "reasonName": "globalInteractionReason"}]}, "venue": {"id": "4bd02803046076b0dd6e6f71", "name": "John Paul Jones Park ('Cannonball Park')", "location": {"address": "10108 4th Ave", "crossStreet": "101st St.", "lat": 40.61154096139938, "lng": -74.03437001026933, "labeledLatLngs": [{"label": "display", "lat": 40.61154096139938, "lng": -74.03437001026933}, {"label": "entrance", "lat": 40.612148, "lng": -74.034446}], "distance": 412, "postalCode": "11209", "cc": "US", "city": "Brooklyn", "state": "NY", "country": "United States", "formattedAddress": ["10108 4th Ave (101st St.)", "Brooklyn, NY 11209", "United States"]}, "categories": [{"id": "4bf58dd8d48988d163941735", "name": "Park", "pluralName": "Parks", "shortName": "Park", "icon": {"prefix": "https://ss3.4sqi.net/img/categories_v2/parks_outdoors/park_", "suffix": ".png"}, "primary": true}], "photos": {"count": 0, "groups": []}}, "referralId": "e-0-4bd02803046076b0dd6e6f71-13"}, {"reasons": {"count": 0, "items": [{"summary": "This spot is popular", "type": "general", "reasonName": "globalInteractionReason"}]}, "venue": {"id": "53d40ebc498e47aac13714b5", "name": "Townhouse 275", "location": {"address": "275 94th St", "crossStreet": "3rd Ave & 94th St", "lat": 40.61803762118631, "lng": -74.03361264495949, "labeledLatLngs": [{"label": "display", "lat": 40.61803762118631, "lng": -74.03361264495949}, {"label": "entrance", "lat": 40.618105, "lng": -74.033557}], "distance": 389, "postalCode": "11209", "cc": "US", "city": "Brooklyn", "state": "NY", "country": "United States", "formattedAddress": ["275 94th St (3rd Ave & 94th St)", "Brooklyn, NY 11209", "United States"]}, "categories": [{"id": "4bf58dd8d48988d11e941735", "name": "Cocktail Bar", "pluralName": "Cocktail Bars", "shortName": "Cocktail", "icon": {"prefix": "https://ss3.4sqi.net/img/categories_v2/nightlife/cocktails_", "suffix": ".png"}, "primary": true}], "photos": {"count": 0, "groups": []}, "venuePage": {"id": "91259455"}}, "referralId": "e-0-53d40ebc498e47aac13714b5-14"}, {"reasons": {"count": 0, "items": [{"summary": "This spot is popular", "type": "general", "reasonName": "globalInteractionReason"}]}, "venue": {"id": "4b47598ef964a520852f26e3", "name": "Philadelphia Grille", "location": {"address": "10001 4th Ave", "crossStreet": "at 100th St", "lat": 40.61258952250344, "lng": -74.03387566751624, "labeledLatLngs": [{"label": "display", "lat": 40.61258952250344, "lng": -74.03387566751624}, {"label": "entrance", "lat": 40.612637, "lng": -74.034038}], "distance": 290, "postalCode": "11209", "cc": "US", "city": "Brooklyn", "state": "NY", "country": "United States", "formattedAddress": ["10001 4th Ave (at 100th St)", "Brooklyn, NY 11209", "United States"]}, "categories": [{"id": "4bf58dd8d48988d1c5941735", "name": "Sandwich Place", "pluralName": "Sandwich Places", "shortName": "Sandwiches", "icon": {"prefix": "https://ss3.4sqi.net/img/categories_v2/food/deli_", "suffix": ".png"}, "primary": true}], "photos": {"count": 0, "groups": []}, "venuePage": {"id": "73887064"}}, "referralId": "e-0-4b47598ef964a520852f26e3-15"}, {"reasons": {"count": 0, "items": [{"summary": "This spot is popular", "type": "general", "reasonName": "globalInteractionReason"}]}, "venue": {"id": "4c264b32f7ced13ae215266d", "name": "Harbor Fitness", "location": {"address": "9215 4th Ave", "crossStreet": "btwn 92nd & 93rd St", "lat": 40.61779715448358, "lng": -74.0302906614112, "labeledLatLngs": [{"label": "display", "lat": 40.61779715448358, "lng": -74.0302906614112}, {"label": "entrance", "lat": 40.617712, "lng": -74.030236}], "distance": 366, "postalCode": "11209", "cc": "US", "city": "Brooklyn", "state": "NY", "country": "United States", "formattedAddress": ["9215 4th Ave (btwn 92nd & 93rd St)", "Brooklyn, NY 11209", "United States"]}, "categories": [{"id": "4bf58dd8d48988d175941735", "name": "Gym / Fitness Center", "pluralName": "Gyms or Fitness Centers", "shortName": "Gym / Fitness", "icon": {"prefix": "https://ss3.4sqi.net/img/categories_v2/building/gym_", "suffix": ".png"}, "primary": true}], "photos": {"count": 0, "groups": []}, "venuePage": {"id": "77651407"}}, "referralId": "e-0-4c264b32f7ced13ae215266d-16"}, {"reasons": {"count": 0, "items": [{"summary": "This spot is popular", "type": "general", "reasonName": "globalInteractionReason"}]}, "venue": {"id": "4ad1418ff964a520b9dd20e3", "name": "Embers Steakhouse", "location": {"address": "9519 3rd Ave", "crossStreet": "95 st. & 96 st.", "lat": 40.616647979772125, "lng": -74.03381535262155, "labeledLatLngs": [{"label": "display", "lat": 40.616647979772125, "lng": -74.03381535262155}, {"label": "entrance", "lat": 40.616625, "lng": -74.033703}], "distance": 260, "postalCode": "11209", "cc": "US", "city": "Brooklyn", "state": "NY", "country": "United States", "formattedAddress": ["9519 3rd Ave (95 st. & 96 st.)", "Brooklyn, NY 11209", "United States"]}, "categories": [{"id": "4bf58dd8d48988d1cc941735", "name": "Steakhouse", "pluralName": "Steakhouses", "shortName": "Steakhouse", "icon": {"prefix": "https://ss3.4sqi.net/img/categories_v2/food/steakhouse_", "suffix": ".png"}, "primary": true}], "delivery": {"id": "550948", "url": "https://www.seamless.com/menu/embers-steakhouse-9519-3rd-ave-brooklyn/550948?affiliate=1131&utm_source=foursquare-affiliate-network&utm_medium=affiliate&utm_campaign=1131&utm_content=550948", "provider": {"name": "seamless", "icon": {"prefix": "https://fastly.4sqi.net/img/general/cap/", "sizes": [40, 50], "name": "/delivery_provider_seamless_20180129.png"}}}, "photos": {"count": 0, "groups": []}}, "referralId": "e-0-4ad1418ff964a520b9dd20e3-17"}, {"reasons": {"count": 0, "items": [{"summary": "This spot is popular", "type": "general", "reasonName": "globalInteractionReason"}]}, "venue": {"id": "4ccda5efb571b60cfa17da65", "name": "Bagel Supreme", "location": {"address": "9401 5th Ave", "crossStreet": "94th St", "lat": 40.616525270741164, "lng": -74.03052334487757, "labeledLatLngs": [{"label": "display", "lat": 40.616525270741164, "lng": -74.03052334487757}, {"label": "entrance", "lat": 40.616367, "lng": -74.03045}], "distance": 231, "postalCode": "11209", "cc": "US", "city": "Brooklyn", "state": "NY", "country": "United States", "formattedAddress": ["9401 5th Ave (94th St)", "Brooklyn, NY 11209", "United States"]}, "categories": [{"id": "4bf58dd8d48988d179941735", "name": "Bagel Shop", "pluralName": "Bagel Shops", "shortName": "Bagels", "icon": {"prefix": "https://ss3.4sqi.net/img/categories_v2/food/bagels_", "suffix": ".png"}, "primary": true}], "photos": {"count": 0, "groups": []}}, "referralId": "e-0-4ccda5efb571b60cfa17da65-18"}, {"reasons": {"count": 0, "items": [{"summary": "This spot is popular", "type": "general", "reasonName": "globalInteractionReason"}]}, "venue": {"id": "4c49b9d83013a59369d722e3", "name": "Win Hing Chinese Cuisine", "location": {"address": "9816 4th Ave", "lat": 40.61366348516215, "lng": -74.03285773564411, "labeledLatLngs": [{"label": "display", "lat": 40.61366348516215, "lng": -74.03285773564411}, {"label": "entrance", "lat": 40.613736, "lng": -74.033092}], "distance": 143, "postalCode": "11209", "cc": "US", "city": "Brooklyn", "state": "NY", "country": "United States", "formattedAddress": ["9816 4th Ave", "Brooklyn, NY 11209", "United States"]}, "categories": [{"id": "4bf58dd8d48988d142941735", "name": "Asian Restaurant", "pluralName": "Asian Restaurants", "shortName": "Asian", "icon": {"prefix": "https://ss3.4sqi.net/img/categories_v2/food/asian_", "suffix": ".png"}, "primary": true}], "delivery": {"id": "341978", "url": "https://www.seamless.com/menu/win-hing-chinese--mexican-restaurant-9816-4th-ave-brooklyn/341978?affiliate=1131&utm_source=foursquare-affiliate-network&utm_medium=affiliate&utm_campaign=1131&utm_content=341978", "provider": {"name": "seamless", "icon": {"prefix": "https://fastly.4sqi.net/img/general/cap/", "sizes": [40, 50], "name": "/delivery_provider_seamless_20180129.png"}}}, "photos": {"count": 0, "groups": []}}, "referralId": "e-0-4c49b9d83013a59369d722e3-19"}, {"reasons": {"count": 0, "items": [{"summary": "This spot is popular", "type": "general", "reasonName": "globalInteractionReason"}]}, "venue": {"id": "4b512cbaf964a520f64527e3", "name": "ha ha chinese", "location": {"address": "9212 4th Ave", "crossStreet": "92nd + 93rd and 4th ave", "lat": 40.618022230237116, "lng": -74.03030968368607, "labeledLatLngs": [{"label": "display", "lat": 40.618022230237116, "lng": -74.03030968368607}, {"label": "entrance", "lat": 40.618092, "lng": -74.030468}], "distance": 388, "postalCode": "11209", "cc": "US", "city": "Brooklyn", "state": "NY", "country": "United States", "formattedAddress": ["9212 4th Ave (92nd + 93rd and 4th ave)", "Brooklyn, NY 11209", "United States"]}, "categories": [{"id": "4bf58dd8d48988d145941735", "name": "Chinese Restaurant", "pluralName": "Chinese Restaurants", "shortName": "Chinese", "icon": {"prefix": "https://ss3.4sqi.net/img/categories_v2/food/asian_", "suffix": ".png"}, "primary": true}], "photos": {"count": 0, "groups": []}}, "referralId": "e-0-4b512cbaf964a520f64527e3-20"}, {"reasons": {"count": 0, "items": [{"summary": "This spot is popular", "type": "general", "reasonName": "globalInteractionReason"}]}, "venue": {"id": "4bcde1c5b6c49c74651b9691", "name": "CKO Kickboxing", "location": {"address": "9106 4th Ave", "crossStreet": "btwn 91st & 92nd St", "lat": 40.61888165555084, "lng": -74.03021335601807, "labeledLatLngs": [{"label": "display", "lat": 40.61888165555084, "lng": -74.03021335601807}, {"label": "entrance", "lat": 40.618939, "lng": -74.030118}], "distance": 481, "postalCode": "11209", "cc": "US", "city": "Brooklyn", "state": "NY", "country": "United States", "formattedAddress": ["9106 4th Ave (btwn 91st & 92nd St)", "Brooklyn, NY 11209", "United States"]}, "categories": [{"id": "4bf58dd8d48988d175941735", "name": "Gym / Fitness Center", "pluralName": "Gyms or Fitness Centers", "shortName": "Gym / Fitness", "icon": {"prefix": "https://ss3.4sqi.net/img/categories_v2/building/gym_", "suffix": ".png"}, "primary": true}], "photos": {"count": 0, "groups": []}, "venuePage": {"id": "65698318"}}, "referralId": "e-0-4bcde1c5b6c49c74651b9691-21"}, {"reasons": {"count": 0, "items": [{"summary": "This spot is popular", "type": "general", "reasonName": "globalInteractionReason"}]}, "venue": {"id": "4b787d8ef964a520edd12ee3", "name": "Kitty Kiernans", "location": {"address": "9715 3rd Ave", "crossStreet": "btwn Marine Ave. & 97th St.", "lat": 40.615291889159934, "lng": -74.03440950433362, "labeledLatLngs": [{"label": "display", "lat": 40.615291889159934, "lng": -74.03440950433362}], "distance": 213, "postalCode": "11209", "cc": "US", "city": "Brooklyn", "state": "NY", "country": "United States", "formattedAddress": ["9715 3rd Ave (btwn Marine Ave. & 97th St.)", "Brooklyn, NY 11209", "United States"]}, "categories": [{"id": "4bf58dd8d48988d11b941735", "name": "Pub", "pluralName": "Pubs", "shortName": "Pub", "icon": {"prefix": "https://ss3.4sqi.net/img/categories_v2/nightlife/pub_", "suffix": ".png"}, "primary": true}], "photos": {"count": 0, "groups": []}}, "referralId": "e-0-4b787d8ef964a520edd12ee3-22"}, {"reasons": {"count": 0, "items": [{"summary": "This spot is popular", "type": "general", "reasonName": "globalInteractionReason"}]}, "venue": {"id": "4b991f43f964a520d06235e3", "name": "Dunkin'", "location": {"address": "8704 4th Ave", "lat": 40.6171989, "lng": -74.0303955, "labeledLatLngs": [{"label": "display", "lat": 40.6171989, "lng": -74.0303955}], "distance": 301, "postalCode": "11209", "cc": "US", "city": "Brooklyn", "state": "NY", "country": "United States", "formattedAddress": ["8704 4th Ave", "Brooklyn, NY 11209", "United States"]}, "categories": [{"id": "4bf58dd8d48988d148941735", "name": "Donut Shop", "pluralName": "Donut Shops", "shortName": "Donuts", "icon": {"prefix": "https://ss3.4sqi.net/img/categories_v2/food/donuts_", "suffix": ".png"}, "primary": true}], "delivery": {"id": "1162377", "url": "https://www.seamless.com/menu/dunkin-8704-4th-ave-brooklyn/1162377?affiliate=1131&utm_source=foursquare-affiliate-network&utm_medium=affiliate&utm_campaign=1131&utm_content=1162377", "provider": {"name": "seamless", "icon": {"prefix": "https://fastly.4sqi.net/img/general/cap/", "sizes": [40, 50], "name": "/delivery_provider_seamless_20180129.png"}}}, "photos": {"count": 0, "groups": []}}, "referralId": "e-0-4b991f43f964a520d06235e3-23"}, {"reasons": {"count": 0, "items": [{"summary": "This spot is popular", "type": "general", "reasonName": "globalInteractionReason"}]}, "venue": {"id": "4bf975094a67c9282ae326cf", "name": "Energy Fuel", "location": {"address": "9522 4th Ave", "lat": 40.61553072769499, "lng": -74.03142578696837, "labeledLatLngs": [{"label": "display", "lat": 40.61553072769499, "lng": -74.03142578696837}, {"label": "entrance", "lat": 40.615546, "lng": -74.031543}], "distance": 96, "postalCode": "11209", "cc": "US", "city": "Brooklyn", "state": "NY", "country": "United States", "formattedAddress": ["9522 4th Ave", "Brooklyn, NY 11209", "United States"]}, "categories": [{"id": "4bf58dd8d48988d112941735", "name": "Juice Bar", "pluralName": "Juice Bars", "shortName": "Juice Bar", "icon": {"prefix": "https://ss3.4sqi.net/img/categories_v2/food/juicebar_", "suffix": ".png"}, "primary": true}], "delivery": {"id": "270726", "url": "https://www.seamless.com/menu/energy-fuel-9522-4th-ave-brooklyn/270726?affiliate=1131&utm_source=foursquare-affiliate-network&utm_medium=affiliate&utm_campaign=1131&utm_content=270726", "provider": {"name": "seamless", "icon": {"prefix": "https://fastly.4sqi.net/img/general/cap/", "sizes": [40, 50], "name": "/delivery_provider_seamless_20180129.png"}}}, "photos": {"count": 0, "groups": []}}, "referralId": "e-0-4bf975094a67c9282ae326cf-24"}, {"reasons": {"count": 0, "items": [{"summary": "This spot is popular", "type": "general", "reasonName": "globalInteractionReason"}]}, "venue": {"id": "4b78d2d1f964a520b1e32ee3", "name": "Kelly's Tavern", "location": {"address": "9259 4th Ave", "lat": 40.61682672452675, "lng": -74.03041655237989, "labeledLatLngs": [{"label": "display", "lat": 40.61682672452675, "lng": -74.03041655237989}, {"label": "entrance", "lat": 40.61689, "lng": -74.030576}], "distance": 264, "postalCode": "11209", "cc": "US", "city": "Brooklyn", "state": "NY", "country": "United States", "formattedAddress": ["9259 4th Ave", "Brooklyn, NY 11209", "United States"]}, "categories": [{"id": "4bf58dd8d48988d11b941735", "name": "Pub", "pluralName": "Pubs", "shortName": "Pub", "icon": {"prefix": "https://ss3.4sqi.net/img/categories_v2/nightlife/pub_", "suffix": ".png"}, "primary": true}], "photos": {"count": 0, "groups": []}}, "referralId": "e-0-4b78d2d1f964a520b1e32ee3-25"}, {"reasons": {"count": 0, "items": [{"summary": "This spot is popular", "type": "general", "reasonName": "globalInteractionReason"}]}, "venue": {"id": "4aadde31f964a5208a6120e3", "name": "Fort Hamilton Diner", "location": {"address": "9502 4th Ave", "crossStreet": "95 Street", "lat": 40.61607407726939, "lng": -74.03113460437135, "labeledLatLngs": [{"label": "display", "lat": 40.61607407726939, "lng": -74.03113460437135}, {"label": "entrance", "lat": 40.615962, "lng": -74.031335}], "distance": 161, "postalCode": "11209", "cc": "US", "city": "Brooklyn", "state": "NY", "country": "United States", "formattedAddress": ["9502 4th Ave (95 Street)", "Brooklyn, NY 11209", "United States"]}, "categories": [{"id": "4bf58dd8d48988d147941735", "name": "Diner", "pluralName": "Diners", "shortName": "Diner", "icon": {"prefix": "https://ss3.4sqi.net/img/categories_v2/food/diner_", "suffix": ".png"}, "primary": true}], "photos": {"count": 0, "groups": []}}, "referralId": "e-0-4aadde31f964a5208a6120e3-26"}, {"reasons": {"count": 0, "items": [{"summary": "This spot is popular", "type": "general", "reasonName": "globalInteractionReason"}]}, "venue": {"id": "5c1fcf496e69af0025c038c8", "name": "The Common", "location": {"address": "9406 3rd Ave", "crossStreet": "94th st", "lat": 40.617844, "lng": -74.033624, "labeledLatLngs": [{"label": "display", "lat": 40.617844, "lng": -74.033624}], "distance": 369, "postalCode": "11209", "cc": "US", "neighborhood": "Bay Ridge", "city": "Brooklyn", "state": "NY", "country": "United States", "formattedAddress": ["9406 3rd Ave (94th st)", "Brooklyn, NY 11209", "United States"]}, "categories": [{"id": "4bf58dd8d48988d1c4941735", "name": "Restaurant", "pluralName": "Restaurants", "shortName": "Restaurant", "icon": {"prefix": "https://ss3.4sqi.net/img/categories_v2/food/default_", "suffix": ".png"}, "primary": true}], "photos": {"count": 0, "groups": []}}, "referralId": "e-0-5c1fcf496e69af0025c038c8-27"}, {"reasons": {"count": 0, "items": [{"summary": "This spot is popular", "type": "general", "reasonName": "globalInteractionReason"}]}, "venue": {"id": "51675793e4b0cb9353996685", "name": "Suki Sushi Bay Ridge", "location": {"address": "9208 3rd Ave", "lat": 40.61910674029615, "lng": -74.03284785146936, "labeledLatLngs": [{"label": "display", "lat": 40.61910674029615, "lng": -74.03284785146936}, {"label": "entrance", "lat": 40.619095, "lng": -74.033001}], "distance": 488, "postalCode": "11209", "cc": "US", "city": "Brooklyn", "state": "NY", "country": "United States", "formattedAddress": ["9208 3rd Ave", "Brooklyn, NY 11209", "United States"]}, "categories": [{"id": "4bf58dd8d48988d111941735", "name": "Japanese Restaurant", "pluralName": "Japanese Restaurants", "shortName": "Japanese", "icon": {"prefix": "https://ss3.4sqi.net/img/categories_v2/food/japanese_", "suffix": ".png"}, "primary": true}], "delivery": {"id": "331680", "url": "https://www.seamless.com/menu/suki-sushi-restaurant-9208-3rd-ave-brooklyn/331680?affiliate=1131&utm_source=foursquare-affiliate-network&utm_medium=affiliate&utm_campaign=1131&utm_content=331680", "provider": {"name": "seamless", "icon": {"prefix": "https://fastly.4sqi.net/img/general/cap/", "sizes": [40, 50], "name": "/delivery_provider_seamless_20180129.png"}}}, "photos": {"count": 0, "groups": []}, "venuePage": {"id": "78128181"}}, "referralId": "e-0-51675793e4b0cb9353996685-28"}, {"reasons": {"count": 0, "items": [{"summary": "This spot is popular", "type": "general", "reasonName": "globalInteractionReason"}]}, "venue": {"id": "53f686a4498e7b09596566b4", "name": "Campo Bello Restaurant 2", "location": {"address": "9128 5th Ave", "lat": 40.61806, "lng": -74.029366, "labeledLatLngs": [{"label": "display", "lat": 40.61806, "lng": -74.029366}], "distance": 427, "postalCode": "11209", "cc": "US", "city": "Brooklyn", "state": "NY", "country": "United States", "formattedAddress": ["9128 5th Ave", "Brooklyn, NY 11209", "United States"]}, "categories": [{"id": "4bf58dd8d48988d150941735", "name": "Spanish Restaurant", "pluralName": "Spanish Restaurants", "shortName": "Spanish", "icon": {"prefix": "https://ss3.4sqi.net/img/categories_v2/food/spanish_", "suffix": ".png"}, "primary": true}], "delivery": {"id": "302987", "url": "https://www.seamless.com/menu/campo-bello-restaurant-2-9128-5th-avenue-brooklyn/302987?affiliate=1131&utm_source=foursquare-affiliate-network&utm_medium=affiliate&utm_campaign=1131&utm_content=302987", "provider": {"name": "seamless", "icon": {"prefix": "https://fastly.4sqi.net/img/general/cap/", "sizes": [40, 50], "name": "/delivery_provider_seamless_20180129.png"}}}, "photos": {"count": 0, "groups": []}}, "referralId": "e-0-53f686a4498e7b09596566b4-29"}, {"reasons": {"count": 0, "items": [{"summary": "This spot is popular", "type": "general", "reasonName": "globalInteractionReason"}]}, "venue": {"id": "3fd66200f964a52006e31ee3", "name": "Delia's Lounge & Restaurant", "location": {"address": "9224 3rd Ave", "crossStreet": "at 93rd St.", "lat": 40.6187462397852, "lng": -74.0331474738176, "labeledLatLngs": [{"label": "display", "lat": 40.6187462397852, "lng": -74.0331474738176}, {"label": "entrance", "lat": 40.618787, "lng": -74.033136}], "distance": 453, "postalCode": "11209", "cc": "US", "city": "Brooklyn", "state": "NY", "country": "United States", "formattedAddress": ["9224 3rd Ave (at 93rd St.)", "Brooklyn, NY 11209", "United States"]}, "categories": [{"id": "4bf58dd8d48988d11e941735", "name": "Cocktail Bar", "pluralName": "Cocktail Bars", "shortName": "Cocktail", "icon": {"prefix": "https://ss3.4sqi.net/img/categories_v2/nightlife/cocktails_", "suffix": ".png"}, "primary": true}], "delivery": {"id": "562847", "url": "https://www.seamless.com/menu/delias-lounge--restaurant-9224-3rd-ave-brooklyn/562847?affiliate=1131&utm_source=foursquare-affiliate-network&utm_medium=affiliate&utm_campaign=1131&utm_content=562847", "provider": {"name": "seamless", "icon": {"prefix": "https://fastly.4sqi.net/img/general/cap/", "sizes": [40, 50], "name": "/delivery_provider_seamless_20180129.png"}}}, "photos": {"count": 0, "groups": []}, "venuePage": {"id": "32703213"}}, "referralId": "e-0-3fd66200f964a52006e31ee3-30"}, {"reasons": {"count": 0, "items": [{"summary": "This spot is popular", "type": "general", "reasonName": "globalInteractionReason"}]}, "venue": {"id": "4be48cd1477d9c74ff93e62d", "name": "The UPS Store", "location": {"address": "9322 3rd Avenue", "lat": 40.6181886, "lng": -74.0335205, "labeledLatLngs": [{"label": "display", "lat": 40.6181886, "lng": -74.0335205}, {"label": "entrance", "lat": 40.61815, "lng": -74.033382}], "distance": 402, "postalCode": "11209", "cc": "US", "city": "Brooklyn", "state": "NY", "country": "United States", "formattedAddress": ["9322 3rd Avenue", "Brooklyn, NY 11209", "United States"]}, "categories": [{"id": "52f2ab2ebcbc57f1066b8b1f", "name": "Shipping Store", "pluralName": "Shipping Stores", "shortName": "Shipping Store", "icon": {"prefix": "https://ss3.4sqi.net/img/categories_v2/shops/default_", "suffix": ".png"}, "primary": true}], "photos": {"count": 0, "groups": []}}, "referralId": "e-0-4be48cd1477d9c74ff93e62d-31"}, {"reasons": {"count": 0, "items": [{"summary": "This spot is popular", "type": "general", "reasonName": "globalInteractionReason"}]}, "venue": {"id": "4c76655bff1fb60cedb9f8a7", "name": "Henry Hardes Liquor", "location": {"address": "9314 3rd Ave", "lat": 40.6183230697663, "lng": -74.03323391085166, "labeledLatLngs": [{"label": "display", "lat": 40.6183230697663, "lng": -74.03323391085166}, {"label": "entrance", "lat": 40.618308, "lng": -74.033317}], "distance": 409, "postalCode": "11209", "cc": "US", "city": "Brooklyn", "state": "NY", "country": "United States", "formattedAddress": ["9314 3rd Ave", "Brooklyn, NY 11209", "United States"]}, "categories": [{"id": "4bf58dd8d48988d119951735", "name": "Wine Shop", "pluralName": "Wine Shops", "shortName": "Wine Shop", "icon": {"prefix": "https://ss3.4sqi.net/img/categories_v2/shops/food_wineshop_", "suffix": ".png"}, "primary": true}], "photos": {"count": 0, "groups": []}}, "referralId": "e-0-4c76655bff1fb60cedb9f8a7-32"}, {"reasons": {"count": 0, "items": [{"summary": "This spot is popular", "type": "general", "reasonName": "globalInteractionReason"}]}, "venue": {"id": "52bb513f498ed5d17e37d5d3", "name": "Taqueria El Puente", "location": {"address": "9300 5th Ave", "lat": 40.61686836218163, "lng": -74.0302707783991, "labeledLatLngs": [{"label": "display", "lat": 40.61686836218163, "lng": -74.0302707783991}, {"label": "entrance", "lat": 40.616855, "lng": -74.030365}], "distance": 274, "postalCode": "11209", "cc": "US", "city": "Brooklyn", "state": "NY", "country": "United States", "formattedAddress": ["9300 5th Ave", "Brooklyn, NY 11209", "United States"]}, "categories": [{"id": "4bf58dd8d48988d1c1941735", "name": "Mexican Restaurant", "pluralName": "Mexican Restaurants", "shortName": "Mexican", "icon": {"prefix": "https://ss3.4sqi.net/img/categories_v2/food/mexican_", "suffix": ".png"}, "primary": true}], "delivery": {"id": "398572", "url": "https://www.seamless.com/menu/taqueria-el-puente-9300-5th-ave-brooklyn/398572?affiliate=1131&utm_source=foursquare-affiliate-network&utm_medium=affiliate&utm_campaign=1131&utm_content=398572", "provider": {"name": "seamless", "icon": {"prefix": "https://fastly.4sqi.net/img/general/cap/", "sizes": [40, 50], "name": "/delivery_provider_seamless_20180129.png"}}}, "photos": {"count": 0, "groups": []}, "venuePage": {"id": "74526551"}}, "referralId": "e-0-52bb513f498ed5d17e37d5d3-33"}, {"reasons": {"count": 0, "items": [{"summary": "This spot is popular", "type": "general", "reasonName": "globalInteractionReason"}]}, "venue": {"id": "4e4e4519bd4101d0d7a675b7", "name": "Baskin-Robbins", "location": {"address": "9243 4th Ave", "lat": 40.6171997989858, "lng": -74.03025990381923, "labeledLatLngs": [{"label": "display", "lat": 40.6171997989858, "lng": -74.03025990381923}], "distance": 307, "postalCode": "11209", "cc": "US", "city": "Brooklyn", "state": "NY", "country": "United States", "formattedAddress": ["9243 4th Ave", "Brooklyn, NY 11209", "United States"]}, "categories": [{"id": "4bf58dd8d48988d1c9941735", "name": "Ice Cream Shop", "pluralName": "Ice Cream Shops", "shortName": "Ice Cream", "icon": {"prefix": "https://ss3.4sqi.net/img/categories_v2/food/icecream_", "suffix": ".png"}, "primary": true}], "photos": {"count": 0, "groups": []}}, "referralId": "e-0-4e4e4519bd4101d0d7a675b7-34"}, {"reasons": {"count": 0, "items": [{"summary": "This spot is popular", "type": "general", "reasonName": "globalInteractionReason"}]}, "venue": {"id": "4cd588f2886cb60caf8e8489", "name": "Panda Sport", "location": {"address": "9213 5th Ave", "lat": 40.617567590507335, "lng": -74.02942288365904, "labeledLatLngs": [{"label": "display", "lat": 40.617567590507335, "lng": -74.02942288365904}, {"label": "entrance", "lat": 40.617529, "lng": -74.029456}], "distance": 379, "postalCode": "11209", "cc": "US", "city": "Brooklyn", "state": "NY", "country": "United States", "formattedAddress": ["9213 5th Ave", "Brooklyn, NY 11209", "United States"]}, "categories": [{"id": "4bf58dd8d48988d1f1941735", "name": "Board Shop", "pluralName": "Board Shops", "shortName": "Board Shop", "icon": {"prefix": "https://ss3.4sqi.net/img/categories_v2/parks_outdoors/surfspot_", "suffix": ".png"}, "primary": true}], "photos": {"count": 0, "groups": []}}, "referralId": "e-0-4cd588f2886cb60caf8e8489-35"}, {"reasons": {"count": 0, "items": [{"summary": "This spot is popular", "type": "general", "reasonName": "globalInteractionReason"}]}, "venue": {"id": "4ea806886da12824bd7821e4", "name": "Goustaro", "location": {"address": "9226 4th Ave", "lat": 40.61777409693701, "lng": -74.03045118611712, "labeledLatLngs": [{"label": "display", "lat": 40.61777409693701, "lng": -74.03045118611712}], "distance": 358, "postalCode": "11209", "cc": "US", "city": "Brooklyn", "state": "NY", "country": "United States", "formattedAddress": ["9226 4th Ave", "Brooklyn, NY 11209", "United States"]}, "categories": [{"id": "4bf58dd8d48988d146941735", "name": "Deli / Bodega", "pluralName": "Delis / Bodegas", "shortName": "Deli / Bodega", "icon": {"prefix": "https://ss3.4sqi.net/img/categories_v2/food/deli_", "suffix": ".png"}, "primary": true}], "photos": {"count": 0, "groups": []}, "venuePage": {"id": "75563051"}}, "referralId": "e-0-4ea806886da12824bd7821e4-36"}, {"reasons": {"count": 0, "items": [{"summary": "This spot is popular", "type": "general", "reasonName": "globalInteractionReason"}]}, "venue": {"id": "4bc3519d461576b07e727e32", "name": "Mike's Deli", "location": {"address": "9510 4th Ave", "lat": 40.61579551918278, "lng": -74.03133436513558, "labeledLatLngs": [{"label": "display", "lat": 40.61579551918278, "lng": -74.03133436513558}, {"label": "entrance", "lat": 40.615785, "lng": -74.031408}], "distance": 126, "postalCode": "11209", "cc": "US", "city": "Brooklyn", "state": "NY", "country": "United States", "formattedAddress": ["9510 4th Ave", "Brooklyn, NY 11209", "United States"]}, "categories": [{"id": "4bf58dd8d48988d146941735", "name": "Deli / Bodega", "pluralName": "Delis / Bodegas", "shortName": "Deli / Bodega", "icon": {"prefix": "https://ss3.4sqi.net/img/categories_v2/food/deli_", "suffix": ".png"}, "primary": true}], "photos": {"count": 0, "groups": []}}, "referralId": "e-0-4bc3519d461576b07e727e32-37"}, {"reasons": {"count": 0, "items": [{"summary": "This spot is popular", "type": "general", "reasonName": "globalInteractionReason"}]}, "venue": {"id": "4e1ce68fb0fb93d2d05df622", "name": "Redbox", "location": {"address": "9408 3rd Ave", "lat": 40.617530813718126, "lng": -74.03362304167999, "labeledLatLngs": [{"label": "display", "lat": 40.617530813718126, "lng": -74.03362304167999}], "distance": 337, "postalCode": "11209", "cc": "US", "city": "Brooklyn", "state": "NY", "country": "United States", "formattedAddress": ["9408 3rd Ave", "Brooklyn, NY 11209", "United States"]}, "categories": [{"id": "4bf58dd8d48988d126951735", "name": "Video Store", "pluralName": "Video Stores", "shortName": "Video Store", "icon": {"prefix": "https://ss3.4sqi.net/img/categories_v2/shops/video_", "suffix": ".png"}, "primary": true}], "photos": {"count": 0, "groups": []}}, "referralId": "e-0-4e1ce68fb0fb93d2d05df622-38"}, {"reasons": {"count": 0, "items": [{"summary": "This spot is popular", "type": "general", "reasonName": "globalInteractionReason"}]}, "venue": {"id": "4ba3fa59f964a520c27338e3", "name": "UNO Pizzeria & Grill", "location": {"address": "9201 4th Ave", "lat": 40.618065157595105, "lng": -74.03002782198652, "labeledLatLngs": [{"label": "display", "lat": 40.618065157595105, "lng": -74.03002782198652}], "distance": 402, "postalCode": "11209", "cc": "US", "city": "Brooklyn", "state": "NY", "country": "United States", "formattedAddress": ["9201 4th Ave", "Brooklyn, NY 11209", "United States"]}, "categories": [{"id": "4bf58dd8d48988d14e941735", "name": "American Restaurant", "pluralName": "American Restaurants", "shortName": "American", "icon": {"prefix": "https://ss3.4sqi.net/img/categories_v2/food/default_", "suffix": ".png"}, "primary": true}], "delivery": {"id": "1048194", "url": "https://www.seamless.com/menu/uno-pizzeria--grill-9201-4th-ave-brooklyn/1048194?affiliate=1131&utm_source=foursquare-affiliate-network&utm_medium=affiliate&utm_campaign=1131&utm_content=1048194", "provider": {"name": "seamless", "icon": {"prefix": "https://fastly.4sqi.net/img/general/cap/", "sizes": [40, 50], "name": "/delivery_provider_seamless_20180129.png"}}}, "photos": {"count": 0, "groups": []}}, "referralId": "e-0-4ba3fa59f964a520c27338e3-39"}, {"reasons": {"count": 0, "items": [{"summary": "This spot is popular", "type": "general", "reasonName": "globalInteractionReason"}]}, "venue": {"id": "4b9abf1cf964a5200ad235e3", "name": "Subway", "location": {"address": "9206 4th Ave", "crossStreet": "at 92nd St.", "lat": 40.61823465668435, "lng": -74.03046693005945, "labeledLatLngs": [{"label": "display", "lat": 40.61823465668435, "lng": -74.03046693005945}, {"label": "entrance", "lat": 40.618242, "lng": -74.030406}], "distance": 406, "postalCode": "11209", "cc": "US", "city": "Brooklyn", "state": "NY", "country": "United States", "formattedAddress": ["9206 4th Ave (at 92nd St.)", "Brooklyn, NY 11209", "United States"]}, "categories": [{"id": "4bf58dd8d48988d1c5941735", "name": "Sandwich Place", "pluralName": "Sandwich Places", "shortName": "Sandwiches", "icon": {"prefix": "https://ss3.4sqi.net/img/categories_v2/food/deli_", "suffix": ".png"}, "primary": true}], "delivery": {"id": "1141299", "url": "https://www.seamless.com/menu/subway-9206-4th-ave-brooklyn/1141299?affiliate=1131&utm_source=foursquare-affiliate-network&utm_medium=affiliate&utm_campaign=1131&utm_content=1141299", "provider": {"name": "seamless", "icon": {"prefix": "https://fastly.4sqi.net/img/general/cap/", "sizes": [40, 50], "name": "/delivery_provider_seamless_20180129.png"}}}, "photos": {"count": 0, "groups": []}}, "referralId": "e-0-4b9abf1cf964a5200ad235e3-40"}, {"reasons": {"count": 0, "items": [{"summary": "This spot is popular", "type": "general", "reasonName": "globalInteractionReason"}]}, "venue": {"id": "4c12b35a1b5cef3b46cdedc4", "name": "Chase Bank", "location": {"address": "9313 3rd Ave", "crossStreet": "3rd Avenue between 93rd and 94th Streets", "lat": 40.618263, "lng": -74.032871, "labeledLatLngs": [{"label": "entrance", "lat": 40.618329, "lng": -74.033009}, {"label": "display", "lat": 40.618263, "lng": -74.032871}], "distance": 396, "postalCode": "11209", "cc": "US", "city": "Brooklyn", "state": "NY", "country": "United States", "formattedAddress": ["9313 3rd Ave (3rd Avenue between 93rd and 94th Streets)", "Brooklyn, NY 11209", "United States"]}, "categories": [{"id": "4bf58dd8d48988d10a951735", "name": "Bank", "pluralName": "Banks", "shortName": "Bank", "icon": {"prefix": "https://ss3.4sqi.net/img/categories_v2/shops/financial_", "suffix": ".png"}, "primary": true}], "photos": {"count": 0, "groups": []}}, "referralId": "e-0-4c12b35a1b5cef3b46cdedc4-41"}, {"reasons": {"count": 0, "items": [{"summary": "This spot is popular", "type": "general", "reasonName": "globalInteractionReason"}]}, "venue": {"id": "4c326dda3896e21eb78ce890", "name": "KFC", "location": {"address": "9201 5th Ave", "crossStreet": "92nd St", "lat": 40.617688262312846, "lng": -74.02915522862844, "labeledLatLngs": [{"label": "display", "lat": 40.617688262312846, "lng": -74.02915522862844}, {"label": "entrance", "lat": 40.617736, "lng": -74.029278}], "distance": 403, "postalCode": "11209", "cc": "US", "city": "Brooklyn", "state": "NY", "country": "United States", "formattedAddress": ["9201 5th Ave (92nd St)", "Brooklyn, NY 11209", "United States"]}, "categories": [{"id": "4d4ae6fc7a7b7dea34424761", "name": "Fried Chicken Joint", "pluralName": "Fried Chicken Joints", "shortName": "Fried Chicken", "icon": {"prefix": "https://ss3.4sqi.net/img/categories_v2/food/friedchicken_", "suffix": ".png"}, "primary": true}], "delivery": {"id": "1006322", "url": "https://www.seamless.com/menu/kfc-9201-5th-ave-brooklyn/1006322?affiliate=1131&utm_source=foursquare-affiliate-network&utm_medium=affiliate&utm_campaign=1131&utm_content=1006322", "provider": {"name": "seamless", "icon": {"prefix": "https://fastly.4sqi.net/img/general/cap/", "sizes": [40, 50], "name": "/delivery_provider_seamless_20180129.png"}}}, "photos": {"count": 0, "groups": []}}, "referralId": "e-0-4c326dda3896e21eb78ce890-42"}, {"reasons": {"count": 0, "items": [{"summary": "This spot is popular", "type": "general", "reasonName": "globalInteractionReason"}]}, "venue": {"id": "4c61d131de1b2d7f7ed5e070", "name": "Mid China", "location": {"address": "9409 5th Ave", "lat": 40.616124, "lng": -74.030493, "labeledLatLngs": [{"label": "display", "lat": 40.616124, "lng": -74.030493}, {"label": "entrance", "lat": 40.616187, "lng": -74.030607}], "distance": 196, "postalCode": "11209", "cc": "US", "city": "Brooklyn", "state": "NY", "country": "United States", "formattedAddress": ["9409 5th Ave", "Brooklyn, NY 11209", "United States"]}, "categories": [{"id": "4bf58dd8d48988d145941735", "name": "Chinese Restaurant", "pluralName": "Chinese Restaurants", "shortName": "Chinese", "icon": {"prefix": "https://ss3.4sqi.net/img/categories_v2/food/asian_", "suffix": ".png"}, "primary": true}], "delivery": {"id": "309467", "url": "https://www.seamless.com/menu/mid-china-9409-5th-ave-brooklyn/309467?affiliate=1131&utm_source=foursquare-affiliate-network&utm_medium=affiliate&utm_campaign=1131&utm_content=309467", "provider": {"name": "seamless", "icon": {"prefix": "https://fastly.4sqi.net/img/general/cap/", "sizes": [40, 50], "name": "/delivery_provider_seamless_20180129.png"}}}, "photos": {"count": 0, "groups": []}}, "referralId": "e-0-4c61d131de1b2d7f7ed5e070-43"}, {"reasons": {"count": 0, "items": [{"summary": "This spot is popular", "type": "general", "reasonName": "globalInteractionReason"}]}, "venue": {"id": "4c3267de66e40f47ea7bc68b", "name": "J J Carty Playground", "location": {"lat": 40.61454789512698, "lng": -74.02924626057636, "labeledLatLngs": [{"label": "display", "lat": 40.61454789512698, "lng": -74.02924626057636}], "distance": 232, "postalCode": "11209", "cc": "US", "city": "Brooklyn", "state": "NY", "country": "United States", "formattedAddress": ["Brooklyn, NY 11209", "United States"]}, "categories": [{"id": "4bf58dd8d48988d1e7941735", "name": "Playground", "pluralName": "Playgrounds", "shortName": "Playground", "icon": {"prefix": "https://ss3.4sqi.net/img/categories_v2/parks_outdoors/playground_", "suffix": ".png"}, "primary": true}], "photos": {"count": 0, "groups": []}}, "referralId": "e-0-4c3267de66e40f47ea7bc68b-44"}, {"reasons": {"count": 0, "items": [{"summary": "This spot is popular", "type": "general", "reasonName": "globalInteractionReason"}]}, "venue": {"id": "4c65a37d19f3c9b6bfae9dff", "name": "Landys Pizzeria", "location": {"address": "9052 Fort Hamilton Pkwy", "lat": 40.617394, "lng": -74.027464, "labeledLatLngs": [{"label": "display", "lat": 40.617394, "lng": -74.027464}, {"label": "entrance", "lat": 40.617342, "lng": -74.027366}], "distance": 480, "postalCode": "11209", "cc": "US", "city": "Brooklyn", "state": "NY", "country": "United States", "formattedAddress": ["9052 Fort Hamilton Pkwy", "Brooklyn, NY 11209", "United States"]}, "categories": [{"id": "4bf58dd8d48988d1ca941735", "name": "Pizza Place", "pluralName": "Pizza Places", "shortName": "Pizza", "icon": {"prefix": "https://ss3.4sqi.net/img/categories_v2/food/pizza_", "suffix": ".png"}, "primary": true}], "photos": {"count": 0, "groups": []}}, "referralId": "e-0-4c65a37d19f3c9b6bfae9dff-45"}, {"reasons": {"count": 0, "items": [{"summary": "This spot is popular", "type": "general", "reasonName": "globalInteractionReason"}]}, "venue": {"id": "4c9e3555542b224b9baef19f", "name": "Shore Road Delicatessen", "location": {"address": "9316 3rd Ave", "crossStreet": "93rd Street", "lat": 40.61822782362527, "lng": -74.03325007071861, "labeledLatLngs": [{"label": "display", "lat": 40.61822782362527, "lng": -74.03325007071861}, {"label": "entrance", "lat": 40.618255, "lng": -74.033338}], "distance": 399, "postalCode": "11209", "cc": "US", "city": "Brooklyn", "state": "NY", "country": "United States", "formattedAddress": ["9316 3rd Ave (93rd Street)", "Brooklyn, NY 11209", "United States"]}, "categories": [{"id": "4bf58dd8d48988d1c5941735", "name": "Sandwich Place", "pluralName": "Sandwich Places", "shortName": "Sandwiches", "icon": {"prefix": "https://ss3.4sqi.net/img/categories_v2/food/deli_", "suffix": ".png"}, "primary": true}], "photos": {"count": 0, "groups": []}, "venuePage": {"id": "73897572"}}, "referralId": "e-0-4c9e3555542b224b9baef19f-46"}, {"reasons": {"count": 0, "items": [{"summary": "This spot is popular", "type": "general", "reasonName": "globalInteractionReason"}]}, "venue": {"id": "4b64ed78f964a52053da2ae3", "name": "Walgreens", "location": {"address": "9408 3rd Ave", "lat": 40.61773540642656, "lng": -74.03378874063486, "labeledLatLngs": [{"label": "display", "lat": 40.61773540642656, "lng": -74.03378874063486}, {"label": "entrance", "lat": 40.617667, "lng": -74.033587}], "distance": 363, "postalCode": "11209", "cc": "US", "city": "Brooklyn", "state": "NY", "country": "United States", "formattedAddress": ["9408 3rd Ave", "Brooklyn, NY 11209", "United States"]}, "categories": [{"id": "4bf58dd8d48988d10f951735", "name": "Pharmacy", "pluralName": "Pharmacies", "shortName": "Pharmacy", "icon": {"prefix": "https://ss3.4sqi.net/img/categories_v2/shops/pharmacy_", "suffix": ".png"}, "primary": true}], "photos": {"count": 0, "groups": []}}, "referralId": "e-0-4b64ed78f964a52053da2ae3-47"}, {"reasons": {"count": 0, "items": [{"summary": "This spot is popular", "type": "general", "reasonName": "globalInteractionReason"}]}, "venue": {"id": "4bcb14e80687ef3b0ff6dccc", "name": "Cathys Place", "location": {"address": "9526 4th Ave", "lat": 40.615487377018916, "lng": -74.03151588297307, "labeledLatLngs": [{"label": "display", "lat": 40.615487377018916, "lng": -74.03151588297307}, {"label": "entrance", "lat": 40.615499, "lng": -74.031583}], "distance": 89, "postalCode": "11209", "cc": "US", "city": "Brooklyn", "state": "NY", "country": "United States", "formattedAddress": ["9526 4th Ave", "Brooklyn, NY 11209", "United States"]}, "categories": [{"id": "4bf58dd8d48988d147941735", "name": "Diner", "pluralName": "Diners", "shortName": "Diner", "icon": {"prefix": "https://ss3.4sqi.net/img/categories_v2/food/diner_", "suffix": ".png"}, "primary": true}], "photos": {"count": 0, "groups": []}}, "referralId": "e-0-4bcb14e80687ef3b0ff6dccc-48"}, {"reasons": {"count": 0, "items": [{"summary": "This spot is popular", "type": "general", "reasonName": "globalInteractionReason"}]}, "venue": {"id": "4ad2102af964a52024df20e3", "name": "Bake Ridge Bagels", "location": {"address": "9417 3rd Ave", "crossStreet": "btwn 94th & 95th St.", "lat": 40.61740237816687, "lng": -74.03363993817105, "labeledLatLngs": [{"label": "display", "lat": 40.61740237816687, "lng": -74.03363993817105}, {"label": "entrance", "lat": 40.617354, "lng": -74.033389}], "distance": 325, "postalCode": "11209", "cc": "US", "city": "Brooklyn", "state": "NY", "country": "United States", "formattedAddress": ["9417 3rd Ave (btwn 94th & 95th St.)", "Brooklyn, NY 11209", "United States"]}, "categories": [{"id": "4bf58dd8d48988d179941735", "name": "Bagel Shop", "pluralName": "Bagel Shops", "shortName": "Bagels", "icon": {"prefix": "https://ss3.4sqi.net/img/categories_v2/food/bagels_", "suffix": ".png"}, "primary": true}], "photos": {"count": 0, "groups": []}}, "referralId": "e-0-4ad2102af964a52024df20e3-49"}, {"reasons": {"count": 0, "items": [{"summary": "This spot is popular", "type": "general", "reasonName": "globalInteractionReason"}]}, "venue": {"id": "4b3c1225f964a5204e8125e3", "name": "Dunkin'", "location": {"address": "9243 4th Ave", "crossStreet": "at 93rd St", "lat": 40.61722967158058, "lng": -74.03032488730969, "labeledLatLngs": [{"label": "display", "lat": 40.61722967158058, "lng": -74.03032488730969}, {"label": "entrance", "lat": 40.617254, "lng": -74.030397}], "distance": 307, "postalCode": "11209", "cc": "US", "city": "Brooklyn", "state": "NY", "country": "United States", "formattedAddress": ["9243 4th Ave (at 93rd St)", "Brooklyn, NY 11209", "United States"]}, "categories": [{"id": "4bf58dd8d48988d148941735", "name": "Donut Shop", "pluralName": "Donut Shops", "shortName": "Donuts", "icon": {"prefix": "https://ss3.4sqi.net/img/categories_v2/food/donuts_", "suffix": ".png"}, "primary": true}], "delivery": {"id": "1157065", "url": "https://www.seamless.com/menu/dunkin-9243-4th-ave-brooklyn/1157065?affiliate=1131&utm_source=foursquare-affiliate-network&utm_medium=affiliate&utm_campaign=1131&utm_content=1157065", "provider": {"name": "seamless", "icon": {"prefix": "https://fastly.4sqi.net/img/general/cap/", "sizes": [40, 50], "name": "/delivery_provider_seamless_20180129.png"}}}, "photos": {"count": 0, "groups": []}}, "referralId": "e-0-4b3c1225f964a5204e8125e3-50"}, {"reasons": {"count": 0, "items": [{"summary": "This spot is popular", "type": "general", "reasonName": "globalInteractionReason"}]}, "venue": {"id": "4b4ceae2f964a52024c426e3", "name": "Staples", "location": {"address": "9319 5th Avenue", "crossStreet": "94th St", "lat": 40.616615, "lng": -74.030028, "labeledLatLngs": [{"label": "display", "lat": 40.616615, "lng": -74.030028}], "distance": 263, "postalCode": "11209", "cc": "US", "city": "Brooklyn", "state": "NY", "country": "United States", "formattedAddress": ["9319 5th Avenue (94th St)", "Brooklyn, NY 11209", "United States"]}, "categories": [{"id": "4bf58dd8d48988d121951735", "name": "Paper / Office Supplies Store", "pluralName": "Paper / Office Supplies Stores", "shortName": "Office Supplies", "icon": {"prefix": "https://ss3.4sqi.net/img/categories_v2/shops/papergoods_", "suffix": ".png"}, "primary": true}], "photos": {"count": 0, "groups": []}}, "referralId": "e-0-4b4ceae2f964a52024c426e3-51"}, {"reasons": {"count": 0, "items": [{"summary": "This spot is popular", "type": "general", "reasonName": "globalInteractionReason"}]}, "venue": {"id": "4b240e1af964a5200a6024e3", "name": "Kimchee Korean Cuisine", "location": {"address": "9324 3rd Ave", "crossStreet": "at 94th St", "lat": 40.61797065682916, "lng": -74.03344650023448, "labeledLatLngs": [{"label": "display", "lat": 40.61797065682916, "lng": -74.03344650023448}, {"label": "entrance", "lat": 40.618097, "lng": -74.033403}], "distance": 377, "postalCode": "11209", "cc": "US", "city": "Brooklyn", "state": "NY", "country": "United States", "formattedAddress": ["9324 3rd Ave (at 94th St)", "Brooklyn, NY 11209", "United States"]}, "categories": [{"id": "4bf58dd8d48988d113941735", "name": "Korean Restaurant", "pluralName": "Korean Restaurants", "shortName": "Korean", "icon": {"prefix": "https://ss3.4sqi.net/img/categories_v2/food/korean_", "suffix": ".png"}, "primary": true}], "photos": {"count": 0, "groups": []}}, "referralId": "e-0-4b240e1af964a5200a6024e3-52"}, {"reasons": {"count": 0, "items": [{"summary": "This spot is popular", "type": "general", "reasonName": "globalInteractionReason"}]}, "venue": {"id": "4cb0fb23eb65b1f7c61871cd", "name": "Panda Garden", "location": {"address": "9708 3rd Ave", "lat": 40.615772172484405, "lng": -74.03427146686259, "labeledLatLngs": [{"label": "display", "lat": 40.615772172484405, "lng": -74.03427146686259}, {"label": "entrance", "lat": 40.615751, "lng": -74.034365}], "distance": 223, "postalCode": "11209", "cc": "US", "city": "Brooklyn", "state": "NY", "country": "United States", "formattedAddress": ["9708 3rd Ave", "Brooklyn, NY 11209", "United States"]}, "categories": [{"id": "4bf58dd8d48988d145941735", "name": "Chinese Restaurant", "pluralName": "Chinese Restaurants", "shortName": "Chinese", "icon": {"prefix": "https://ss3.4sqi.net/img/categories_v2/food/asian_", "suffix": ".png"}, "primary": true}], "photos": {"count": 0, "groups": []}}, "referralId": "e-0-4cb0fb23eb65b1f7c61871cd-53"}, {"reasons": {"count": 0, "items": [{"summary": "This spot is popular", "type": "general", "reasonName": "globalInteractionReason"}]}, "venue": {"id": "4baa1da8f964a520de4b3ae3", "name": "Rite Aid", "location": {"address": "9302 3rd Ave", "lat": 40.618526, "lng": -74.033414, "labeledLatLngs": [{"label": "display", "lat": 40.618526, "lng": -74.033414}, {"label": "entrance", "lat": 40.618465, "lng": -74.033258}], "distance": 435, "postalCode": "11209", "cc": "US", "city": "Brooklyn", "state": "NY", "country": "United States", "formattedAddress": ["9302 3rd Ave", "Brooklyn, NY 11209", "United States"]}, "categories": [{"id": "4bf58dd8d48988d10f951735", "name": "Pharmacy", "pluralName": "Pharmacies", "shortName": "Pharmacy", "icon": {"prefix": "https://ss3.4sqi.net/img/categories_v2/shops/pharmacy_", "suffix": ".png"}, "primary": true}], "photos": {"count": 0, "groups": []}}, "referralId": "e-0-4baa1da8f964a520de4b3ae3-54"}, {"reasons": {"count": 0, "items": [{"summary": "This spot is popular", "type": "general", "reasonName": "globalInteractionReason"}]}, "venue": {"id": "4b622fd6f964a520e83a2ae3", "name": "JT's Restaurant", "location": {"address": "9703 3rd Ave", "lat": 40.615497999999995, "lng": -74.034013, "labeledLatLngs": [{"label": "display", "lat": 40.615497999999995, "lng": -74.034013}, {"label": "entrance", "lat": 40.615533, "lng": -74.034149}], "distance": 190, "postalCode": "11209", "cc": "US", "city": "Brooklyn", "state": "NY", "country": "United States", "formattedAddress": ["9703 3rd Ave", "Brooklyn, NY 11209", "United States"]}, "categories": [{"id": "4bf58dd8d48988d110941735", "name": "Italian Restaurant", "pluralName": "Italian Restaurants", "shortName": "Italian", "icon": {"prefix": "https://ss3.4sqi.net/img/categories_v2/food/italian_", "suffix": ".png"}, "primary": true}], "photos": {"count": 0, "groups": []}}, "referralId": "e-0-4b622fd6f964a520e83a2ae3-55"}, {"reasons": {"count": 0, "items": [{"summary": "This spot is popular", "type": "general", "reasonName": "globalInteractionReason"}]}, "venue": {"id": "4cbf1513acd48cfae657413f", "name": "Third Avenue Mini Market", "location": {"address": "9721 3rd Ave", "crossStreet": "Marine Avenue", "lat": 40.615256216430254, "lng": -74.03440722715317, "labeledLatLngs": [{"label": "display", "lat": 40.615256216430254, "lng": -74.03440722715317}], "distance": 212, "postalCode": "11209", "cc": "US", "city": "Brooklyn", "state": "NY", "country": "United States", "formattedAddress": ["9721 3rd Ave (Marine Avenue)", "Brooklyn, NY 11209", "United States"]}, "categories": [{"id": "4bf58dd8d48988d146941735", "name": "Deli / Bodega", "pluralName": "Delis / Bodegas", "shortName": "Deli / Bodega", "icon": {"prefix": "https://ss3.4sqi.net/img/categories_v2/food/deli_", "suffix": ".png"}, "primary": true}], "photos": {"count": 0, "groups": []}}, "referralId": "e-0-4cbf1513acd48cfae657413f-56"}, {"reasons": {"count": 0, "items": [{"summary": "This spot is popular", "type": "general", "reasonName": "globalInteractionReason"}]}, "venue": {"id": "4b5b69a9f964a5200bfc28e3", "name": "BrooklynONE productions", "location": {"address": "461 99th St", "crossStreet": "corner of Ft. Hamilton Parkway", "lat": 40.612714481369736, "lng": -74.03160810470581, "labeledLatLngs": [{"label": "display", "lat": 40.612714481369736, "lng": -74.03160810470581}], "distance": 230, "postalCode": "11209", "cc": "US", "city": "Brooklyn", "state": "NY", "country": "United States", "formattedAddress": ["461 99th St (corner of Ft. Hamilton Parkway)", "Brooklyn, NY 11209", "United States"]}, "categories": [{"id": "4bf58dd8d48988d137941735", "name": "Theater", "pluralName": "Theaters", "shortName": "Theater", "icon": {"prefix": "https://ss3.4sqi.net/img/categories_v2/arts_entertainment/performingarts_theater_", "suffix": ".png"}, "primary": true}], "photos": {"count": 0, "groups": []}, "venuePage": {"id": "51978047"}}, "referralId": "e-0-4b5b69a9f964a5200bfc28e3-57"}, {"reasons": {"count": 0, "items": [{"summary": "This spot is popular", "type": "general", "reasonName": "globalInteractionReason"}]}, "venue": {"id": "4cc1e99bc844721e9b1ad901", "name": "Narrows Pharmacy", "location": {"address": "9920", "crossStreet": "100th Street", "lat": 40.612895954651286, "lng": -74.0337044469937, "labeledLatLngs": [{"label": "display", "lat": 40.612895954651286, "lng": -74.0337044469937}, {"label": "entrance", "lat": 40.613076, "lng": -74.033657}], "distance": 254, "postalCode": "11209", "cc": "US", "city": "Brooklyn", "state": "NY", "country": "United States", "formattedAddress": ["9920 (100th Street)", "Brooklyn, NY 11209", "United States"]}, "categories": [{"id": "4bf58dd8d48988d10f951735", "name": "Pharmacy", "pluralName": "Pharmacies", "shortName": "Pharmacy", "icon": {"prefix": "https://ss3.4sqi.net/img/categories_v2/shops/pharmacy_", "suffix": ".png"}, "primary": true}], "photos": {"count": 0, "groups": []}}, "referralId": "e-0-4cc1e99bc844721e9b1ad901-58"}, {"reasons": {"count": 0, "items": [{"summary": "This spot is popular", "type": "general", "reasonName": "globalInteractionReason"}]}, "venue": {"id": "5763427c498e386d3e24b082", "name": "Encore Restaurant", "location": {"address": "10007 4th Ave", "lat": 40.612544, "lng": -74.033644, "labeledLatLngs": [{"label": "display", "lat": 40.612544, "lng": -74.033644}], "distance": 284, "postalCode": "11209", "cc": "US", "city": "New York", "state": "NY", "country": "United States", "formattedAddress": ["10007 4th Ave", "New York, NY 11209", "United States"]}, "categories": [{"id": "5293a7563cf9994f4e043a44", "name": "Russian Restaurant", "pluralName": "Russian Restaurants", "shortName": "Russian", "icon": {"prefix": "https://ss3.4sqi.net/img/categories_v2/food/russian_", "suffix": ".png"}, "primary": true}], "photos": {"count": 0, "groups": []}}, "referralId": "e-0-5763427c498e386d3e24b082-59"}, {"reasons": {"count": 0, "items": [{"summary": "This spot is popular", "type": "general", "reasonName": "globalInteractionReason"}]}, "venue": {"id": "4c259afea852c9281a49e56c", "name": "Amnesia", "location": {"address": "100th st and 4th avenue", "lat": 40.6125817529837, "lng": -74.03381079313424, "labeledLatLngs": [{"label": "display", "lat": 40.6125817529837, "lng": -74.03381079313424}], "distance": 288, "cc": "US", "city": "Brooklyn", "state": "NY", "country": "United States", "formattedAddress": ["100th st and 4th avenue", "Brooklyn, NY", "United States"]}, "categories": [{"id": "4bf58dd8d48988d121941735", "name": "Lounge", "pluralName": "Lounges", "shortName": "Lounge", "icon": {"prefix": "https://ss3.4sqi.net/img/categories_v2/nightlife/default_", "suffix": ".png"}, "primary": true}], "photos": {"count": 0, "groups": []}}, "referralId": "e-0-4c259afea852c9281a49e56c-60"}, {"reasons": {"count": 0, "items": [{"summary": "This spot is popular", "type": "general", "reasonName": "globalInteractionReason"}]}, "venue": {"id": "4c15222877cea593ecadd160", "name": "Last Stop Deli", "location": {"address": "100-06 4th Ave", "crossStreet": "101 Street", "lat": 40.61255923837617, "lng": -74.0338987437045, "labeledLatLngs": [{"label": "display", "lat": 40.61255923837617, "lng": -74.0338987437045}], "distance": 294, "postalCode": "11209", "cc": "US", "city": "Brooklyn", "state": "NY", "country": "United States", "formattedAddress": ["100-06 4th Ave (101 Street)", "Brooklyn, NY 11209", "United States"]}, "categories": [{"id": "4bf58dd8d48988d146941735", "name": "Deli / Bodega", "pluralName": "Delis / Bodegas", "shortName": "Deli / Bodega", "icon": {"prefix": "https://ss3.4sqi.net/img/categories_v2/food/deli_", "suffix": ".png"}, "primary": true}], "photos": {"count": 0, "groups": []}}, "referralId": "e-0-4c15222877cea593ecadd160-61"}, {"reasons": {"count": 0, "items": [{"summary": "This spot is popular", "type": "general", "reasonName": "globalInteractionReason"}]}, "venue": {"id": "4c4b7dfbc668e21e95331efa", "name": "Cafe At Sam's Bakery", "location": {"address": "275 94th St", "lat": 40.618131, "lng": -74.033546, "labeledLatLngs": [{"label": "display", "lat": 40.618131, "lng": -74.033546}], "distance": 397, "postalCode": "11209", "cc": "US", "city": "Brooklyn", "state": "NY", "country": "United States", "formattedAddress": ["275 94th St", "Brooklyn, NY 11209", "United States"]}, "categories": [{"id": "4bf58dd8d48988d16d941735", "name": "Caf\u00e9", "pluralName": "Caf\u00e9s", "shortName": "Caf\u00e9", "icon": {"prefix": "https://ss3.4sqi.net/img/categories_v2/food/cafe_", "suffix": ".png"}, "primary": true}], "photos": {"count": 0, "groups": []}}, "referralId": "e-0-4c4b7dfbc668e21e95331efa-62"}, {"reasons": {"count": 0, "items": [{"summary": "This spot is popular", "type": "general", "reasonName": "globalInteractionReason"}]}, "venue": {"id": "4fd171f8e4b0ebfb5087a066", "name": "Holiday Inn Express - Fort Hamilton", "location": {"lat": 40.61196326140547, "lng": -74.02871838603363, "labeledLatLngs": [{"label": "display", "lat": 40.61196326140547, "lng": -74.02871838603363}], "distance": 416, "postalCode": "11209", "cc": "US", "city": "Brooklyn", "state": "NY", "country": "United States", "formattedAddress": ["Brooklyn, NY 11209", "United States"]}, "categories": [{"id": "4bf58dd8d48988d1fa931735", "name": "Hotel", "pluralName": "Hotels", "shortName": "Hotel", "icon": {"prefix": "https://ss3.4sqi.net/img/categories_v2/travel/hotel_", "suffix": ".png"}, "primary": true}], "photos": {"count": 0, "groups": []}}, "referralId": "e-0-4fd171f8e4b0ebfb5087a066-63"}, {"reasons": {"count": 0, "items": [{"summary": "This spot is popular", "type": "general", "reasonName": "globalInteractionReason"}]}, "venue": {"id": "554e7b8c498ebfd16ceee968", "name": "MTA Bus - Shore Rd & 3 Av (B16/B37/B63/X27/X37)", "location": {"address": "Shore Road", "crossStreet": "at 3rd Ave", "lat": 40.611993152174335, "lng": -74.03539656053555, "labeledLatLngs": [{"label": "display", "lat": 40.611993152174335, "lng": -74.03539656053555}], "distance": 422, "postalCode": "11209", "cc": "US", "city": "Brooklyn", "state": "NY", "country": "United States", "formattedAddress": ["Shore Road (at 3rd Ave)", "Brooklyn, NY 11209", "United States"]}, "categories": [{"id": "52f2ab2ebcbc57f1066b8b4f", "name": "Bus Stop", "pluralName": "Bus Stops", "shortName": "Bus Stop", "icon": {"prefix": "https://ss3.4sqi.net/img/categories_v2/travel/busstation_", "suffix": ".png"}, "primary": true}], "photos": {"count": 0, "groups": []}}, "referralId": "e-0-554e7b8c498ebfd16ceee968-64"}, {"reasons": {"count": 0, "items": [{"summary": "This spot is popular", "type": "general", "reasonName": "globalInteractionReason"}]}, "venue": {"id": "4c34c03f3896e21eb214ec90", "name": "Bay Ridge Eatery", "location": {"address": "9128 5th Ave", "lat": 40.618083, "lng": -74.029372, "labeledLatLngs": [{"label": "display", "lat": 40.618083, "lng": -74.029372}, {"label": "entrance", "lat": 40.618069, "lng": -74.029332}], "distance": 429, "postalCode": "11209", "cc": "US", "city": "Brooklyn", "state": "NY", "country": "United States", "formattedAddress": ["9128 5th Ave", "Brooklyn, NY 11209", "United States"]}, "categories": [{"id": "4bf58dd8d48988d14e941735", "name": "American Restaurant", "pluralName": "American Restaurants", "shortName": "American", "icon": {"prefix": "https://ss3.4sqi.net/img/categories_v2/food/default_", "suffix": ".png"}, "primary": true}], "photos": {"count": 0, "groups": []}}, "referralId": "e-0-4c34c03f3896e21eb214ec90-65"}, {"reasons": {"count": 0, "items": [{"summary": "This spot is popular", "type": "general", "reasonName": "globalInteractionReason"}]}, "venue": {"id": "4e2b25b7a809f1b1640cd57f", "name": "Morris Discount", "location": {"address": "306 93rd St", "lat": 40.61877504170125, "lng": -74.03292412846525, "labeledLatLngs": [{"label": "display", "lat": 40.61877504170125, "lng": -74.03292412846525}, {"label": "entrance", "lat": 40.618875, "lng": -74.032783}], "distance": 453, "postalCode": "11209", "cc": "US", "city": "Brooklyn", "state": "NY", "country": "United States", "formattedAddress": ["306 93rd St", "Brooklyn, NY 11209", "United States"]}, "categories": [{"id": "4d954b0ea243a5684a65b473", "name": "Convenience Store", "pluralName": "Convenience Stores", "shortName": "Convenience Store", "icon": {"prefix": "https://ss3.4sqi.net/img/categories_v2/shops/conveniencestore_", "suffix": ".png"}, "primary": true}], "photos": {"count": 0, "groups": []}}, "referralId": "e-0-4e2b25b7a809f1b1640cd57f-66"}, {"reasons": {"count": 0, "items": [{"summary": "This spot is popular", "type": "general", "reasonName": "globalInteractionReason"}]}, "venue": {"id": "4e0e35c414956c6284f82f67", "name": "Vivid Nail & Spa", "location": {"address": "545 92nd St", "crossStreet": "Fort Hamilton Parkway", "lat": 40.617363, "lng": -74.027804, "labeledLatLngs": [{"label": "display", "lat": 40.617363, "lng": -74.027804}, {"label": "entrance", "lat": 40.617279, "lng": -74.027859}], "distance": 455, "postalCode": "11209", "cc": "US", "city": "Brooklyn", "state": "NY", "country": "United States", "formattedAddress": ["545 92nd St (Fort Hamilton Parkway)", "Brooklyn, NY 11209", "United States"]}, "categories": [{"id": "4bf58dd8d48988d1ed941735", "name": "Spa", "pluralName": "Spas", "shortName": "Spa", "icon": {"prefix": "https://ss3.4sqi.net/img/categories_v2/shops/spa_", "suffix": ".png"}, "primary": true}], "photos": {"count": 0, "groups": []}}, "referralId": "e-0-4e0e35c414956c6284f82f67-67"}, {"reasons": {"count": 0, "items": [{"summary": "This spot is popular", "type": "general", "reasonName": "globalInteractionReason"}]}, "venue": {"id": "4caf2d11c5e6a1cdee84caf6", "name": "Shore Road Park Tennis Courts", "location": {"lat": 40.61273696221837, "lng": -74.03677405133128, "labeledLatLngs": [{"label": "display", "lat": 40.61273696221837, "lng": -74.03677405133128}], "distance": 464, "postalCode": "11209", "cc": "US", "city": "Brooklyn", "state": "NY", "country": "United States", "formattedAddress": ["Brooklyn, NY 11209", "United States"]}, "categories": [{"id": "4e39a956bd410d7aed40cbc3", "name": "Tennis Court", "pluralName": "Tennis Courts", "shortName": "Tennis Court", "icon": {"prefix": "https://ss3.4sqi.net/img/categories_v2/arts_entertainment/stadium_tennis_", "suffix": ".png"}, "primary": true}], "photos": {"count": 0, "groups": []}}, "referralId": "e-0-4caf2d11c5e6a1cdee84caf6-68"}, {"reasons": {"count": 0, "items": [{"summary": "This spot is popular", "type": "general", "reasonName": "globalInteractionReason"}]}, "venue": {"id": "4f857821e4b0be4a11e64dd7", "name": "MTA Bus - Shore Rd & 97 St (B16/X27/X37)", "location": {"address": "Shore Rd", "crossStreet": "at 97 St", "lat": 40.615548259259725, "lng": -74.03770689522013, "labeledLatLngs": [{"label": "display", "lat": 40.615548259259725, "lng": -74.03770689522013}], "distance": 491, "postalCode": "11209", "cc": "US", "neighborhood": "Fort Hamilton", "city": "Brooklyn", "state": "NY", "country": "United States", "formattedAddress": ["Shore Rd (at 97 St)", "Brooklyn, NY 11209", "United States"]}, "categories": [{"id": "52f2ab2ebcbc57f1066b8b4f", "name": "Bus Stop", "pluralName": "Bus Stops", "shortName": "Bus Stop", "icon": {"prefix": "https://ss3.4sqi.net/img/categories_v2/travel/busstation_", "suffix": ".png"}, "primary": true}], "photos": {"count": 0, "groups": []}}, "referralId": "e-0-4f857821e4b0be4a11e64dd7-69"}]