[{"reasons": {"count": 0, "items": [{"summary": "This spot is popular", "type": "general", "reasonName": "globalInteractionReason"}]}, "venue": {"id": "4bfd730555539c7439abbcf3", "name": "Duane Reade", "location": {"address": "2265 Ralph Ave", "crossStreet": "btwn Avenue M & 65th St.", "lat": 40.6225443, "lng": -73.9170047, "labeledLatLngs": [{"label": "display", "lat": 40.6225443, "lng": -73.9170047}], "distance": 164, "postalCode": "11234", "cc": "US", "city": "Brooklyn", "state": "NY", "country": "United States", "formattedAddress": ["2265 Ralph Ave (btwn Avenue M & 65th St.)", "Brooklyn, NY 11234", "United States"]}, "categories": [{"id": "4bf58dd8d48988d10f951735", "name": "Pharmacy", "pluralName": "Pharmacies", "shortName": "Pharmacy", "icon": {"prefix": "https://ss3.4sqi.net/img/categories_v2/shops/pharmacy_", "suffix": ".png"}, "primary": true}], "photos": {"count": 0, "groups": []}}, "referralId": "e-0-4bfd730555539c7439abbcf3-0"}, {"reasons": {"count": 0, "items": [{"summary": "This spot is popular", "type": "general", "reasonName": "globalInteractionReason"}]}, "venue": {"id": "587cf5f08d8e996e96281fa8", "name": "Fairway Market Georgetown", "location": {"address": "2149 Ralph Avenue", "lat": 40.62615001105922, "lng": -73.9158483070298, "labeledLatLngs": [{"label": "display", "lat": 40.62615001105922, "lng": -73.9158483070298}, {"label": "entrance", "lat": 40.625834, "lng": -73.915389}], "distance": 257, "postalCode": "11234", "cc": "US", "city": "Brooklyn", "state": "NY", "country": "United States", "formattedAddress": ["2149 Ralph Avenue", "Brooklyn, NY 11234", "United States"]}, "categories": [{"id": "52f2ab2ebcbc57f1066b8b46", "name": "Supermarket", "pluralName": "Supermarkets", "shortName": "Supermarket", "icon": {"prefix": "https://ss3.4sqi.net/img/categories_v2/shops/food_grocery_", "suffix": ".png"}, "primary": true}], "photos": {"count": 0, "groups": []}}, "referralId": "e-0-587cf5f08d8e996e96281fa8-1"}, {"reasons": {"count": 0, "items": [{"summary": "This spot is popular", "type": "general", "reasonName": "globalInteractionReason"}]}, "venue": {"id": "4e4c36b4bd41b9fca431801f", "name": "Dunkin'", "location": {"address": "2317 Ralph Ave", "lat": 40.62135642490909, "lng": -73.91689612604006, "labeledLatLngs": [{"label": "display", "lat": 40.62135642490909, "lng": -73.91689612604006}], "distance": 285, "postalCode": "11234", "cc": "US", "city": "Brooklyn", "state": "NY", "country": "United States", "formattedAddress": ["2317 Ralph Ave", "Brooklyn, NY 11234", "United States"]}, "categories": [{"id": "4bf58dd8d48988d148941735", "name": "Donut Shop", "pluralName": "Donut Shops", "shortName": "Donuts", "icon": {"prefix": "https://ss3.4sqi.net/img/categories_v2/food/donuts_", "suffix": ".png"}, "primary": true}], "delivery": {"id": "2134502", "url": "https://www.seamless.com/menu/dunkin-2317-ralph-ave-brooklyn/2134502?affiliate=1131&utm_source=foursquare-affiliate-network&utm_medium=affiliate&utm_campaign=1131&utm_content=2134502", "provider": {"name": "seamless", "icon": {"prefix": "https://fastly.4sqi.net/img/general/cap/", "sizes": [40, 50], "name": "/delivery_provider_seamless_20180129.png"}}}, "photos": {"count": 0, "groups": []}}, "referralId": "e-0-4e4c36b4bd41b9fca431801f-2"}, {"reasons": {"count": 0, "items": [{"summary": "This spot is popular", "type": "general", "reasonName": "globalInteractionReason"}]}, "venue": {"id": "4b623407f964a520fa3b2ae3", "name": "Original Pizza", "location": {"address": "2351 Ralph Ave", "crossStreet": "at E 64th St.", "lat": 40.620783494175456, "lng": -73.91728732300375, "labeledLatLngs": [{"label": "display", "lat": 40.620783494175456, "lng": -73.91728732300375}, {"label": "entrance", "lat": 40.620602, "lng": -73.917194}], "distance": 355, "postalCode": "11234", "cc": "US", "city": "Brooklyn", "state": "NY", "country": "United States", "formattedAddress": ["2351 Ralph Ave (at E 64th St.)", "Brooklyn, NY 11234", "United States"]}, "categories": [{"id": "4bf58dd8d48988d1ca941735", "name": "Pizza Place", "pluralName": "Pizza Places", "shortName": "Pizza", "icon": {"prefix": "https://ss3.4sqi.net/img/categories_v2/food/pizza_", "suffix": ".png"}, "primary": true}], "photos": {"count": 0, "groups": []}}, "referralId": "e-0-4b623407f964a520fa3b2ae3-3"}, {"reasons": {"count": 0, "items": [{"summary": "This spot is popular", "type": "general", "reasonName": "globalInteractionReason"}]}, "venue": {"id": "59e7a81264c8e16a71f8febd", "name": "Five Guys", "location": {"address": "2159 Ralph Ave", "lat": 40.62650091307452, "lng": -73.91622400780095, "labeledLatLngs": [{"label": "display", "lat": 40.62650091307452, "lng": -73.91622400780095}], "distance": 295, "postalCode": "12234", "cc": "US", "city": "Brooklyn", "state": "NY", "country": "United States", "formattedAddress": ["2159 Ralph Ave", "Brooklyn, NY 12234", "United States"]}, "categories": [{"id": "4bf58dd8d48988d16c941735", "name": "Burger Joint", "pluralName": "Burger Joints", "shortName": "Burgers", "icon": {"prefix": "https://ss3.4sqi.net/img/categories_v2/food/burger_", "suffix": ".png"}, "primary": true}], "delivery": {"id": "1406233", "url": "https://www.seamless.com/menu/five-guys-2159-ralph-ave-brooklyn/1406233?affiliate=1131&utm_source=foursquare-affiliate-network&utm_medium=affiliate&utm_campaign=1131&utm_content=1406233", "provider": {"name": "seamless", "icon": {"prefix": "https://fastly.4sqi.net/img/general/cap/", "sizes": [40, 50], "name": "/delivery_provider_seamless_20180129.png"}}}, "photos": {"count": 0, "groups": []}}, "referralId": "e-0-59e7a81264c8e16a71f8febd-4"}, {"reasons": {"count": 0, "items": [{"summary": "This spot is popular", "type": "general", "reasonName": "globalInteractionReason"}]}, "venue": {"id": "4c267153b012b71350e30893", "name": "Landi's Pork Store", "location": {"address": "5909 Avenue N", "crossStreet": "Ralph Avenue", "lat": 40.61963309828226, "lng": -73.91791811535433, "labeledLatLngs": [{"label": "display", "lat": 40.61963309828226, "lng": -73.91791811535433}, {"label": "entrance", "lat": 40.619617, "lng": -73.917865}], "distance": 494, "postalCode": "11234", "cc": "US", "city": "Brooklyn", "state": "NY", "country": "United States", "formattedAddress": ["5909 Avenue N (Ralph Avenue)", "Brooklyn, NY 11234", "United States"]}, "categories": [{"id": "4bf58dd8d48988d110941735", "name": "Italian Restaurant", "pluralName": "Italian Restaurants", "shortName": "Italian", "icon": {"prefix": "https://ss3.4sqi.net/img/categories_v2/food/italian_", "suffix": ".png"}, "primary": true}], "photos": {"count": 0, "groups": []}}, "referralId": "e-0-4c267153b012b71350e30893-5"}, {"reasons": {"count": 0, "items": [{"summary": "This spot is popular", "type": "general", "reasonName": "globalInteractionReason"}]}, "venue": {"id": "5c26849c64c8e1003979056d", "name": "Chipotle Mexican Grill", "location": {"address": "2179 Ralph Ave", "lat": 40.62640516930416, "lng": -73.91697560324246, "labeledLatLngs": [{"label": "display", "lat": 40.62640516930416, "lng": -73.91697560324246}, {"label": "entrance", "lat": 40.626035, "lng": -73.915077}], "distance": 294, "postalCode": "11234", "cc": "US", "city": "Brooklyn", "state": "NY", "country": "United States", "formattedAddress": ["2179 Ralph Ave", "Brooklyn, NY 11234", "United States"]}, "categories": [{"id": "4bf58dd8d48988d1c1941735", "name": "Mexican Restaurant", "pluralName": "Mexican Restaurants", "shortName": "Mexican", "icon": {"prefix": "https://ss3.4sqi.net/img/categories_v2/food/mexican_", "suffix": ".png"}, "primary": true}], "photos": {"count": 0, "groups": []}}, "referralId": "e-0-5c26849c64c8e1003979056d-6"}, {"reasons": {"count": 0, "items": [{"summary": "This spot is popular", "type": "general", "reasonName": "globalInteractionReason"}]}, "venue": {"id": "4ba27a3af964a5208efc37e3", "name": "Gourmet Grill", "location": {"address": "6334 Avenue N", "lat": 40.61954308297777, "lng": -73.91611065315124, "labeledLatLngs": [{"label": "display", "lat": 40.61954308297777, "lng": -73.91611065315124}, {"label": "entrance", "lat": 40.619513, "lng": -73.916024}], "distance": 478, "postalCode": "11234", "cc": "US", "city": "Brooklyn", "state": "NY", "country": "United States", "formattedAddress": ["6334 Avenue N", "Brooklyn, NY 11234", "United States"]}, "categories": [{"id": "4bf58dd8d48988d14e941735", "name": "American Restaurant", "pluralName": "American Restaurants", "shortName": "American", "icon": {"prefix": "https://ss3.4sqi.net/img/categories_v2/food/default_", "suffix": ".png"}, "primary": true}], "delivery": {"id": "682827", "url": "https://www.seamless.com/menu/gourmet-grill-6334-avenue-n-brooklyn/682827?affiliate=1131&utm_source=foursquare-affiliate-network&utm_medium=affiliate&utm_campaign=1131&utm_content=682827", "provider": {"name": "seamless", "icon": {"prefix": "https://fastly.4sqi.net/img/general/cap/", "sizes": [40, 50], "name": "/delivery_provider_seamless_20180129.png"}}}, "photos": {"count": 0, "groups": []}}, "referralId": "e-0-4ba27a3af964a5208efc37e3-7"}, {"reasons": {"count": 0, "items": [{"summary": "This spot is popular", "type": "general", "reasonName": "globalInteractionReason"}]}, "venue": {"id": "57e7f4f6498ed5e39ea07262", "name": "Five Below", "location": {"address": "2183 Ralph Ave", "lat": 40.62656506489726, "lng": -73.91632893080015, "labeledLatLngs": [{"label": "display", "lat": 40.62656506489726, "lng": -73.91632893080015}], "distance": 303, "postalCode": "11234", "cc": "US", "city": "Brooklyn", "state": "NY", "country": "United States", "formattedAddress": ["2183 Ralph Ave", "Brooklyn, NY 11234", "United States"]}, "categories": [{"id": "52dea92d3cf9994f4e043dbb", "name": "Discount Store", "pluralName": "Discount Stores", "shortName": "Discount Store", "icon": {"prefix": "https://ss3.4sqi.net/img/categories_v2/shops/discountstore_", "suffix": ".png"}, "primary": true}], "photos": {"count": 0, "groups": []}}, "referralId": "e-0-57e7f4f6498ed5e39ea07262-8"}, {"reasons": {"count": 0, "items": [{"summary": "This spot is popular", "type": "general", "reasonName": "globalInteractionReason"}]}, "venue": {"id": "5c0ae329898bdc002c5d08f9", "name": "Starbucks", "location": {"lat": 40.625874, "lng": -73.91746, "labeledLatLngs": [{"label": "display", "lat": 40.625874, "lng": -73.91746}], "distance": 254, "postalCode": "11234", "cc": "US", "city": "Brooklyn", "state": "NY", "country": "United States", "formattedAddress": ["Brooklyn, NY 11234", "United States"]}, "categories": [{"id": "4bf58dd8d48988d1e0931735", "name": "Coffee Shop", "pluralName": "Coffee Shops", "shortName": "Coffee Shop", "icon": {"prefix": "https://ss3.4sqi.net/img/categories_v2/food/coffeeshop_", "suffix": ".png"}, "primary": true}], "photos": {"count": 0, "groups": []}}, "referralId": "e-0-5c0ae329898bdc002c5d08f9-9"}, {"reasons": {"count": 0, "items": [{"summary": "This spot is popular", "type": "general", "reasonName": "globalInteractionReason"}]}, "venue": {"id": "4ba625e1f964a5201c3739e3", "name": "Mill Basin Bagel Cafe", "location": {"address": "6319 Avenue N", "lat": 40.61982990000001, "lng": -73.916547, "labeledLatLngs": [{"label": "display", "lat": 40.61982990000001, "lng": -73.916547}, {"label": "entrance", "lat": 40.619801, "lng": -73.916497}], "distance": 448, "postalCode": "11234", "cc": "US", "city": "Brooklyn", "state": "NY", "country": "United States", "formattedAddress": ["6319 Avenue N", "Brooklyn, NY 11234", "United States"]}, "categories": [{"id": "4bf58dd8d48988d179941735", "name": "Bagel Shop", "pluralName": "Bagel Shops", "shortName": "Bagels", "icon": {"prefix": "https://ss3.4sqi.net/img/categories_v2/food/bagels_", "suffix": ".png"}, "primary": true}], "photos": {"count": 0, "groups": []}}, "referralId": "e-0-4ba625e1f964a5201c3739e3-10"}, {"reasons": {"count": 0, "items": [{"summary": "This spot is popular", "type": "general", "reasonName": "globalInteractionReason"}]}, "venue": {"id": "4b9e6fdbf964a520b2e336e3", "name": "Party City", "location": {"address": "2183 B Ralph Ave", "lat": 40.623113, "lng": -73.915827, "labeledLatLngs": [{"label": "display", "lat": 40.623113, "lng": -73.915827}], "distance": 84, "postalCode": "11234", "cc": "US", "city": "Brooklyn", "state": "NY", "country": "United States", "formattedAddress": ["2183 B Ralph Ave", "Brooklyn, NY 11234", "United States"]}, "categories": [{"id": "4bf58dd8d48988d1ff941735", "name": "Miscellaneous Shop", "pluralName": "Miscellaneous Shops", "shortName": "Shop", "icon": {"prefix": "https://ss3.4sqi.net/img/categories_v2/shops/default_", "suffix": ".png"}, "primary": true}], "photos": {"count": 0, "groups": []}}, "referralId": "e-0-4b9e6fdbf964a520b2e336e3-11"}, {"reasons": {"count": 0, "items": [{"summary": "This spot is popular", "type": "general", "reasonName": "globalInteractionReason"}]}, "venue": {"id": "5159c692011c2f97320edfdc", "name": "Frozen Planet Yogurt", "location": {"address": "6340 Avenue N", "lat": 40.61940426424289, "lng": -73.91589698935043, "labeledLatLngs": [{"label": "display", "lat": 40.61940426424289, "lng": -73.91589698935043}], "distance": 494, "postalCode": "11234", "cc": "US", "city": "Brooklyn", "state": "NY", "country": "United States", "formattedAddress": ["6340 Avenue N", "Brooklyn, NY 11234", "United States"]}, "categories": [{"id": "512e7cae91d4cbb4e5efe0af", "name": "Frozen Yogurt Shop", "pluralName": "Frozen Yogurt Shops", "shortName": "Yogurt", "icon": {"prefix": "https://ss3.4sqi.net/img/categories_v2/food/frozenyogurt_", "suffix": ".png"}, "primary": true}], "delivery": {"id": "697277", "url": "https://www.seamless.com/menu/frozen-planet-6340-avenue-n-brooklyn/697277?affiliate=1131&utm_source=foursquare-affiliate-network&utm_medium=affiliate&utm_campaign=1131&utm_content=697277", "provider": {"name": "seamless", "icon": {"prefix": "https://fastly.4sqi.net/img/general/cap/", "sizes": [40, 50], "name": "/delivery_provider_seamless_20180129.png"}}}, "photos": {"count": 0, "groups": []}, "venuePage": {"id": "52219312"}}, "referralId": "e-0-5159c692011c2f97320edfdc-12"}, {"reasons": {"count": 0, "items": [{"summary": "This spot is popular", "type": "general", "reasonName": "globalInteractionReason"}]}, "venue": {"id": "4c41d7d2d7fad13ad51d08da", "name": "Brooklyn Zoo & Aquarium", "location": {"address": "2377 Ralph Ave", "lat": 40.62011279940736, "lng": -73.91719342763187, "labeledLatLngs": [{"label": "display", "lat": 40.62011279940736, "lng": -73.91719342763187}, {"label": "entrance", "lat": 40.620086, "lng": -73.917135}], "distance": 426, "postalCode": "11234", "cc": "US", "city": "Brooklyn", "state": "NY", "country": "United States", "formattedAddress": ["2377 Ralph Ave", "Brooklyn, NY 11234", "United States"]}, "categories": [{"id": "4bf58dd8d48988d100951735", "name": "Pet Store", "pluralName": "Pet Stores", "shortName": "Pet Store", "icon": {"prefix": "https://ss3.4sqi.net/img/categories_v2/shops/pet_store_", "suffix": ".png"}, "primary": true}], "photos": {"count": 0, "groups": []}}, "referralId": "e-0-4c41d7d2d7fad13ad51d08da-13"}, {"reasons": {"count": 0, "items": [{"summary": "This spot is popular", "type": "general", "reasonName": "globalInteractionReason"}]}, "venue": {"id": "51b4c234498ecfb072ab5a6b", "name": "TD Bank", "location": {"address": "2063 Ralph Ave", "lat": 40.62702604819837, "lng": -73.91748346768964, "labeledLatLngs": [{"label": "display", "lat": 40.62702604819837, "lng": -73.91748346768964}], "distance": 373, "postalCode": "11234", "cc": "US", "city": "Brooklyn", "state": "NY", "country": "United States", "formattedAddress": ["2063 Ralph Ave", "Brooklyn, NY 11234", "United States"]}, "categories": [{"id": "4bf58dd8d48988d10a951735", "name": "Bank", "pluralName": "Banks", "shortName": "Bank", "icon": {"prefix": "https://ss3.4sqi.net/img/categories_v2/shops/financial_", "suffix": ".png"}, "primary": true}], "photos": {"count": 0, "groups": []}}, "referralId": "e-0-51b4c234498ecfb072ab5a6b-14"}, {"reasons": {"count": 0, "items": [{"summary": "This spot is popular", "type": "general", "reasonName": "globalInteractionReason"}]}, "venue": {"id": "4f6357b6e4b09ff9bb6fcb74", "name": "Chase Bank", "location": {"address": "2110 Ralph Ave", "lat": 40.62611, "lng": -73.918311, "labeledLatLngs": [{"label": "display", "lat": 40.62611, "lng": -73.918311}, {"label": "entrance", "lat": 40.626057, "lng": -73.918146}], "distance": 315, "postalCode": "11234", "cc": "US", "city": "Brooklyn", "state": "NY", "country": "United States", "formattedAddress": ["2110 Ralph Ave", "Brooklyn, NY 11234", "United States"]}, "categories": [{"id": "4bf58dd8d48988d10a951735", "name": "Bank", "pluralName": "Banks", "shortName": "Bank", "icon": {"prefix": "https://ss3.4sqi.net/img/categories_v2/shops/financial_", "suffix": ".png"}, "primary": true}], "photos": {"count": 0, "groups": []}}, "referralId": "e-0-4f6357b6e4b09ff9bb6fcb74-15"}, {"reasons": {"count": 0, "items": [{"summary": "This spot is popular", "type": "general", "reasonName": "globalInteractionReason"}]}, "venue": {"id": "4b6c7760f964a520653c2ce3", "name": "IHOP", "location": {"address": "2101 Ralph Ave", "crossStreet": "at Avenue L", "lat": 40.6262440666268, "lng": -73.91769630569674, "labeledLatLngs": [{"label": "display", "lat": 40.6262440666268, "lng": -73.91769630569674}, {"label": "entrance", "lat": 40.626289, "lng": -73.917758}], "distance": 300, "postalCode": "11234", "cc": "US", "city": "Brooklyn", "state": "NY", "country": "United States", "formattedAddress": ["2101 Ralph Ave (at Avenue L)", "Brooklyn, NY 11234", "United States"]}, "categories": [{"id": "4bf58dd8d48988d143941735", "name": "Breakfast Spot", "pluralName": "Breakfast Spots", "shortName": "Breakfast", "icon": {"prefix": "https://ss3.4sqi.net/img/categories_v2/food/breakfast_", "suffix": ".png"}, "primary": true}], "photos": {"count": 0, "groups": []}}, "referralId": "e-0-4b6c7760f964a520653c2ce3-16"}, {"reasons": {"count": 0, "items": [{"summary": "This spot is popular", "type": "general", "reasonName": "globalInteractionReason"}]}, "venue": {"id": "52ab957b11d2430ab2440c3b", "name": "Subways", "location": {"address": "Ralph Avenue", "lat": 40.62653322690518, "lng": -73.9167245022349, "labeledLatLngs": [{"label": "display", "lat": 40.62653322690518, "lng": -73.9167245022349}], "distance": 304, "cc": "US", "city": "Brooklyn", "state": "NY", "country": "United States", "formattedAddress": ["Ralph Avenue", "Brooklyn, NY", "United States"]}, "categories": [{"id": "4bf58dd8d48988d1c5941735", "name": "Sandwich Place", "pluralName": "Sandwich Places", "shortName": "Sandwiches", "icon": {"prefix": "https://ss3.4sqi.net/img/categories_v2/food/deli_", "suffix": ".png"}, "primary": true}], "photos": {"count": 0, "groups": []}}, "referralId": "e-0-52ab957b11d2430ab2440c3b-17"}, {"reasons": {"count": 0, "items": [{"summary": "This spot is popular", "type": "general", "reasonName": "globalInteractionReason"}]}, "venue": {"id": "4c2681fc5c5ca593b95146fe", "name": "Sally Beauty", "location": {"address": "2129 Ralph Avenue", "lat": 40.6254002495495, "lng": -73.91659389182908, "labeledLatLngs": [{"label": "display", "lat": 40.6254002495495, "lng": -73.91659389182908}, {"label": "entrance", "lat": 40.625335, "lng": -73.916774}], "distance": 178, "postalCode": "11234", "cc": "US", "city": "Brooklyn", "state": "NY", "country": "United States", "formattedAddress": ["2129 Ralph Avenue", "Brooklyn, NY 11234", "United States"]}, "categories": [{"id": "4bf58dd8d48988d10c951735", "name": "Cosmetics Shop", "pluralName": "Cosmetics Shops", "shortName": "Cosmetics", "icon": {"prefix": "https://ss3.4sqi.net/img/categories_v2/shops/beauty_cosmetic_", "suffix": ".png"}, "primary": true}], "photos": {"count": 0, "groups": []}}, "referralId": "e-0-4c2681fc5c5ca593b95146fe-18"}, {"reasons": {"count": 0, "items": [{"summary": "This spot is popular", "type": "general", "reasonName": "globalInteractionReason"}]}, "venue": {"id": "4bfd2804e529c9289f74ba8c", "name": "Capital One Bank", "location": {"address": "2102 Ralph Ave", "crossStreet": "Ave K", "lat": 40.6262099, "lng": -73.9183319, "labeledLatLngs": [{"label": "display", "lat": 40.6262099, "lng": -73.9183319}, {"label": "entrance", "lat": 40.626218, "lng": -73.918163}], "distance": 325, "postalCode": "11234", "cc": "US", "city": "Brooklyn", "state": "NY", "country": "United States", "formattedAddress": ["2102 Ralph Ave (Ave K)", "Brooklyn, NY 11234", "United States"]}, "categories": [{"id": "4bf58dd8d48988d10a951735", "name": "Bank", "pluralName": "Banks", "shortName": "Bank", "icon": {"prefix": "https://ss3.4sqi.net/img/categories_v2/shops/financial_", "suffix": ".png"}, "primary": true}], "photos": {"count": 0, "groups": []}}, "referralId": "e-0-4bfd2804e529c9289f74ba8c-19"}, {"reasons": {"count": 0, "items": [{"summary": "This spot is popular", "type": "general", "reasonName": "globalInteractionReason"}]}, "venue": {"id": "4dc3f111c65b89d3ca4718a1", "name": "Dunkin'", "location": {"address": "2317 Ralph Ave", "crossStreet": "E 65 St", "lat": 40.621250453146146, "lng": -73.91707470986586, "labeledLatLngs": [{"label": "display", "lat": 40.621250453146146, "lng": -73.91707470986586}], "distance": 300, "postalCode": "11234", "cc": "US", "city": "Brooklyn", "state": "NY", "country": "United States", "formattedAddress": ["2317 Ralph Ave (E 65 St)", "Brooklyn, NY 11234", "United States"]}, "categories": [{"id": "4bf58dd8d48988d148941735", "name": "Donut Shop", "pluralName": "Donut Shops", "shortName": "Donuts", "icon": {"prefix": "https://ss3.4sqi.net/img/categories_v2/food/donuts_", "suffix": ".png"}, "primary": true}], "photos": {"count": 0, "groups": []}}, "referralId": "e-0-4dc3f111c65b89d3ca4718a1-20"}, {"reasons": {"count": 0, "items": [{"summary": "This spot is popular", "type": "general", "reasonName": "globalInteractionReason"}]}, "venue": {"id": "4c5f03c66147be9a4d579609", "name": "GNC", "location": {"address": "2155 Ralph Ave", "lat": 40.626309, "lng": -73.915984, "labeledLatLngs": [{"label": "display", "lat": 40.626309, "lng": -73.915984}, {"label": "entrance", "lat": 40.625867, "lng": -73.915337}], "distance": 274, "postalCode": "11234", "cc": "US", "city": "Brooklyn", "state": "NY", "country": "United States", "formattedAddress": ["2155 Ralph Ave", "Brooklyn, NY 11234", "United States"]}, "categories": [{"id": "5744ccdfe4b0c0459246b4cd", "name": "Supplement Shop", "pluralName": "Supplement Shops", "shortName": "Supplement Shop", "icon": {"prefix": "https://ss3.4sqi.net/img/categories_v2/education/lab_", "suffix": ".png"}, "primary": true}], "photos": {"count": 0, "groups": []}}, "referralId": "e-0-4c5f03c66147be9a4d579609-21"}, {"reasons": {"count": 0, "items": [{"summary": "This spot is popular", "type": "general", "reasonName": "globalInteractionReason"}]}, "venue": {"id": "4bfc3f24b5cd2d7fc34931fb", "name": "Sosaku", "location": {"address": "6328 Avenue N", "crossStreet": "Ralph", "lat": 40.619384000000004, "lng": -73.91624300000001, "labeledLatLngs": [{"label": "display", "lat": 40.619384000000004, "lng": -73.91624300000001}, {"label": "entrance", "lat": 40.619499, "lng": -73.916235}], "distance": 496, "postalCode": "11234", "cc": "US", "city": "Brooklyn", "state": "NY", "country": "United States", "formattedAddress": ["6328 Avenue N (Ralph)", "Brooklyn, NY 11234", "United States"]}, "categories": [{"id": "4bf58dd8d48988d111941735", "name": "Japanese Restaurant", "pluralName": "Japanese Restaurants", "shortName": "Japanese", "icon": {"prefix": "https://ss3.4sqi.net/img/categories_v2/food/japanese_", "suffix": ".png"}, "primary": true}], "delivery": {"id": "279801", "url": "https://www.seamless.com/menu/sosaku-japanese-restaurant-6328-ave-n-brooklyn/279801?affiliate=1131&utm_source=foursquare-affiliate-network&utm_medium=affiliate&utm_campaign=1131&utm_content=279801", "provider": {"name": "seamless", "icon": {"prefix": "https://fastly.4sqi.net/img/general/cap/", "sizes": [40, 50], "name": "/delivery_provider_seamless_20180129.png"}}}, "photos": {"count": 0, "groups": []}}, "referralId": "e-0-4bfc3f24b5cd2d7fc34931fb-22"}, {"reasons": {"count": 0, "items": [{"summary": "This spot is popular", "type": "general", "reasonName": "globalInteractionReason"}]}, "venue": {"id": "4be85b13ee96c928fdfcfdbf", "name": "CVS pharmacy", "location": {"address": "2320 Ralph Ave", "crossStreet": "at Avenue M", "lat": 40.62143870088087, "lng": -73.91777790405308, "labeledLatLngs": [{"label": "display", "lat": 40.62143870088087, "lng": -73.91777790405308}], "distance": 304, "postalCode": "11234", "cc": "US", "city": "Brooklyn", "state": "NY", "country": "United States", "formattedAddress": ["2320 Ralph Ave (at Avenue M)", "Brooklyn, NY 11234", "United States"]}, "categories": [{"id": "4bf58dd8d48988d10f951735", "name": "Pharmacy", "pluralName": "Pharmacies", "shortName": "Pharmacy", "icon": {"prefix": "https://ss3.4sqi.net/img/categories_v2/shops/pharmacy_", "suffix": ".png"}, "primary": true}], "photos": {"count": 0, "groups": []}}, "referralId": "e-0-4be85b13ee96c928fdfcfdbf-23"}, {"reasons": {"count": 0, "items": [{"summary": "This spot is popular", "type": "general", "reasonName": "globalInteractionReason"}]}, "venue": {"id": "4ca23bed1ee76dcb07f6eedd", "name": "Georgetown Shopping Center", "location": {"address": "Ralph Ave", "crossStreet": "Ave K", "lat": 40.62628661820448, "lng": -73.91757992632097, "labeledLatLngs": [{"label": "display", "lat": 40.62628661820448, "lng": -73.91757992632097}, {"label": "entrance", "lat": 40.626597, "lng": -73.917307}], "distance": 300, "postalCode": "11234", "cc": "US", "city": "Brooklyn", "state": "NY", "country": "United States", "formattedAddress": ["Ralph Ave (Ave K)", "Brooklyn, NY 11234", "United States"]}, "categories": [{"id": "4bf58dd8d48988d1fd941735", "name": "Shopping Mall", "pluralName": "Shopping Malls", "shortName": "Mall", "icon": {"prefix": "https://ss3.4sqi.net/img/categories_v2/shops/mall_", "suffix": ".png"}, "primary": true}], "photos": {"count": 0, "groups": []}}, "referralId": "e-0-4ca23bed1ee76dcb07f6eedd-24"}, {"reasons": {"count": 0, "items": [{"summary": "This spot is popular", "type": "general", "reasonName": "globalInteractionReason"}]}, "venue": {"id": "4ca243001ee76dcbed2eefdd", "name": "GameStop", "location": {"address": "2183 Ralph Ave", "crossStreet": "at Ave K", "lat": 40.62644298054101, "lng": -73.91618925301883, "labeledLatLngs": [{"label": "display", "lat": 40.62644298054101, "lng": -73.91618925301883}], "distance": 289, "postalCode": "11234", "cc": "US", "city": "Brooklyn", "state": "NY", "country": "United States", "formattedAddress": ["2183 Ralph Ave (at Ave K)", "Brooklyn, NY 11234", "United States"]}, "categories": [{"id": "4bf58dd8d48988d10b951735", "name": "Video Game Store", "pluralName": "Video Game Stores", "shortName": "Video Games", "icon": {"prefix": "https://ss3.4sqi.net/img/categories_v2/shops/videogames_", "suffix": ".png"}, "primary": true}], "photos": {"count": 0, "groups": []}}, "referralId": "e-0-4ca243001ee76dcbed2eefdd-25"}, {"reasons": {"count": 0, "items": [{"summary": "This spot is popular", "type": "general", "reasonName": "globalInteractionReason"}]}, "venue": {"id": "4be9aaf99fa3ef3bc20d80c9", "name": "The UPS Store", "location": {"address": "2152 Ralph Ave", "lat": 40.6251698, "lng": -73.9182342, "labeledLatLngs": [{"label": "display", "lat": 40.6251698, "lng": -73.9182342}], "distance": 234, "postalCode": "11234", "cc": "US", "city": "Brooklyn", "state": "NY", "country": "United States", "formattedAddress": ["2152 Ralph Ave", "Brooklyn, NY 11234", "United States"]}, "categories": [{"id": "52f2ab2ebcbc57f1066b8b1f", "name": "Shipping Store", "pluralName": "Shipping Stores", "shortName": "Shipping Store", "icon": {"prefix": "https://ss3.4sqi.net/img/categories_v2/shops/default_", "suffix": ".png"}, "primary": true}], "photos": {"count": 0, "groups": []}}, "referralId": "e-0-4be9aaf99fa3ef3bc20d80c9-26"}, {"reasons": {"count": 0, "items": [{"summary": "This spot is popular", "type": "general", "reasonName": "globalInteractionReason"}]}, "venue": {"id": "4cdc69c6d5495481267341b2", "name": "S & D Bagels", "location": {"address": "2144 Ralph Ave", "lat": 40.625419523937516, "lng": -73.91822584327024, "labeledLatLngs": [{"label": "display", "lat": 40.625419523937516, "lng": -73.91822584327024}], "distance": 252, "postalCode": "11234", "cc": "US", "city": "Brooklyn", "state": "NY", "country": "United States", "formattedAddress": ["2144 Ralph Ave", "Brooklyn, NY 11234", "United States"]}, "categories": [{"id": "4bf58dd8d48988d179941735", "name": "Bagel Shop", "pluralName": "Bagel Shops", "shortName": "Bagels", "icon": {"prefix": "https://ss3.4sqi.net/img/categories_v2/food/bagels_", "suffix": ".png"}, "primary": true}], "photos": {"count": 0, "groups": []}}, "referralId": "e-0-4cdc69c6d5495481267341b2-27"}, {"reasons": {"count": 0, "items": [{"summary": "This spot is popular", "type": "general", "reasonName": "globalInteractionReason"}]}, "venue": {"id": "4c5602e8fe84d13aaddd088e", "name": "Courtney's Rotisserie & Grill", "location": {"address": "2175 Ralph Avenue", "crossStreet": "Avenue K", "lat": 40.626424224762246, "lng": -73.91676619586873, "labeledLatLngs": [{"label": "display", "lat": 40.626424224762246, "lng": -73.91676619586873}], "distance": 292, "postalCode": "11234", "cc": "US", "city": "Brooklyn", "state": "NY", "country": "United States", "formattedAddress": ["2175 Ralph Avenue (Avenue K)", "Brooklyn, NY 11234", "United States"]}, "categories": [{"id": "4bf58dd8d48988d14e941735", "name": "American Restaurant", "pluralName": "American Restaurants", "shortName": "American", "icon": {"prefix": "https://ss3.4sqi.net/img/categories_v2/food/default_", "suffix": ".png"}, "primary": true}], "delivery": {"id": "345502", "url": "https://www.seamless.com/menu/courtneys-rotisserie--grill-2175-ralph-ave-brooklyn/345502?affiliate=1131&utm_source=foursquare-affiliate-network&utm_medium=affiliate&utm_campaign=1131&utm_content=345502", "provider": {"name": "seamless", "icon": {"prefix": "https://fastly.4sqi.net/img/general/cap/", "sizes": [40, 50], "name": "/delivery_provider_seamless_20180129.png"}}}, "photos": {"count": 0, "groups": []}}, "referralId": "e-0-4c5602e8fe84d13aaddd088e-28"}, {"reasons": {"count": 0, "items": [{"summary": "This spot is popular", "type": "general", "reasonName": "globalInteractionReason"}]}, "venue": {"id": "4df4415cb0fb807158c56f55", "name": "Bill's Bar", "location": {"address": "6326 Avenue N", "lat": 40.61961111883627, "lng": -73.91634892189333, "labeledLatLngs": [{"label": "display", "lat": 40.61961111883627, "lng": -73.91634892189333}, {"label": "entrance", "lat": 40.619498, "lng": -73.916262}], "distance": 471, "postalCode": "11234", "cc": "US", "city": "Brooklyn", "state": "NY", "country": "United States", "formattedAddress": ["6326 Avenue N", "Brooklyn, NY 11234", "United States"]}, "categories": [{"id": "4bf58dd8d48988d11b941735", "name": "Pub", "pluralName": "Pubs", "shortName": "Pub", "icon": {"prefix": "https://ss3.4sqi.net/img/categories_v2/nightlife/pub_", "suffix": ".png"}, "primary": true}], "photos": {"count": 0, "groups": []}}, "referralId": "e-0-4df4415cb0fb807158c56f55-29"}]