[{"reasons": {"count": 0, "items": [{"summary": "This spot is popular", "type": "general", "reasonName": "globalInteractionReason"}]}, "venue": {"id": "4b5b15e6f964a520e5e228e3", "name": "Glen Oaks Oval", "location": {"lat": 40.74927270745124, "lng": -73.71495723724364, "labeledLatLngs": [{"label": "display", "lat": 40.74927270745124, "lng": -73.71495723724364}], "distance": 47, "cc": "US", "state": "New York", "country": "United States", "formattedAddress": ["New York", "United States"]}, "categories": [{"id": "4bf58dd8d48988d163941735", "name": "Park", "pluralName": "Parks", "shortName": "Park", "icon": {"prefix": "https://ss3.4sqi.net/img/categories_v2/parks_outdoors/park_", "suffix": ".png"}, "primary": true}], "photos": {"count": 0, "groups": []}}, "referralId": "e-0-4b5b15e6f964a520e5e228e3-0"}, {"reasons": {"count": 0, "items": [{"summary": "This spot is popular", "type": "general", "reasonName": "globalInteractionReason"}]}, "venue": {"id": "50bf7bc8495e58eda3aca16c", "name": "Panera Bread", "location": {"address": "669 Hillside Ave", "lat": 40.75061862211184, "lng": -73.71547608876992, "labeledLatLngs": [{"label": "display", "lat": 40.75061862211184, "lng": -73.71547608876992}], "distance": 131, "postalCode": "11040", "cc": "US", "city": "New Hyde Park", "state": "NY", "country": "United States", "formattedAddress": ["669 Hillside Ave", "New Hyde Park, NY 11040", "United States"]}, "categories": [{"id": "4bf58dd8d48988d16a941735", "name": "Bakery", "pluralName": "Bakeries", "shortName": "Bakery", "icon": {"prefix": "https://ss3.4sqi.net/img/categories_v2/food/bakery_", "suffix": ".png"}, "primary": true}], "photos": {"count": 0, "groups": []}}, "referralId": "e-0-50bf7bc8495e58eda3aca16c-1"}, {"reasons": {"count": 0, "items": [{"summary": "This spot is popular", "type": "general", "reasonName": "globalInteractionReason"}]}, "venue": {"id": "4c1e2c4463750f47a247b967", "name": "What A Bagel", "location": {"address": "257-01 Union Tpke", "crossStreet": "257th St", "lat": 40.745913638650364, "lng": -73.7143342538055, "labeledLatLngs": [{"label": "display", "lat": 40.745913638650364, "lng": -73.7143342538055}], "distance": 404, "postalCode": "11004", "cc": "US", "city": "Glen Oaks", "state": "NY", "country": "United States", "formattedAddress": ["257-01 Union Tpke (257th St)", "Glen Oaks, NY 11004", "United States"]}, "categories": [{"id": "4bf58dd8d48988d179941735", "name": "Bagel Shop", "pluralName": "Bagel Shops", "shortName": "Bagels", "icon": {"prefix": "https://ss3.4sqi.net/img/categories_v2/food/bagels_", "suffix": ".png"}, "primary": true}], "photos": {"count": 0, "groups": []}}, "referralId": "e-0-4c1e2c4463750f47a247b967-2"}, {"reasons": {"count": 0, "items": [{"summary": "This spot is popular", "type": "general", "reasonName": "globalInteractionReason"}]}, "venue": {"id": "4b787c49f964a5209cd12ee3", "name": "Santoor Indian Restaurant", "location": {"address": "25705 Union Tpke", "lat": 40.745935833175224, "lng": -73.71423053284374, "labeledLatLngs": [{"label": "display", "lat": 40.745935833175224, "lng": -73.71423053284374}], "distance": 404, "postalCode": "11004", "cc": "US", "city": "Floral Park", "state": "NY", "country": "United States", "formattedAddress": ["25705 Union Tpke", "Floral Park, NY 11004", "United States"]}, "categories": [{"id": "4bf58dd8d48988d10f941735", "name": "Indian Restaurant", "pluralName": "Indian Restaurants", "shortName": "Indian", "icon": {"prefix": "https://ss3.4sqi.net/img/categories_v2/food/indian_", "suffix": ".png"}, "primary": true}], "delivery": {"id": "550391", "url": "https://www.seamless.com/menu/santoor-indian-restaurant-25705-union-tpke-glen-oaks/550391?affiliate=1131&utm_source=foursquare-affiliate-network&utm_medium=affiliate&utm_campaign=1131&utm_content=550391", "provider": {"name": "seamless", "icon": {"prefix": "https://fastly.4sqi.net/img/general/cap/", "sizes": [40, 50], "name": "/delivery_provider_seamless_20180129.png"}}}, "photos": {"count": 0, "groups": []}}, "referralId": "e-0-4b787c49f964a5209cd12ee3-3"}, {"reasons": {"count": 0, "items": [{"summary": "This spot is popular", "type": "general", "reasonName": "globalInteractionReason"}]}, "venue": {"id": "51c773df498e7394a7b68c05", "name": "SUBWAY", "location": {"address": "259-19 Union Turnpike", "lat": 40.74690064444903, "lng": -73.71232806537384, "labeledLatLngs": [{"label": "display", "lat": 40.74690064444903, "lng": -73.71232806537384}], "distance": 388, "cc": "US", "city": "Queens", "state": "NY", "country": "United States", "formattedAddress": ["259-19 Union Turnpike", "Queens, NY", "United States"]}, "categories": [{"id": "4bf58dd8d48988d1c5941735", "name": "Sandwich Place", "pluralName": "Sandwich Places", "shortName": "Sandwiches", "icon": {"prefix": "https://ss3.4sqi.net/img/categories_v2/food/deli_", "suffix": ".png"}, "primary": true}], "photos": {"count": 0, "groups": []}}, "referralId": "e-0-51c773df498e7394a7b68c05-4"}, {"reasons": {"count": 0, "items": [{"summary": "This spot is popular", "type": "general", "reasonName": "globalInteractionReason"}]}, "venue": {"id": "4e67acf2bd41e96a148c2aa1", "name": "T-Mobile", "location": {"address": "256-01 Union Tpke", "lat": 40.7455102, "lng": -73.7149084, "labeledLatLngs": [{"label": "display", "lat": 40.7455102, "lng": -73.7149084}], "distance": 440, "postalCode": "11004", "cc": "US", "city": "Glen Oaks", "state": "NY", "country": "United States", "formattedAddress": ["256-01 Union Tpke", "Glen Oaks, NY 11004", "United States"]}, "categories": [{"id": "4f04afc02fb6e1c99f3db0bc", "name": "Mobile Phone Shop", "pluralName": "Mobile Phone Shops", "shortName": "Mobile Phones", "icon": {"prefix": "https://ss3.4sqi.net/img/categories_v2/shops/mobilephoneshop_", "suffix": ".png"}, "primary": true}], "photos": {"count": 0, "groups": []}}, "referralId": "e-0-4e67acf2bd41e96a148c2aa1-5"}, {"reasons": {"count": 0, "items": [{"summary": "This spot is popular", "type": "general", "reasonName": "globalInteractionReason"}]}, "venue": {"id": "4fb533877beb65c72e11e560", "name": "Chase Bank", "location": {"address": "256-21 Union Tpke", "lat": 40.745956380589064, "lng": -73.71478870009014, "labeledLatLngs": [{"label": "display", "lat": 40.745956380589064, "lng": -73.71478870009014}], "distance": 392, "postalCode": "11004", "cc": "US", "city": "Glen Oaks", "state": "NY", "country": "United States", "formattedAddress": ["256-21 Union Tpke", "Glen Oaks, NY 11004", "United States"]}, "categories": [{"id": "4bf58dd8d48988d10a951735", "name": "Bank", "pluralName": "Banks", "shortName": "Bank", "icon": {"prefix": "https://ss3.4sqi.net/img/categories_v2/shops/financial_", "suffix": ".png"}, "primary": true}], "photos": {"count": 0, "groups": []}}, "referralId": "e-0-4fb533877beb65c72e11e560-6"}, {"reasons": {"count": 0, "items": [{"summary": "This spot is popular", "type": "general", "reasonName": "globalInteractionReason"}]}, "venue": {"id": "56562022498e875280747128", "name": "Key Food", "location": {"address": "Glen Oaks Shopping center", "crossStreet": "Union Turnpike", "lat": 40.746610486265844, "lng": -73.71344166049796, "labeledLatLngs": [{"label": "display", "lat": 40.746610486265844, "lng": -73.71344166049796}], "distance": 358, "postalCode": "11004", "cc": "US", "city": "Glen Oaks", "state": "NY", "country": "United States", "formattedAddress": ["Glen Oaks Shopping center (Union Turnpike)", "Glen Oaks, NY 11004", "United States"]}, "categories": [{"id": "4bf58dd8d48988d118951735", "name": "Grocery Store", "pluralName": "Grocery Stores", "shortName": "Grocery Store", "icon": {"prefix": "https://ss3.4sqi.net/img/categories_v2/shops/food_grocery_", "suffix": ".png"}, "primary": true}], "photos": {"count": 0, "groups": []}}, "referralId": "e-0-56562022498e875280747128-7"}, {"reasons": {"count": 0, "items": [{"summary": "This spot is popular", "type": "general", "reasonName": "globalInteractionReason"}]}, "venue": {"id": "4bfd765a55539c74daabbcf3", "name": "Duane Reade", "location": {"address": "25709 Union Tpke", "crossStreet": "at 257th St.", "lat": 40.7462317, "lng": -73.7142178, "labeledLatLngs": [{"label": "display", "lat": 40.7462317, "lng": -73.7142178}], "distance": 372, "postalCode": "11004", "cc": "US", "city": "Glen Oaks", "state": "NY", "country": "United States", "formattedAddress": ["25709 Union Tpke (at 257th St.)", "Glen Oaks, NY 11004", "United States"]}, "categories": [{"id": "4bf58dd8d48988d10f951735", "name": "Pharmacy", "pluralName": "Pharmacies", "shortName": "Pharmacy", "icon": {"prefix": "https://ss3.4sqi.net/img/categories_v2/shops/pharmacy_", "suffix": ".png"}, "primary": true}], "photos": {"count": 0, "groups": []}}, "referralId": "e-0-4bfd765a55539c74daabbcf3-8"}, {"reasons": {"count": 0, "items": [{"summary": "This spot is popular", "type": "general", "reasonName": "globalInteractionReason"}]}, "venue": {"id": "4c45eecc9be820a1ed487893", "name": "Burlington", "location": {"address": "25801 Union Tpke", "lat": 40.74660217637424, "lng": -73.71382987850215, "labeledLatLngs": [{"label": "display", "lat": 40.74660217637424, "lng": -73.71382987850215}], "distance": 345, "postalCode": "11004", "cc": "US", "city": "Glen Oaks", "state": "NY", "country": "United States", "formattedAddress": ["25801 Union Tpke", "Glen Oaks, NY 11004", "United States"]}, "categories": [{"id": "4bf58dd8d48988d1f6941735", "name": "Department Store", "pluralName": "Department Stores", "shortName": "Department Store", "icon": {"prefix": "https://ss3.4sqi.net/img/categories_v2/shops/departmentstore_", "suffix": ".png"}, "primary": true}], "photos": {"count": 0, "groups": []}}, "referralId": "e-0-4c45eecc9be820a1ed487893-9"}, {"reasons": {"count": 0, "items": [{"summary": "This spot is popular", "type": "general", "reasonName": "globalInteractionReason"}]}, "venue": {"id": "4bfc0c22b5cd2d7f10fd30fb", "name": "Halal Cart on union tpke", "location": {"address": "Lakeville Rd", "crossStreet": "Union Tpke", "lat": 40.74846515311749, "lng": -73.7126658138177, "labeledLatLngs": [{"label": "display", "lat": 40.74846515311749, "lng": -73.7126658138177}], "distance": 261, "cc": "US", "city": "New Hyde Park", "state": "NY", "country": "United States", "formattedAddress": ["Lakeville Rd (Union Tpke)", "New Hyde Park, NY", "United States"]}, "categories": [{"id": "4bf58dd8d48988d115941735", "name": "Middle Eastern Restaurant", "pluralName": "Middle Eastern Restaurants", "shortName": "Middle Eastern", "icon": {"prefix": "https://ss3.4sqi.net/img/categories_v2/food/middleeastern_", "suffix": ".png"}, "primary": true}], "photos": {"count": 0, "groups": []}}, "referralId": "e-0-4bfc0c22b5cd2d7f10fd30fb-10"}, {"reasons": {"count": 0, "items": [{"summary": "This spot is popular", "type": "general", "reasonName": "globalInteractionReason"}]}, "venue": {"id": "4c29ec8297d00f47d11842ea", "name": "McDonald's", "location": {"address": "256-03 Union Tpke", "lat": 40.7456809, "lng": -73.7151654, "labeledLatLngs": [{"label": "display", "lat": 40.7456809, "lng": -73.7151654}], "distance": 419, "postalCode": "11004", "cc": "US", "city": "Glen Oaks", "state": "NY", "country": "United States", "formattedAddress": ["256-03 Union Tpke", "Glen Oaks, NY 11004", "United States"]}, "categories": [{"id": "4bf58dd8d48988d16e941735", "name": "Fast Food Restaurant", "pluralName": "Fast Food Restaurants", "shortName": "Fast Food", "icon": {"prefix": "https://ss3.4sqi.net/img/categories_v2/food/fastfood_", "suffix": ".png"}, "primary": true}], "delivery": {"id": "1338529", "url": "https://www.seamless.com/menu/mcdonalds-25603-union-tpke-glen-oaks/1338529?affiliate=1131&utm_source=foursquare-affiliate-network&utm_medium=affiliate&utm_campaign=1131&utm_content=1338529", "provider": {"name": "seamless", "icon": {"prefix": "https://fastly.4sqi.net/img/general/cap/", "sizes": [40, 50], "name": "/delivery_provider_seamless_20180129.png"}}}, "photos": {"count": 0, "groups": []}}, "referralId": "e-0-4c29ec8297d00f47d11842ea-11"}, {"reasons": {"count": 0, "items": [{"summary": "This spot is popular", "type": "general", "reasonName": "globalInteractionReason"}]}, "venue": {"id": "4beebd6a35dc0f47e92e405b", "name": "MJM Shoes", "location": {"lat": 40.74679895330574, "lng": -73.71433723287265, "labeledLatLngs": [{"label": "display", "lat": 40.74679895330574, "lng": -73.71433723287265}], "distance": 309, "postalCode": "11004", "cc": "US", "city": "Glen Oaks", "state": "NY", "country": "United States", "formattedAddress": ["Glen Oaks, NY 11004", "United States"]}, "categories": [{"id": "4bf58dd8d48988d107951735", "name": "Shoe Store", "pluralName": "Shoe Stores", "shortName": "Shoes", "icon": {"prefix": "https://ss3.4sqi.net/img/categories_v2/shops/apparel_shoestore_", "suffix": ".png"}, "primary": true}], "photos": {"count": 0, "groups": []}}, "referralId": "e-0-4beebd6a35dc0f47e92e405b-12"}, {"reasons": {"count": 0, "items": [{"summary": "This spot is popular", "type": "general", "reasonName": "globalInteractionReason"}]}, "venue": {"id": "4f43c372e4b0836e95e6e3bf", "name": "Petland Discounts", "location": {"address": "259-15 Union Tpke", "lat": 40.747241159939044, "lng": -73.71292442970842, "labeledLatLngs": [{"label": "display", "lat": 40.747241159939044, "lng": -73.71292442970842}], "distance": 326, "postalCode": "11004", "cc": "US", "city": "Glen Oaks", "state": "NY", "country": "United States", "formattedAddress": ["259-15 Union Tpke", "Glen Oaks, NY 11004", "United States"]}, "categories": [{"id": "4bf58dd8d48988d100951735", "name": "Pet Store", "pluralName": "Pet Stores", "shortName": "Pet Store", "icon": {"prefix": "https://ss3.4sqi.net/img/categories_v2/shops/pet_store_", "suffix": ".png"}, "primary": true}], "photos": {"count": 0, "groups": []}}, "referralId": "e-0-4f43c372e4b0836e95e6e3bf-13"}, {"reasons": {"count": 0, "items": [{"summary": "This spot is popular", "type": "general", "reasonName": "globalInteractionReason"}]}, "venue": {"id": "4bc517be5935c9b63d8ba5d2", "name": "Dunkin'", "location": {"address": "25609 Union Tpke", "lat": 40.74576223214435, "lng": -73.71502842548045, "labeledLatLngs": [{"label": "display", "lat": 40.74576223214435, "lng": -73.71502842548045}], "distance": 411, "postalCode": "11004", "cc": "US", "city": "Glen Oaks", "state": "NY", "country": "United States", "formattedAddress": ["25609 Union Tpke", "Glen Oaks, NY 11004", "United States"]}, "categories": [{"id": "4bf58dd8d48988d148941735", "name": "Donut Shop", "pluralName": "Donut Shops", "shortName": "Donuts", "icon": {"prefix": "https://ss3.4sqi.net/img/categories_v2/food/donuts_", "suffix": ".png"}, "primary": true}], "delivery": {"id": "1160135", "url": "https://www.seamless.com/menu/dunkin-25609-union-tpke-floral-park/1160135?affiliate=1131&utm_source=foursquare-affiliate-network&utm_medium=affiliate&utm_campaign=1131&utm_content=1160135", "provider": {"name": "seamless", "icon": {"prefix": "https://fastly.4sqi.net/img/general/cap/", "sizes": [40, 50], "name": "/delivery_provider_seamless_20180129.png"}}}, "photos": {"count": 0, "groups": []}}, "referralId": "e-0-4bc517be5935c9b63d8ba5d2-14"}, {"reasons": {"count": 0, "items": [{"summary": "This spot is popular", "type": "general", "reasonName": "globalInteractionReason"}]}, "venue": {"id": "4c82dc47d34ca143eca63080", "name": "Marcellas Pizza", "location": {"address": "260-1-260-17 Union Turnpike", "lat": 40.74703915558777, "lng": -73.71244207608544, "labeledLatLngs": [{"label": "display", "lat": 40.74703915558777, "lng": -73.71244207608544}], "distance": 370, "postalCode": "11004", "cc": "US", "city": "Glen Oaks", "state": "NY", "country": "United States", "formattedAddress": ["260-1-260-17 Union Turnpike", "Glen Oaks, NY 11004", "United States"]}, "categories": [{"id": "4bf58dd8d48988d1ca941735", "name": "Pizza Place", "pluralName": "Pizza Places", "shortName": "Pizza", "icon": {"prefix": "https://ss3.4sqi.net/img/categories_v2/food/pizza_", "suffix": ".png"}, "primary": true}], "photos": {"count": 0, "groups": []}}, "referralId": "e-0-4c82dc47d34ca143eca63080-15"}, {"reasons": {"count": 0, "items": [{"summary": "This spot is popular", "type": "general", "reasonName": "globalInteractionReason"}]}, "venue": {"id": "4babc24df964a52009c73ae3", "name": "Hallmark", "location": {"address": "Union Turnpike & 79th Ave", "lat": 40.74729194957892, "lng": -73.71209685769439, "labeledLatLngs": [{"label": "display", "lat": 40.74729194957892, "lng": -73.71209685769439}], "distance": 372, "postalCode": "11004", "cc": "US", "city": "Queens", "state": "NY", "country": "United States", "formattedAddress": ["Union Turnpike & 79th Ave", "Queens, NY 11004", "United States"]}, "categories": [{"id": "4bf58dd8d48988d128951735", "name": "Gift Shop", "pluralName": "Gift Shops", "shortName": "Gift Shop", "icon": {"prefix": "https://ss3.4sqi.net/img/categories_v2/shops/giftshop_", "suffix": ".png"}, "primary": true}], "photos": {"count": 0, "groups": []}}, "referralId": "e-0-4babc24df964a52009c73ae3-16"}, {"reasons": {"count": 0, "items": [{"summary": "This spot is popular", "type": "general", "reasonName": "globalInteractionReason"}]}, "venue": {"id": "4dfd18afb0fb84d7ace2a77a", "name": "MTA NYCT Q46 MTABus QM5, QM8, QM35 (260th Street/Union Turnpike)", "location": {"lat": 40.74695967030789, "lng": -73.71222329252674, "labeledLatLngs": [{"label": "display", "lat": 40.74695967030789, "lng": -73.71222329252674}], "distance": 389, "postalCode": "11004", "cc": "US", "city": "Glen Oaks", "state": "NY", "country": "United States", "formattedAddress": ["Glen Oaks, NY 11004", "United States"]}, "categories": [{"id": "4bf58dd8d48988d1fe931735", "name": "Bus Station", "pluralName": "Bus Stations", "shortName": "Bus Station", "icon": {"prefix": "https://ss3.4sqi.net/img/categories_v2/travel/busstation_", "suffix": ".png"}, "primary": true}], "photos": {"count": 0, "groups": []}}, "referralId": "e-0-4dfd18afb0fb84d7ace2a77a-17"}, {"reasons": {"count": 0, "items": [{"summary": "This spot is popular", "type": "general", "reasonName": "globalInteractionReason"}]}, "venue": {"id": "5bb376ad27cbd10025d5bab4", "name": "Hamza & Medina Halal Food", "location": {"address": "253-11 Hillside Ave.", "crossStreet": "Hillside Ave. & Little Neck Parkway", "lat": 40.74575545164517, "lng": -73.71466576809715, "labeledLatLngs": [{"label": "display", "lat": 40.74575545164517, "lng": -73.71466576809715}], "distance": 415, "postalCode": "11004", "cc": "US", "city": "Glen Oaks", "state": "NY", "country": "United States", "formattedAddress": ["253-11 Hillside Ave. (Hillside Ave. & Little Neck Parkway)", "Glen Oaks, NY 11004", "United States"]}, "categories": [{"id": "4bf58dd8d48988d1cb941735", "name": "Food Truck", "pluralName": "Food Trucks", "shortName": "Food Truck", "icon": {"prefix": "https://ss3.4sqi.net/img/categories_v2/food/streetfood_", "suffix": ".png"}, "primary": true}], "photos": {"count": 0, "groups": []}}, "referralId": "e-0-5bb376ad27cbd10025d5bab4-18"}, {"reasons": {"count": 0, "items": [{"summary": "This spot is popular", "type": "general", "reasonName": "globalInteractionReason"}]}, "venue": {"id": "4c4091fa520fa593853fc8ac", "name": "Rite Aid", "location": {"address": "255-01 Union Tpke", "lat": 40.7459909, "lng": -73.7156493, "labeledLatLngs": [{"label": "display", "lat": 40.7459909, "lng": -73.7156493}], "distance": 384, "postalCode": "11004", "cc": "US", "city": "Glen Oaks", "state": "NY", "country": "United States", "formattedAddress": ["255-01 Union Tpke", "Glen Oaks, NY 11004", "United States"]}, "categories": [{"id": "4bf58dd8d48988d10f951735", "name": "Pharmacy", "pluralName": "Pharmacies", "shortName": "Pharmacy", "icon": {"prefix": "https://ss3.4sqi.net/img/categories_v2/shops/pharmacy_", "suffix": ".png"}, "primary": true}], "photos": {"count": 0, "groups": []}}, "referralId": "e-0-4c4091fa520fa593853fc8ac-19"}]