[{"reasons": {"count": 0, "items": [{"summary": "This spot is popular", "type": "general", "reasonName": "globalInteractionReason"}]}, "venue": {"id": "4ad8c329f964a520731421e3", "name": "Joe's of Avenue U", "location": {"address": "287 Avenue U", "lat": 40.596970812269824, "lng": -73.9736772701698, "labeledLatLngs": [{"label": "display", "lat": 40.596970812269824, "lng": -73.9736772701698}, {"label": "entrance", "lat": 40.597039, "lng": -73.973681}], "distance": 191, "postalCode": "11223", "cc": "US", "city": "Brooklyn", "state": "NY", "country": "United States", "formattedAddress": ["287 Avenue U", "Brooklyn, NY 11223", "United States"]}, "categories": [{"id": "4bf58dd8d48988d110941735", "name": "Italian Restaurant", "pluralName": "Italian Restaurants", "shortName": "Italian", "icon": {"prefix": "https://ss3.4sqi.net/img/categories_v2/food/italian_", "suffix": ".png"}, "primary": true}], "photos": {"count": 0, "groups": []}}, "referralId": "e-0-4ad8c329f964a520731421e3-0"}, {"reasons": {"count": 0, "items": [{"summary": "This spot is popular", "type": "general", "reasonName": "globalInteractionReason"}]}, "venue": {"id": "4da602dacda1b0253fe9192e", "name": "Nuccios Bakery", "location": {"address": "261 Avenue U", "lat": 40.597097, "lng": -73.97448299999999, "labeledLatLngs": [{"label": "display", "lat": 40.597097, "lng": -73.97448299999999}, {"label": "entrance", "lat": 40.596941, "lng": -73.974505}], "distance": 221, "postalCode": "11223", "cc": "US", "city": "Brooklyn", "state": "NY", "country": "United States", "formattedAddress": ["261 Avenue U", "Brooklyn, NY 11223", "United States"]}, "categories": [{"id": "4bf58dd8d48988d16a941735", "name": "Bakery", "pluralName": "Bakeries", "shortName": "Bakery", "icon": {"prefix": "https://ss3.4sqi.net/img/categories_v2/food/bakery_", "suffix": ".png"}, "primary": true}], "photos": {"count": 0, "groups": []}}, "referralId": "e-0-4da602dacda1b0253fe9192e-1"}, {"reasons": {"count": 0, "items": [{"summary": "This spot is popular", "type": "general", "reasonName": "globalInteractionReason"}]}, "venue": {"id": "4c4144f1ce54e21e3cf10a1a", "name": "Living Room Cafe", "location": {"address": "176 Avenue U", "crossStreet": "W 6th St", "lat": 40.59643872110103, "lng": -73.97758308781751, "labeledLatLngs": [{"label": "display", "lat": 40.59643872110103, "lng": -73.97758308781751}], "distance": 371, "postalCode": "11223", "cc": "US", "city": "Brooklyn", "state": "NY", "country": "United States", "formattedAddress": ["176 Avenue U (W 6th St)", "Brooklyn, NY 11223", "United States"]}, "categories": [{"id": "4bf58dd8d48988d121941735", "name": "Lounge", "pluralName": "Lounges", "shortName": "Lounge", "icon": {"prefix": "https://ss3.4sqi.net/img/categories_v2/nightlife/default_", "suffix": ".png"}, "primary": true}], "photos": {"count": 0, "groups": []}}, "referralId": "e-0-4c4144f1ce54e21e3cf10a1a-2"}, {"reasons": {"count": 0, "items": [{"summary": "This spot is popular", "type": "general", "reasonName": "globalInteractionReason"}]}, "venue": {"id": "4b945bdef964a5202e7634e3", "name": "Blue Velvet Lounge", "location": {"address": "341 Avenue U", "crossStreet": "at W 1st", "lat": 40.59716172710791, "lng": -73.97159910456925, "labeledLatLngs": [{"label": "display", "lat": 40.59716172710791, "lng": -73.97159910456925}, {"label": "entrance", "lat": 40.597262, "lng": -73.971668}], "distance": 264, "postalCode": "11223", "cc": "US", "city": "Brooklyn", "state": "NY", "country": "United States", "formattedAddress": ["341 Avenue U (at W 1st)", "Brooklyn, NY 11223", "United States"]}, "categories": [{"id": "4bf58dd8d48988d116941735", "name": "Bar", "pluralName": "Bars", "shortName": "Bar", "icon": {"prefix": "https://ss3.4sqi.net/img/categories_v2/nightlife/pub_", "suffix": ".png"}, "primary": true}], "photos": {"count": 0, "groups": []}}, "referralId": "e-0-4b945bdef964a5202e7634e3-3"}, {"reasons": {"count": 0, "items": [{"summary": "This spot is popular", "type": "general", "reasonName": "globalInteractionReason"}]}, "venue": {"id": "4bca3b143740b71329646065", "name": "Dunkin'", "location": {"address": "203 Avenue U", "crossStreet": "West 6th Street", "lat": 40.596808421152225, "lng": -73.97669432055227, "labeledLatLngs": [{"label": "display", "lat": 40.596808421152225, "lng": -73.97669432055227}, {"label": "entrance", "lat": 40.59671, "lng": -73.976671}], "distance": 322, "postalCode": "11223", "cc": "US", "city": "Brooklyn", "state": "NY", "country": "United States", "formattedAddress": ["203 Avenue U (West 6th Street)", "Brooklyn, NY 11223", "United States"]}, "categories": [{"id": "4bf58dd8d48988d148941735", "name": "Donut Shop", "pluralName": "Donut Shops", "shortName": "Donuts", "icon": {"prefix": "https://ss3.4sqi.net/img/categories_v2/food/donuts_", "suffix": ".png"}, "primary": true}], "delivery": {"id": "1392930", "url": "https://www.seamless.com/menu/dunkin-kosher-203-avenue-u-brooklyn/1392930?affiliate=1131&utm_source=foursquare-affiliate-network&utm_medium=affiliate&utm_campaign=1131&utm_content=1392930", "provider": {"name": "seamless", "icon": {"prefix": "https://fastly.4sqi.net/img/general/cap/", "sizes": [40, 50], "name": "/delivery_provider_seamless_20180129.png"}}}, "photos": {"count": 0, "groups": []}}, "referralId": "e-0-4bca3b143740b71329646065-4"}, {"reasons": {"count": 0, "items": [{"summary": "This spot is popular", "type": "general", "reasonName": "globalInteractionReason"}]}, "venue": {"id": "4c75a5ed3adda143830208af", "name": "Elegante Pastry Shop", "location": {"address": "165 Avenue U #A", "lat": 40.596633000000004, "lng": -73.97818199999999, "labeledLatLngs": [{"label": "display", "lat": 40.596633000000004, "lng": -73.97818199999999}, {"label": "entrance", "lat": 40.596544, "lng": -73.978167}], "distance": 426, "postalCode": "11223", "cc": "US", "city": "Brooklyn", "state": "NY", "country": "United States", "formattedAddress": ["165 Avenue U #A", "Brooklyn, NY 11223", "United States"]}, "categories": [{"id": "4bf58dd8d48988d16a941735", "name": "Bakery", "pluralName": "Bakeries", "shortName": "Bakery", "icon": {"prefix": "https://ss3.4sqi.net/img/categories_v2/food/bakery_", "suffix": ".png"}, "primary": true}], "photos": {"count": 0, "groups": []}}, "referralId": "e-0-4c75a5ed3adda143830208af-5"}, {"reasons": {"count": 0, "items": [{"summary": "This spot is popular", "type": "general", "reasonName": "globalInteractionReason"}]}, "venue": {"id": "4c059bfc191f20a1895de314", "name": "Ciccio's", "location": {"address": "207 Avenue U", "crossStreet": "w 5 street", "lat": 40.59667201492687, "lng": -73.97634043335019, "labeledLatLngs": [{"label": "display", "lat": 40.59667201492687, "lng": -73.97634043335019}, {"label": "entrance", "lat": 40.596749, "lng": -73.976319}], "distance": 289, "postalCode": "11223", "cc": "US", "city": "Brooklyn", "state": "NY", "country": "United States", "formattedAddress": ["207 Avenue U (w 5 street)", "Brooklyn, NY 11223", "United States"]}, "categories": [{"id": "4bf58dd8d48988d1ca941735", "name": "Pizza Place", "pluralName": "Pizza Places", "shortName": "Pizza", "icon": {"prefix": "https://ss3.4sqi.net/img/categories_v2/food/pizza_", "suffix": ".png"}, "primary": true}], "delivery": {"id": "1486552", "url": "https://www.seamless.com/menu/ciccios-207-avenue-u-brooklyn/1486552?affiliate=1131&utm_source=foursquare-affiliate-network&utm_medium=affiliate&utm_campaign=1131&utm_content=1486552", "provider": {"name": "seamless", "icon": {"prefix": "https://fastly.4sqi.net/img/general/cap/", "sizes": [40, 50], "name": "/delivery_provider_seamless_20180129.png"}}}, "photos": {"count": 0, "groups": []}}, "referralId": "e-0-4c059bfc191f20a1895de314-6"}, {"reasons": {"count": 0, "items": [{"summary": "This spot is popular", "type": "general", "reasonName": "globalInteractionReason"}]}, "venue": {"id": "4d911aa3033ba35d7447690d", "name": "Rite Aid", "location": {"address": "237-241 Avenue U", "crossStreet": "W 4 st", "lat": 40.59675624624044, "lng": -73.97545660425911, "labeledLatLngs": [{"label": "display", "lat": 40.59675624624044, "lng": -73.97545660425911}, {"label": "entrance", "lat": 40.596846, "lng": -73.975419}], "distance": 236, "postalCode": "11223", "cc": "US", "city": "Brooklyn", "state": "NY", "country": "United States", "formattedAddress": ["237-241 Avenue U (W 4 st)", "Brooklyn, NY 11223", "United States"]}, "categories": [{"id": "4bf58dd8d48988d10f951735", "name": "Pharmacy", "pluralName": "Pharmacies", "shortName": "Pharmacy", "icon": {"prefix": "https://ss3.4sqi.net/img/categories_v2/shops/pharmacy_", "suffix": ".png"}, "primary": true}], "photos": {"count": 0, "groups": []}}, "referralId": "e-0-4d911aa3033ba35d7447690d-7"}, {"reasons": {"count": 0, "items": [{"summary": "This spot is popular", "type": "general", "reasonName": "globalInteractionReason"}]}, "venue": {"id": "511d482fe4b05556318cae27", "name": "Papa John's Pizza", "location": {"address": "189 Avenue U", "lat": 40.596748555126595, "lng": -73.97705042270184, "labeledLatLngs": [{"label": "display", "lat": 40.596748555126595, "lng": -73.97705042270184}, {"label": "entrance", "lat": 40.596669, "lng": -73.977027}], "distance": 344, "postalCode": "11223", "cc": "US", "city": "Brooklyn", "state": "NY", "country": "United States", "formattedAddress": ["189 Avenue U", "Brooklyn, NY 11223", "United States"]}, "categories": [{"id": "4bf58dd8d48988d1ca941735", "name": "Pizza Place", "pluralName": "Pizza Places", "shortName": "Pizza", "icon": {"prefix": "https://ss3.4sqi.net/img/categories_v2/food/pizza_", "suffix": ".png"}, "primary": true}], "delivery": {"id": "824557", "url": "https://www.seamless.com/menu/papa-johns-pizza-189-ave-u-brooklyn/824557?affiliate=1131&utm_source=foursquare-affiliate-network&utm_medium=affiliate&utm_campaign=1131&utm_content=824557", "provider": {"name": "seamless", "icon": {"prefix": "https://fastly.4sqi.net/img/general/cap/", "sizes": [40, 50], "name": "/delivery_provider_seamless_20180129.png"}}}, "photos": {"count": 0, "groups": []}}, "referralId": "e-0-511d482fe4b05556318cae27-8"}, {"reasons": {"count": 0, "items": [{"summary": "This spot is popular", "type": "general", "reasonName": "globalInteractionReason"}]}, "venue": {"id": "4f07e378e4b090ef21638a6f", "name": "Lounge Bar Cave", "location": {"address": "2320 McDonald Ave", "lat": 40.59574582387017, "lng": -73.97347166058043, "labeledLatLngs": [{"label": "display", "lat": 40.59574582387017, "lng": -73.97347166058043}], "distance": 54, "postalCode": "11223", "cc": "US", "city": "Brooklyn", "state": "NY", "country": "United States", "formattedAddress": ["2320 McDonald Ave", "Brooklyn, NY 11223", "United States"]}, "categories": [{"id": "4bf58dd8d48988d121941735", "name": "Lounge", "pluralName": "Lounges", "shortName": "Lounge", "icon": {"prefix": "https://ss3.4sqi.net/img/categories_v2/nightlife/default_", "suffix": ".png"}, "primary": true}], "photos": {"count": 0, "groups": []}}, "referralId": "e-0-4f07e378e4b090ef21638a6f-9"}, {"reasons": {"count": 0, "items": [{"summary": "This spot is popular", "type": "general", "reasonName": "globalInteractionReason"}]}, "venue": {"id": "4ceda9144cd4236aab6ea963", "name": "Fitness by kobi", "location": {"address": "2379 McDonald Ave", "lat": 40.594097999999995, "lng": -73.97331, "labeledLatLngs": [{"label": "display", "lat": 40.594097999999995, "lng": -73.97331}, {"label": "entrance", "lat": 40.59411, "lng": -73.973452}], "distance": 130, "postalCode": "11223", "cc": "US", "city": "Brooklyn", "state": "NY", "country": "United States", "formattedAddress": ["2379 McDonald Ave", "Brooklyn, NY 11223", "United States"]}, "categories": [{"id": "4bf58dd8d48988d176941735", "name": "Gym", "pluralName": "Gyms", "shortName": "Gym", "icon": {"prefix": "https://ss3.4sqi.net/img/categories_v2/building/gym_", "suffix": ".png"}, "primary": true}], "photos": {"count": 0, "groups": []}}, "referralId": "e-0-4ceda9144cd4236aab6ea963-10"}, {"reasons": {"count": 0, "items": [{"summary": "This spot is popular", "type": "general", "reasonName": "globalInteractionReason"}]}, "venue": {"id": "4e2974ff152078c77b07e895", "name": "OMG MMA", "location": {"address": "39 Gravesend Neck Rd", "crossStreet": "Mcdonald ave", "lat": 40.59521770254833, "lng": -73.97404789924622, "labeledLatLngs": [{"label": "display", "lat": 40.59521770254833, "lng": -73.97404789924622}], "distance": 49, "postalCode": "11223", "cc": "US", "city": "Brooklyn", "state": "NY", "country": "United States", "formattedAddress": ["39 Gravesend Neck Rd (Mcdonald ave)", "Brooklyn, NY 11223", "United States"]}, "categories": [{"id": "4bf58dd8d48988d101941735", "name": "Martial Arts Dojo", "pluralName": "Martial Arts Dojos", "shortName": "Martial Arts", "icon": {"prefix": "https://ss3.4sqi.net/img/categories_v2/shops/gym_martialarts_", "suffix": ".png"}, "primary": true}], "photos": {"count": 0, "groups": []}}, "referralId": "e-0-4e2974ff152078c77b07e895-11"}, {"reasons": {"count": 0, "items": [{"summary": "This spot is popular", "type": "general", "reasonName": "globalInteractionReason"}]}, "venue": {"id": "4d58046436d1721edaa9f1b1", "name": "David's Bakery & Grocery", "location": {"address": "2288 McDonald Ave", "crossStreet": "Village Road North", "lat": 40.596240653894895, "lng": -73.97325474794536, "labeledLatLngs": [{"label": "display", "lat": 40.596240653894895, "lng": -73.97325474794536}, {"label": "entrance", "lat": 40.596427, "lng": -73.973493}], "distance": 110, "postalCode": "11223", "cc": "US", "city": "Brooklyn", "state": "NY", "country": "United States", "formattedAddress": ["2288 McDonald Ave (Village Road North)", "Brooklyn, NY 11223", "United States"]}, "categories": [{"id": "4bf58dd8d48988d109941735", "name": "Eastern European Restaurant", "pluralName": "Eastern European Restaurants", "shortName": "Eastern European", "icon": {"prefix": "https://ss3.4sqi.net/img/categories_v2/food/default_", "suffix": ".png"}, "primary": true}], "photos": {"count": 0, "groups": []}}, "referralId": "e-0-4d58046436d1721edaa9f1b1-12"}, {"reasons": {"count": 0, "items": [{"summary": "This spot is popular", "type": "general", "reasonName": "globalInteractionReason"}]}, "venue": {"id": "4c320a13452620a13f68210f", "name": "MTA Subway - Avenue U (F)", "location": {"address": "2280 McDonald Ave", "crossStreet": "at Ave U.", "lat": 40.59605782365764, "lng": -73.97335588932037, "labeledLatLngs": [{"label": "display", "lat": 40.59605782365764, "lng": -73.97335588932037}, {"label": "entrance", "lat": 40.596705, "lng": -73.973451}], "distance": 89, "postalCode": "11223", "cc": "US", "city": "Brooklyn", "state": "NY", "country": "United States", "formattedAddress": ["2280 McDonald Ave (at Ave U.)", "Brooklyn, NY 11223", "United States"]}, "categories": [{"id": "4bf58dd8d48988d1fd931735", "name": "Metro Station", "pluralName": "Metro Stations", "shortName": "Metro", "icon": {"prefix": "https://ss3.4sqi.net/img/categories_v2/travel/subway_", "suffix": ".png"}, "primary": true}], "photos": {"count": 0, "groups": []}}, "referralId": "e-0-4c320a13452620a13f68210f-13"}, {"reasons": {"count": 0, "items": [{"summary": "This spot is popular", "type": "general", "reasonName": "globalInteractionReason"}]}, "venue": {"id": "4ce992278ef78cfa2eb6a19b", "name": "New Li Hing", "location": {"address": "304 Avenue U", "crossStreet": "b/w McDonald Ave and West St", "lat": 40.596874, "lng": -73.972654, "labeledLatLngs": [{"label": "display", "lat": 40.596874, "lng": -73.972654}, {"label": "entrance", "lat": 40.596926, "lng": -73.97268}], "distance": 192, "postalCode": "11223", "cc": "US", "neighborhood": "Gravesend", "city": "Brooklyn", "state": "NY", "country": "United States", "formattedAddress": ["304 Avenue U (b/w McDonald Ave and West St)", "Brooklyn, NY 11223", "United States"]}, "categories": [{"id": "4bf58dd8d48988d145941735", "name": "Chinese Restaurant", "pluralName": "Chinese Restaurants", "shortName": "Chinese", "icon": {"prefix": "https://ss3.4sqi.net/img/categories_v2/food/asian_", "suffix": ".png"}, "primary": true}], "photos": {"count": 0, "groups": []}}, "referralId": "e-0-4ce992278ef78cfa2eb6a19b-14"}, {"reasons": {"count": 0, "items": [{"summary": "This spot is popular", "type": "general", "reasonName": "globalInteractionReason"}]}, "venue": {"id": "4d5c6cbb5d1537040a6872e7", "name": "Express Deli and Grocery", "location": {"address": "2271 McDonald Ave", "crossStreet": "ave U", "lat": 40.596969772068746, "lng": -73.9729632662896, "labeledLatLngs": [{"label": "display", "lat": 40.596969772068746, "lng": -73.9729632662896}, {"label": "entrance", "lat": 40.596856, "lng": -73.973069}], "distance": 195, "postalCode": "11223", "cc": "US", "city": "Brooklyn", "state": "NY", "country": "United States", "formattedAddress": ["2271 McDonald Ave (ave U)", "Brooklyn, NY 11223", "United States"]}, "categories": [{"id": "4bf58dd8d48988d146941735", "name": "Deli / Bodega", "pluralName": "Delis / Bodegas", "shortName": "Deli / Bodega", "icon": {"prefix": "https://ss3.4sqi.net/img/categories_v2/food/deli_", "suffix": ".png"}, "primary": true}], "photos": {"count": 0, "groups": []}}, "referralId": "e-0-4d5c6cbb5d1537040a6872e7-15"}, {"reasons": {"count": 0, "items": [{"summary": "This spot is popular", "type": "general", "reasonName": "globalInteractionReason"}]}, "venue": {"id": "5136b34e7ab48a1d5bef91c8", "name": "Baby Central", "location": {"address": "2436 McDonald Ave", "crossStreet": "Between Ave V and W", "lat": 40.592692184013515, "lng": -73.9738655090332, "labeledLatLngs": [{"label": "display", "lat": 40.592692184013515, "lng": -73.9738655090332}, {"label": "entrance", "lat": 40.59282, "lng": -73.973984}], "distance": 287, "postalCode": "11223", "cc": "US", "city": "Brooklyn", "state": "NY", "country": "United States", "formattedAddress": ["2436 McDonald Ave (Between Ave V and W)", "Brooklyn, NY 11223", "United States"]}, "categories": [{"id": "4bf58dd8d48988d1f8941735", "name": "Furniture / Home Store", "pluralName": "Furniture / Home Stores", "shortName": "Furniture / Home", "icon": {"prefix": "https://ss3.4sqi.net/img/categories_v2/shops/furniture_", "suffix": ".png"}, "primary": true}], "photos": {"count": 0, "groups": []}}, "referralId": "e-0-5136b34e7ab48a1d5bef91c8-16"}, {"reasons": {"count": 0, "items": [{"summary": "This spot is popular", "type": "general", "reasonName": "globalInteractionReason"}]}, "venue": {"id": "4ecbb6c30e61aaf037ee0ffb", "name": "Altech Electronics Inc", "location": {"address": "2234 McDonald Ave", "lat": 40.5979, "lng": -73.973418, "labeledLatLngs": [{"label": "display", "lat": 40.5979, "lng": -73.973418}, {"label": "entrance", "lat": 40.597905, "lng": -73.973287}], "distance": 293, "postalCode": "11223", "cc": "US", "city": "Brooklyn", "state": "NY", "country": "United States", "formattedAddress": ["2234 McDonald Ave", "Brooklyn, NY 11223", "United States"]}, "categories": [{"id": "4bf58dd8d48988d122951735", "name": "Electronics Store", "pluralName": "Electronics Stores", "shortName": "Electronics", "icon": {"prefix": "https://ss3.4sqi.net/img/categories_v2/shops/technology_", "suffix": ".png"}, "primary": true}], "photos": {"count": 0, "groups": []}}, "referralId": "e-0-4ecbb6c30e61aaf037ee0ffb-17"}, {"reasons": {"count": 0, "items": [{"summary": "This spot is popular", "type": "general", "reasonName": "globalInteractionReason"}]}, "venue": {"id": "4e5116da2271a1bdc3f4e502", "name": "MTA B3 - E 2nd St.", "location": {"address": "at Ave. U", "lat": 40.597302, "lng": -73.969856, "labeledLatLngs": [{"label": "display", "lat": 40.597302, "lng": -73.969856}], "distance": 380, "cc": "US", "city": "Brooklyn", "state": "NY", "country": "United States", "formattedAddress": ["at Ave. U", "Brooklyn, NY", "United States"]}, "categories": [{"id": "4bf58dd8d48988d1fe931735", "name": "Bus Station", "pluralName": "Bus Stations", "shortName": "Bus Station", "icon": {"prefix": "https://ss3.4sqi.net/img/categories_v2/travel/busstation_", "suffix": ".png"}, "primary": true}], "photos": {"count": 0, "groups": []}}, "referralId": "e-0-4e5116da2271a1bdc3f4e502-18"}, {"reasons": {"count": 0, "items": [{"summary": "This spot is popular", "type": "general", "reasonName": "globalInteractionReason"}]}, "venue": {"id": "51b33b7e498edc91475d8390", "name": "L&D Luncheonette", "location": {"address": "171", "crossStreet": "Avenue U", "lat": 40.5965423759995, "lng": -73.97788641776656, "labeledLatLngs": [{"label": "display", "lat": 40.5965423759995, "lng": -73.97788641776656}], "distance": 399, "postalCode": "11223", "cc": "US", "city": "Brooklyn", "state": "NY", "country": "United States", "formattedAddress": ["171 (Avenue U)", "Brooklyn, NY 11223", "United States"]}, "categories": [{"id": "4bf58dd8d48988d143941735", "name": "Breakfast Spot", "pluralName": "Breakfast Spots", "shortName": "Breakfast", "icon": {"prefix": "https://ss3.4sqi.net/img/categories_v2/food/breakfast_", "suffix": ".png"}, "primary": true}], "photos": {"count": 0, "groups": []}}, "referralId": "e-0-51b33b7e498edc91475d8390-19"}, {"reasons": {"count": 0, "items": [{"summary": "This spot is popular", "type": "general", "reasonName": "globalInteractionReason"}]}, "venue": {"id": "4e2aee2cae605c533a31d665", "name": "Nicks Jewelry", "location": {"address": "173 Avenue U", "crossStreet": "West 6th Street", "lat": 40.596641999999996, "lng": -73.97789399999999, "labeledLatLngs": [{"label": "display", "lat": 40.596641999999996, "lng": -73.97789399999999}, {"label": "entrance", "lat": 40.596574, "lng": -73.977882}], "distance": 404, "postalCode": "11223", "cc": "US", "city": "Brooklyn", "state": "NY", "country": "United States", "formattedAddress": ["173 Avenue U (West 6th Street)", "Brooklyn, NY 11223", "United States"]}, "categories": [{"id": "4bf58dd8d48988d111951735", "name": "Jewelry Store", "pluralName": "Jewelry Stores", "shortName": "Jewelry", "icon": {"prefix": "https://ss3.4sqi.net/img/categories_v2/shops/jewelry_", "suffix": ".png"}, "primary": true}], "photos": {"count": 0, "groups": []}}, "referralId": "e-0-4e2aee2cae605c533a31d665-20"}, {"reasons": {"count": 0, "items": [{"summary": "This spot is popular", "type": "general", "reasonName": "globalInteractionReason"}]}, "venue": {"id": "4eb4231af790d87d02276b37", "name": "Y Records", "location": {"lat": 40.594500176443795, "lng": -73.97840869324045, "labeledLatLngs": [{"label": "display", "lat": 40.594500176443795, "lng": -73.97840869324045}], "distance": 425, "postalCode": "11223", "cc": "US", "city": "Brooklyn", "state": "NY", "country": "United States", "formattedAddress": ["Brooklyn, NY 11223", "United States"]}, "categories": [{"id": "4bf58dd8d48988d10d951735", "name": "Record Shop", "pluralName": "Record Shops", "shortName": "Record Shop", "icon": {"prefix": "https://ss3.4sqi.net/img/categories_v2/shops/record_shop_", "suffix": ".png"}, "primary": true}], "photos": {"count": 0, "groups": []}}, "referralId": "e-0-4eb4231af790d87d02276b37-21"}, {"reasons": {"count": 0, "items": [{"summary": "This spot is popular", "type": "general", "reasonName": "globalInteractionReason"}]}, "venue": {"id": "4cca125726fea1cd584f2b4d", "name": "5 Kings Liquors", "location": {"address": "154 Avenue U", "lat": 40.596416147163026, "lng": -73.97856365382246, "labeledLatLngs": [{"label": "display", "lat": 40.596416147163026, "lng": -73.97856365382246}], "distance": 449, "postalCode": "11223", "cc": "US", "city": "Brooklyn", "state": "NY", "country": "United States", "formattedAddress": ["154 Avenue U", "Brooklyn, NY 11223", "United States"]}, "categories": [{"id": "4bf58dd8d48988d186941735", "name": "Liquor Store", "pluralName": "Liquor Stores", "shortName": "Liquor Store", "icon": {"prefix": "https://ss3.4sqi.net/img/categories_v2/shops/food_liquor_", "suffix": ".png"}, "primary": true}], "photos": {"count": 0, "groups": []}}, "referralId": "e-0-4cca125726fea1cd584f2b4d-22"}, {"reasons": {"count": 0, "items": [{"summary": "This spot is popular", "type": "general", "reasonName": "globalInteractionReason"}]}, "venue": {"id": "4c03eff80b8eef3b64d3b882", "name": "Avenue U Eagle Kitchen", "location": {"address": "152 Avenue U", "lat": 40.596140000000005, "lng": -73.978737, "labeledLatLngs": [{"label": "display", "lat": 40.596140000000005, "lng": -73.978737}, {"label": "entrance", "lat": 40.596255, "lng": -73.97876}], "distance": 455, "postalCode": "11223", "cc": "US", "city": "Brooklyn", "state": "NY", "country": "United States", "formattedAddress": ["152 Avenue U", "Brooklyn, NY 11223", "United States"]}, "categories": [{"id": "4bf58dd8d48988d145941735", "name": "Chinese Restaurant", "pluralName": "Chinese Restaurants", "shortName": "Chinese", "icon": {"prefix": "https://ss3.4sqi.net/img/categories_v2/food/asian_", "suffix": ".png"}, "primary": true}], "photos": {"count": 0, "groups": []}}, "referralId": "e-0-4c03eff80b8eef3b64d3b882-23"}, {"reasons": {"count": 0, "items": [{"summary": "This spot is popular", "type": "general", "reasonName": "globalInteractionReason"}]}, "venue": {"id": "4c1825f3834e2d7fbc842880", "name": "Zheng China Kitchen", "location": {"address": "2851 86th St", "lat": 40.592207, "lng": -73.977315, "labeledLatLngs": [{"label": "display", "lat": 40.592207, "lng": -73.977315}, {"label": "entrance", "lat": 40.592159, "lng": -73.977365}], "distance": 470, "postalCode": "11223", "cc": "US", "city": "Brooklyn", "state": "NY", "country": "United States", "formattedAddress": ["2851 86th St", "Brooklyn, NY 11223", "United States"]}, "categories": [{"id": "4bf58dd8d48988d145941735", "name": "Chinese Restaurant", "pluralName": "Chinese Restaurants", "shortName": "Chinese", "icon": {"prefix": "https://ss3.4sqi.net/img/categories_v2/food/asian_", "suffix": ".png"}, "primary": true}], "photos": {"count": 0, "groups": []}}, "referralId": "e-0-4c1825f3834e2d7fbc842880-24"}, {"reasons": {"count": 0, "items": [{"summary": "This spot is popular", "type": "general", "reasonName": "globalInteractionReason"}]}, "venue": {"id": "4bbb60101261d13ae695eb98", "name": "MTA Subway - 86th St (N)", "location": {"address": "86th St.", "crossStreet": "West 7th St.", "lat": 40.59258812061639, "lng": -73.97799546441124, "labeledLatLngs": [{"label": "display", "lat": 40.59258812061639, "lng": -73.97799546441124}], "distance": 484, "postalCode": "11223", "cc": "US", "city": "Brooklyn", "state": "NY", "country": "United States", "formattedAddress": ["86th St. (West 7th St.)", "Brooklyn, NY 11223", "United States"]}, "categories": [{"id": "4bf58dd8d48988d1fd931735", "name": "Metro Station", "pluralName": "Metro Stations", "shortName": "Metro", "icon": {"prefix": "https://ss3.4sqi.net/img/categories_v2/travel/subway_", "suffix": ".png"}, "primary": true}], "photos": {"count": 0, "groups": []}}, "referralId": "e-0-4bbb60101261d13ae695eb98-25"}, {"reasons": {"count": 0, "items": [{"summary": "This spot is popular", "type": "general", "reasonName": "globalInteractionReason"}]}, "venue": {"id": "4dc1e1c6e4cda235454819db", "name": "Kennedy Fried Chicken & Pizza", "location": {"address": "2837 86th St", "crossStreet": "w.7th", "lat": 40.592560999999996, "lng": -73.977968, "labeledLatLngs": [{"label": "display", "lat": 40.592560999999996, "lng": -73.977968}, {"label": "entrance", "lat": 40.592538, "lng": -73.977998}], "distance": 484, "postalCode": "11223", "cc": "US", "city": "Brooklyn", "state": "NY", "country": "United States", "formattedAddress": ["2837 86th St (w.7th)", "Brooklyn, NY 11223", "United States"]}, "categories": [{"id": "4bf58dd8d48988d1ca941735", "name": "Pizza Place", "pluralName": "Pizza Places", "shortName": "Pizza", "icon": {"prefix": "https://ss3.4sqi.net/img/categories_v2/food/pizza_", "suffix": ".png"}, "primary": true}], "photos": {"count": 0, "groups": []}}, "referralId": "e-0-4dc1e1c6e4cda235454819db-26"}, {"reasons": {"count": 0, "items": [{"summary": "This spot is popular", "type": "general", "reasonName": "globalInteractionReason"}]}, "venue": {"id": "4c5da3ad2815c928b262b567", "name": "Y&H Nail Salon", "location": {"address": "2853 86th St", "lat": 40.592130694611754, "lng": -73.97758797400179, "labeledLatLngs": [{"label": "display", "lat": 40.592130694611754, "lng": -73.97758797400179}], "distance": 492, "postalCode": "11223", "cc": "US", "city": "Brooklyn", "state": "NY", "country": "United States", "formattedAddress": ["2853 86th St", "Brooklyn, NY 11223", "United States"]}, "categories": [{"id": "4bf58dd8d48988d10c951735", "name": "Cosmetics Shop", "pluralName": "Cosmetics Shops", "shortName": "Cosmetics", "icon": {"prefix": "https://ss3.4sqi.net/img/categories_v2/shops/beauty_cosmetic_", "suffix": ".png"}, "primary": true}], "photos": {"count": 0, "groups": []}}, "referralId": "e-0-4c5da3ad2815c928b262b567-27"}, {"reasons": {"count": 0, "items": [{"summary": "This spot is popular", "type": "general", "reasonName": "globalInteractionReason"}]}, "venue": {"id": "4e7626351f6e072f13fc4599", "name": "Mta - B1/B4 (86th Str & West 7th)", "location": {"address": "86th Street", "crossStreet": "West 7th", "lat": 40.59249571757759, "lng": -73.97811190551315, "labeledLatLngs": [{"label": "display", "lat": 40.59249571757759, "lng": -73.97811190551315}], "distance": 498, "cc": "US", "city": "Brooklyn", "state": "NY", "country": "United States", "formattedAddress": ["86th Street (West 7th)", "Brooklyn, NY", "United States"]}, "categories": [{"id": "4bf58dd8d48988d1fe931735", "name": "Bus Station", "pluralName": "Bus Stations", "shortName": "Bus Station", "icon": {"prefix": "https://ss3.4sqi.net/img/categories_v2/travel/busstation_", "suffix": ".png"}, "primary": true}], "photos": {"count": 0, "groups": []}}, "referralId": "e-0-4e7626351f6e072f13fc4599-28"}]