[{"reasons": {"count": 0, "items": [{"summary": "This spot is popular", "type": "general", "reasonName": "globalInteractionReason"}]}, "venue": {"id": "4ad8c329f964a520731421e3", "name": "Joe's of Avenue U", "location": {"address": "287 Avenue U", "lat": 40.596970812269824, "lng": -73.9736772701698, "labeledLatLngs": [{"label": "display", "lat": 40.596970812269824, "lng": -73.9736772701698}, {"label": "entrance", "lat": 40.597039, "lng": -73.973681}], "distance": 191, "postalCode": "11223", "cc": "US", "city": "Brooklyn", "state": "NY", "country": "United States", "formattedAddress": ["287 Avenue U", "Brooklyn, NY 11223", "United States"]}, "categories": [{"id": "4bf58dd8d48988d110941735", "name": "Italian Restaurant", "pluralName": "Italian Restaurants", "shortName": "Italian", "icon": {"prefix": "https://ss3.4sqi.net/img/categories_v2/food/italian_", "suffix": ".png"}, "primary": true}], "photos": {"count": 0, "groups": []}}, "referralId": "e-0-4ad8c329f964a520731421e3-0"}, {"reasons": {"count": 0, "items": [{"summary": "This spot is popular", "type": "general", "reasonName": "globalInteractionReason"}]}, "venue": {"id": "4da602dacda1b0253fe9192e", "name": "Nuccios Bakery", "location": {"address": "261 Avenue U", "lat": 40.597097, "lng": -73.97448299999999, "labeledLatLngs": [{"label": "display", "lat": 40.597097, "lng": -73.97448299999999}, {"label": "entrance", "lat": 40.596941, "lng": -73.974505}], "distance": 221, "postalCode": "11223", "cc": "US", "city": "Brooklyn", "state": "NY", "country": "United States", "formattedAddress": ["261 Avenue U", "Brooklyn, NY 11223", "United States"]}, "categories": [{"id": "4bf58dd8d48988d16a941735", "name": "Bakery", "pluralName": "Bakeries", "shortName": "Bakery", "icon": {"prefix": "https://ss3.4sqi.net/img/categories_v2/food/bakery_", "suffix": ".png"}, "primary": true}], "photos": {"count": 0, "groups": []}}, "referralId": "e-0-4da602dacda1b0253fe9192e-1"}, {"reasons": {"count": 0, "items": [{"summary": "This spot is popular", "type": "general", "reasonName": "globalInteractionReason"}]}, "venue": {"id": "4c4144f1ce54e21e3cf10a1a", "name": "Living Room Cafe", "location": {"address": "176 Avenue U", "crossStreet": "W 6th St", "lat": 40.59643872110103, "lng": -73.97758308781751, "labeledLatLngs": [{"label": "display", "lat": 40.59643872110103, "lng": -73.97758308781751}], "distance": 371, "postalCode": "11223", "cc": "US", "city": "Brooklyn", "state": "NY", "country": "United States", "formattedAddress": ["176 Avenue U (W 6th St)", "Brooklyn, NY 11223", "United States"]}, "categories": [{"id": "4bf58dd8d48988d121941735", "name": "Lounge", "pluralName": "Lounges", "shortName": "Lounge", "icon": {"prefix": "https://ss3.4sqi.net/img/categories_v2/nightlife/default_", "suffix": ".png"}, "primary": true}], "photos": {"count": 0, "groups": []}}, "referralId": "e-0-4c4144f1ce54e21e3cf10a1a-2"}, {"reasons": {"count": 0, "items": [{"summary": "This spot is popular", "type": "general", "reasonName": "globalInteractionReason"}]}, "venue": {"id": "4b945bdef964a5202e7634e3", "name": "Blue Velvet Lounge", "location": {"address": "341 Avenue U", "crossStreet": "at W 1st", "lat": 40.59716172710791, "lng": -73.97159910456925, "labeledLatLngs": [{"label": "display", "lat": 40.59716172710791, "lng": -73.97159910456925}, {"label": "entrance", "lat": 40.597262, "lng": -73.971668}], "distance": 264, "postalCode": "11223", "cc": "US", "city": "Brooklyn", "state": "NY", "country": "United States", "formattedAddress": ["341 Avenue U (at W 1st)", "Brooklyn, NY 11223", "United States"]}, "categories": [{"id": "4bf58dd8d48988d116941735", "name": "Bar", "pluralName": "Bars", "shortName": "Bar", "icon": {"prefix": "https://ss3.4sqi.net/img/categories_v2/nightlife/pub_", "suffix": ".png"}, "primary": true}], "photos": {"count": 0, "groups": []}}, "referralId": "e-0-4b945bdef964a5202e7634e3-3"}, {"reasons": {"count": 0, "items": [{"summary": "This spot is popular", "type": "general", "reasonName": "globalInteractionReason"}]}, "venue": {"id": "4bca3b143740b71329646065", "name": "Dunkin'", "location": {"address": "203 Avenue U", "crossStreet": "West 6th Street", "lat": 40.596808421152225, "lng": -73.97669432055227, "labeledLatLngs": [{"label": "display", "lat": 40.596808421152225, "lng": -73.97669432055227}, {"label": "entrance", "lat": 40.59671, "lng": -73.976671}], "distance": 322, "postalCode": "11223", "cc": "US", "city": "Brooklyn", "state": "NY", "country": "United States", "formattedAddress": ["203 Avenue U (West 6th Street)", "Brooklyn, NY 11223", "United States"]}, "categories": [{"id": "4bf58dd8d48988d148941735", "name": "Donut Shop", "pluralName": "Donut Shops", "shortName": "Donuts", "icon": {"prefix": "https://ss3.4sqi.net/img/categories_v2/food/donuts_", "suffix": ".png"}, "primary": true}], "delivery": {"id": "1392930", "url": "https://www.seamless.com/menu/dunkin-kosher-203-avenue-u-brooklyn/1392930?affiliate=1131&utm_source=foursquare-affiliate-network&utm_medium=affiliate&utm_campaign=1131&utm_content=1392930", "provider": {"name": "seamless", "icon": {"prefix": "https://fastly.4sqi.net/img/general/cap/", "sizes": [40, 50], "name": "/delivery_provider_seamless_20180129.png"}}}, "photos": {"count": 0, "groups": []}}, "referralId": "e-0-4bca3b143740b71329646065-4"}, {"reasons": {"count": 0, "items": [{"summary": "This spot is popular", "type": "general", "reasonName": "globalInteractionReason"}]}, "venue": {"id": "4c75a5ed3adda143830208af", "name": "Elegante Pastry Shop", "location": {"address": "165 Avenue U #A", "lat": 40.596633000000004, "lng": -73.97818199999999, "labeledLatLngs": [{"label": "display", "lat": 40.596633000000004, "lng": -73.97818199999999}, {"label": "entrance", "lat": 40.596544, "lng": -73.978167}], "distance": 426, "postalCode": "11223", "cc": "US", "city": "Brooklyn", "state": "NY", "country": "United States", "formattedAddress": ["165 Avenue U #A", "Brooklyn, NY 11223", "United States"]}, "categories": [{"id": "4bf58dd8d48988d16a941735", "name": "Bakery", "pluralName": "Bakeries", "shortName": "Bakery", "icon": {"prefix": "https://ss3.4sqi.net/img/categories_v2/food/bakery_", "suffix": ".png"}, "primary": true}], "photos": {"count": 0, "groups": []}}, "referralId": "e-0-4c75a5ed3adda143830208af-5"}, {"reasons": {"count": 0, "items": [{"summary": "This spot is popular", "type": "general", "reasonName": "globalInteractionReason"}]}, "venue": {"id": "4c059bfc191f20a1895de314", "name": "Ciccio's", "location": {"address": "207 Avenue U", "crossStreet": "w 5 street", "lat": 40.59667201492687, "lng": -73.97634043335019, "labeledLatLngs": [{"label": "display", "lat": 40.59667201492687, "lng": -73.97634043335019}, {"label": "entrance", "lat": 40.596749, "lng": -73.976319}], "distance": 289, "postalCode": "11223", "cc": "US", "city": "Brooklyn", "state": "NY", "country": "United States", "formattedAddress": ["207 Avenue U (w 5 street)", "Brooklyn, NY 11223", "United States"]}, "categories": [{"id": "4bf58dd8d48988d1ca941735", "name": "Pizza Place", "pluralName": "Pizza Places", "shortName": "Pizza", "icon": {"prefix": "https://ss3.4sqi.net/img/categories_v2/food/pizza_", "suffix": ".png"}, "primary": true}], "delivery": {"id": "1486552", "url": "https://www.seamless.com/menu/ciccios-207-avenue-u-brooklyn/1486552?affiliate=1131&utm_source=foursquare-affiliate-network&utm_medium=affiliate&utm_campaign=1131&utm_content=1486552", "provider": {"name": "seamless", "icon": {"prefix": "https://fastly.4sqi.net/img/general/cap/", "sizes": [40, 50], "name": "/delivery_provider_seamless_20180129.png"}}}, "photos": {"count": 0, "groups": []}}, "referralId": "e-0-4c059bfc191f20a1895de314-6"}, {"reasons": {"count": 0, "items": [{"summary": "This spot is popular", "type": "general", "reasonName": "globalInteractionReason"}]}, "venue": {"id": "4d911aa3033ba35d7447690d", "name": "Rite Aid", "location": {"address": "237-241 Avenue U", "crossStreet": "W 4 st", "lat": 40.59675624624044, "lng": -73.97545660425911, "labeledLatLngs": [{"label": "display", "lat": 40.59675624624044, "lng": -73.97545660425911}, {"label": "entrance", "lat": 40.596846, "lng": -73.975419}], "distance": 236, "postalCode": "11223", "cc": "US", "city": "Brooklyn", "state": "NY", "country": "United States", "formattedAddress": ["237-241 Avenue U (W 4 st)", "Brooklyn, NY 11223", "United States"]}, "categories": [{"id": "4bf58dd8d48988d10f951735", "name": "Pharmacy", "pluralName": "Pharmacies", "shortName": "Pharmacy", "icon": {"prefix": "https://ss3.4sqi.net/img/categories_v2/shops/pharmacy_", "suffix": ".png"}, "primary": true}], "photos": {"count": 0, "groups": []}}, "referralId": "e-0-4d911aa3033ba35d7447690d-7"}, {"reasons": {"count": 0, "items": [{"summary": "This spot is popular", "type": "general", "reasonName": "globalInteractionReason"}]}, "venue": {"id": "511d482fe4b05556318cae27", "name": "Papa John's Pizza", "location": {"address": "189 Avenue U", "lat": 40.596748555126595, "lng": -73.97705042270184, "labeledLatLngs": [{"label": "display", "lat": 40.596748555126595, "lng": -73.97705042270184}, {"label": "entrance", "lat": 40.596669, "lng": -73.977027}], "distance": 344, "postalCode": "11223", "cc": "US", "city": "Brooklyn", "state": "NY", "country": "United States", "formattedAddress": ["189 Avenue U", "Brooklyn, NY 11223", "United States"]}, "categories": [{"id": "4bf58dd8d48988d1ca941735", "name": "Pizza Place", "pluralName": "Pizza Places", "shortName": "Pizza", "icon": {"prefix": "https://ss3.4sqi.net/img/categories_v2/food/pizza_", "suffix": ".png"}, "primary": true}], "delivery": {"id": "824557", "url": "https://www.seamless.com/menu/papa-johns-pizza-189-ave-u-brooklyn/824557?affiliate=1131&utm_source=foursquare-affiliate-network&utm_medium=affiliate&utm_campaign=1131&utm_content=824557", "provider": {"name": "seamless", "icon": {"prefix": "https://fastly.4sqi.net/img/general/cap/", "sizes": [40, 50], "name": "/delivery_provider_seamless_20180129.png"}}}, "photos": {"count": 0, "groups": []}}, "referralId": "e-0-511d482fe4b05556318cae27-8"}, {"reasons": {"count": 0, "items": [{"summary": "This spot is popular", "type": "general", "reasonName": "globalInteractionReason"}]}, "venue": {"id": "4f07e378e4b090ef21638a6f", "name": "Lounge Bar Cave", "location": {"address": "2320 McDonald Ave", "lat": 40.59574582387017, "lng": -73.97347166058043, "labeledLatLngs": [{"label": "display", "lat": 40.59574582387017, "lng": -73.97347166058043}], "distance": 54, "postalCode": "11223", "cc": "US", "city": "Brooklyn", "state": "NY", "country": "United States", "formattedAddress": ["2320 McDonald Ave", "Brooklyn, NY 11223", "United States"]}, "categories": [{"id": "4bf58dd8d48988d121941735", "name": "Lounge", "pluralName": "Lounges", "shortName": "Lounge", "icon": {"prefix": "https://ss3.4sqi.net/img/categories_v2/nightlife/default_", "suffix": ".png"}, "primary": true}], "photos": {"count": 0, "groups": []}}, "referralId": "e-0-4f07e378e4b090ef21638a6f-9"}, {"reasons": {"count": 0, "items": [{"summary": "This spot is popular", "type": "general", "reasonName": "globalInteractionReason"}]}, "venue": {"id": "4e2974ff152078c77b07e895", "name": "OMG MMA", "location": {"address": "39 Gravesend Neck Rd", "crossStreet": "Mcdonald ave", "lat": 40.59521770254833, "lng": -73.97404789924622, "labeledLatLngs": [{"label": "display", "lat": 40.59521770254833, "lng": -73.97404789924622}], "distance": 49, "postalCode": "11223", "cc": "US", "city": "Brooklyn", "state": "NY", "country": "United States", "formattedAddress": ["39 Gravesend Neck Rd (Mcdonald ave)", "Brooklyn, NY 11223", "United States"]}, "categories": [{"id": "4bf58dd8d48988d101941735", "name": "Martial Arts Dojo", "pluralName": "Martial Arts Dojos", "shortName": "Martial Arts", "icon": {"prefix": "https://ss3.4sqi.net/img/categories_v2/shops/gym_martialarts_", "suffix": ".png"}, "primary": true}], "photos": {"count": 0, "groups": []}}, "referralId": "e-0-4e2974ff152078c77b07e895-10"}, {"reasons": {"count": 0, "items": [{"summary": "This spot is popular", "type": "general", "reasonName": "globalInteractionReason"}]}, "venue": {"id": "4c0ad5906071a593a451e032", "name": "Wines Plus Inc.", "location": {"address": "310 Avenue U", "crossStreet": "McDonald Avenue", "lat": 40.596880999999996, "lng": -73.97252900000001, "labeledLatLngs": [{"label": "display", "lat": 40.596880999999996, "lng": -73.97252900000001}, {"label": "entrance", "lat": 40.596938, "lng": -73.972568}], "distance": 197, "postalCode": "11223", "cc": "US", "city": "Brooklyn", "state": "NY", "country": "United States", "formattedAddress": ["310 Avenue U (McDonald Avenue)", "Brooklyn, NY 11223", "United States"]}, "categories": [{"id": "4bf58dd8d48988d119951735", "name": "Wine Shop", "pluralName": "Wine Shops", "shortName": "Wine Shop", "icon": {"prefix": "https://ss3.4sqi.net/img/categories_v2/shops/food_wineshop_", "suffix": ".png"}, "primary": true}], "photos": {"count": 0, "groups": []}}, "referralId": "e-0-4c0ad5906071a593a451e032-11"}, {"reasons": {"count": 0, "items": [{"summary": "This spot is popular", "type": "general", "reasonName": "globalInteractionReason"}]}, "venue": {"id": "4d58046436d1721edaa9f1b1", "name": "David's Bakery & Grocery", "location": {"address": "2288 McDonald Ave", "crossStreet": "Village Road North", "lat": 40.596240653894895, "lng": -73.97325474794536, "labeledLatLngs": [{"label": "display", "lat": 40.596240653894895, "lng": -73.97325474794536}, {"label": "entrance", "lat": 40.596427, "lng": -73.973493}], "distance": 110, "postalCode": "11223", "cc": "US", "city": "Brooklyn", "state": "NY", "country": "United States", "formattedAddress": ["2288 McDonald Ave (Village Road North)", "Brooklyn, NY 11223", "United States"]}, "categories": [{"id": "4bf58dd8d48988d109941735", "name": "Eastern European Restaurant", "pluralName": "Eastern European Restaurants", "shortName": "Eastern European", "icon": {"prefix": "https://ss3.4sqi.net/img/categories_v2/food/default_", "suffix": ".png"}, "primary": true}], "photos": {"count": 0, "groups": []}}, "referralId": "e-0-4d58046436d1721edaa9f1b1-12"}, {"reasons": {"count": 0, "items": [{"summary": "This spot is popular", "type": "general", "reasonName": "globalInteractionReason"}]}, "venue": {"id": "4dc540bfc65b89d3ca689c1f", "name": "Gravesend Our Lady Of Grace Field", "location": {"address": "100 Gravesend Neck Road", "crossStreet": "West Street", "lat": 40.5949923550755, "lng": -73.97140026316572, "labeledLatLngs": [{"label": "display", "lat": 40.5949923550755, "lng": -73.97140026316572}], "distance": 177, "cc": "US", "city": "Brooklyn", "state": "NY", "country": "United States", "formattedAddress": ["100 Gravesend Neck Road (West Street)", "Brooklyn, NY", "United States"]}, "categories": [{"id": "4bf58dd8d48988d1e8941735", "name": "Baseball Field", "pluralName": "Baseball Fields", "shortName": "Baseball Field", "icon": {"prefix": "https://ss3.4sqi.net/img/categories_v2/parks_outdoors/baseballfield_", "suffix": ".png"}, "primary": true}], "photos": {"count": 0, "groups": []}}, "referralId": "e-0-4dc540bfc65b89d3ca689c1f-13"}, {"reasons": {"count": 0, "items": [{"summary": "This spot is popular", "type": "general", "reasonName": "globalInteractionReason"}]}, "venue": {"id": "4bbe1334078095211d66db91", "name": "Pizza Park", "location": {"address": "263 Avenue U", "lat": 40.596835, "lng": -73.974292, "labeledLatLngs": [{"label": "display", "lat": 40.596835, "lng": -73.974292}, {"label": "entrance", "lat": 40.596949, "lng": -73.974431}], "distance": 188, "postalCode": "11223", "cc": "US", "city": "Brooklyn", "state": "NY", "country": "United States", "formattedAddress": ["263 Avenue U", "Brooklyn, NY 11223", "United States"]}, "categories": [{"id": "4bf58dd8d48988d1ca941735", "name": "Pizza Place", "pluralName": "Pizza Places", "shortName": "Pizza", "icon": {"prefix": "https://ss3.4sqi.net/img/categories_v2/food/pizza_", "suffix": ".png"}, "primary": true}], "photos": {"count": 0, "groups": []}}, "referralId": "e-0-4bbe1334078095211d66db91-14"}, {"reasons": {"count": 0, "items": [{"summary": "This spot is popular", "type": "general", "reasonName": "globalInteractionReason"}]}, "venue": {"id": "4ecbba2bcc214a29d1828ee2", "name": "Eagle Cheese", "location": {"address": "320 Avenue U, Brooklyn, NY 11223", "lat": 40.596872999999995, "lng": -73.972263, "labeledLatLngs": [{"label": "display", "lat": 40.596872999999995, "lng": -73.972263}, {"label": "entrance", "lat": 40.59697, "lng": -73.97228}], "distance": 206, "postalCode": "11223", "cc": "US", "city": "Brooklyn", "state": "NY", "country": "United States", "formattedAddress": ["320 Avenue U, Brooklyn, NY 11223", "Brooklyn, NY 11223", "United States"]}, "categories": [{"id": "4bf58dd8d48988d110941735", "name": "Italian Restaurant", "pluralName": "Italian Restaurants", "shortName": "Italian", "icon": {"prefix": "https://ss3.4sqi.net/img/categories_v2/food/italian_", "suffix": ".png"}, "primary": true}], "photos": {"count": 0, "groups": []}}, "referralId": "e-0-4ecbba2bcc214a29d1828ee2-15"}, {"reasons": {"count": 0, "items": [{"summary": "This spot is popular", "type": "general", "reasonName": "globalInteractionReason"}]}, "venue": {"id": "4e95db25b803e50c634d0e95", "name": "Omni Health", "location": {"address": "265 Avenue U", "lat": 40.597102, "lng": -73.974337, "labeledLatLngs": [{"label": "display", "lat": 40.597102, "lng": -73.974337}, {"label": "entrance", "lat": 40.596957, "lng": -73.974357}], "distance": 217, "postalCode": "11223", "cc": "US", "city": "Brooklyn", "state": "NY", "country": "United States", "formattedAddress": ["265 Avenue U", "Brooklyn, NY 11223", "United States"]}, "categories": [{"id": "4bf58dd8d48988d1f5941735", "name": "Gourmet Shop", "pluralName": "Gourmet Shops", "shortName": "Gourmet", "icon": {"prefix": "https://ss3.4sqi.net/img/categories_v2/shops/food_gourmet_", "suffix": ".png"}, "primary": true}], "delivery": {"id": "1388548", "url": "https://www.seamless.com/menu/omni-health-265-avenue-u-brooklyn/1388548?affiliate=1131&utm_source=foursquare-affiliate-network&utm_medium=affiliate&utm_campaign=1131&utm_content=1388548", "provider": {"name": "seamless", "icon": {"prefix": "https://fastly.4sqi.net/img/general/cap/", "sizes": [40, 50], "name": "/delivery_provider_seamless_20180129.png"}}}, "photos": {"count": 0, "groups": []}}, "referralId": "e-0-4e95db25b803e50c634d0e95-16"}, {"reasons": {"count": 0, "items": [{"summary": "This spot is popular", "type": "general", "reasonName": "globalInteractionReason"}]}, "venue": {"id": "5688736c498e433ef8dece6e", "name": "Tre Fontane", "location": {"address": "222 Avenue U", "lat": 40.596462, "lng": -73.975812, "labeledLatLngs": [{"label": "display", "lat": 40.596462, "lng": -73.975812}, {"label": "entrance", "lat": 40.596581, "lng": -73.97581}], "distance": 238, "postalCode": "11223", "cc": "US", "city": "Brooklyn", "state": "NY", "country": "United States", "formattedAddress": ["222 Avenue U", "Brooklyn, NY 11223", "United States"]}, "categories": [{"id": "4bf58dd8d48988d110941735", "name": "Italian Restaurant", "pluralName": "Italian Restaurants", "shortName": "Italian", "icon": {"prefix": "https://ss3.4sqi.net/img/categories_v2/food/italian_", "suffix": ".png"}, "primary": true}], "photos": {"count": 0, "groups": []}}, "referralId": "e-0-5688736c498e433ef8dece6e-17"}, {"reasons": {"count": 0, "items": [{"summary": "This spot is popular", "type": "general", "reasonName": "globalInteractionReason"}]}, "venue": {"id": "5136b34e7ab48a1d5bef91c8", "name": "Baby Central", "location": {"address": "2436 McDonald Ave", "crossStreet": "Between Ave V and W", "lat": 40.592692184013515, "lng": -73.9738655090332, "labeledLatLngs": [{"label": "display", "lat": 40.592692184013515, "lng": -73.9738655090332}, {"label": "entrance", "lat": 40.59282, "lng": -73.973984}], "distance": 287, "postalCode": "11223", "cc": "US", "city": "Brooklyn", "state": "NY", "country": "United States", "formattedAddress": ["2436 McDonald Ave (Between Ave V and W)", "Brooklyn, NY 11223", "United States"]}, "categories": [{"id": "4bf58dd8d48988d1f8941735", "name": "Furniture / Home Store", "pluralName": "Furniture / Home Stores", "shortName": "Furniture / Home", "icon": {"prefix": "https://ss3.4sqi.net/img/categories_v2/shops/furniture_", "suffix": ".png"}, "primary": true}], "photos": {"count": 0, "groups": []}}, "referralId": "e-0-5136b34e7ab48a1d5bef91c8-18"}, {"reasons": {"count": 0, "items": [{"summary": "This spot is popular", "type": "general", "reasonName": "globalInteractionReason"}]}, "venue": {"id": "4e3c7d50ae6045423658bf86", "name": "A & Z Nails", "location": {"address": "166 Avenue U", "lat": 40.59627914545449, "lng": -73.97739857675703, "labeledLatLngs": [{"label": "display", "lat": 40.59627914545449, "lng": -73.97739857675703}, {"label": "entrance", "lat": 40.596368, "lng": -73.979733}], "distance": 350, "postalCode": "11223", "cc": "US", "city": "Brooklyn", "state": "NY", "country": "United States", "formattedAddress": ["166 Avenue U", "Brooklyn, NY 11223", "United States"]}, "categories": [{"id": "4bf58dd8d48988d1ed941735", "name": "Spa", "pluralName": "Spas", "shortName": "Spa", "icon": {"prefix": "https://ss3.4sqi.net/img/categories_v2/shops/spa_", "suffix": ".png"}, "primary": true}], "photos": {"count": 0, "groups": []}}, "referralId": "e-0-4e3c7d50ae6045423658bf86-19"}, {"reasons": {"count": 0, "items": [{"summary": "This spot is popular", "type": "general", "reasonName": "globalInteractionReason"}]}, "venue": {"id": "4cc8694abe874688d44e84af", "name": "Sports Fever", "location": {"lat": 40.596259, "lng": -73.97774799999999, "labeledLatLngs": [{"label": "display", "lat": 40.596259, "lng": -73.97774799999999}, {"label": "entrance", "lat": 40.596365, "lng": -73.977768}], "distance": 378, "postalCode": "11223", "cc": "US", "city": "Brooklyn", "state": "NY", "country": "United States", "formattedAddress": ["Brooklyn, NY 11223", "United States"]}, "categories": [{"id": "4bf58dd8d48988d1f2941735", "name": "Sporting Goods Shop", "pluralName": "Sporting Goods Shops", "shortName": "Sporting Goods", "icon": {"prefix": "https://ss3.4sqi.net/img/categories_v2/shops/sports_outdoors_", "suffix": ".png"}, "primary": true}], "photos": {"count": 0, "groups": []}}, "referralId": "e-0-4cc8694abe874688d44e84af-20"}, {"reasons": {"count": 0, "items": [{"summary": "This spot is popular", "type": "general", "reasonName": "globalInteractionReason"}]}, "venue": {"id": "4e5116da2271a1bdc3f4e502", "name": "MTA B3 - E 2nd St.", "location": {"address": "at Ave. U", "lat": 40.597302, "lng": -73.969856, "labeledLatLngs": [{"label": "display", "lat": 40.597302, "lng": -73.969856}], "distance": 380, "cc": "US", "city": "Brooklyn", "state": "NY", "country": "United States", "formattedAddress": ["at Ave. U", "Brooklyn, NY", "United States"]}, "categories": [{"id": "4bf58dd8d48988d1fe931735", "name": "Bus Station", "pluralName": "Bus Stations", "shortName": "Bus Station", "icon": {"prefix": "https://ss3.4sqi.net/img/categories_v2/travel/busstation_", "suffix": ".png"}, "primary": true}], "photos": {"count": 0, "groups": []}}, "referralId": "e-0-4e5116da2271a1bdc3f4e502-21"}, {"reasons": {"count": 0, "items": [{"summary": "This spot is popular", "type": "general", "reasonName": "globalInteractionReason"}]}, "venue": {"id": "4ea3abe9b80355a9824656b2", "name": "PASSION CAFE/LOUNGE", "location": {"address": "167 AVE U BROOKLYN NY 11223", "crossStreet": "BTWN WEST 6TH & WEST 7TH", "lat": 40.59627469900939, "lng": -73.9778921570652, "labeledLatLngs": [{"label": "display", "lat": 40.59627469900939, "lng": -73.9778921570652}], "distance": 390, "postalCode": "11230", "cc": "US", "city": "Brooklyn", "state": "NY", "country": "United States", "formattedAddress": ["167 AVE U BROOKLYN NY 11223 (BTWN WEST 6TH & WEST 7TH)", "Brooklyn, NY 11230", "United States"]}, "categories": [{"id": "4bf58dd8d48988d1e5931735", "name": "Music Venue", "pluralName": "Music Venues", "shortName": "Music Venue", "icon": {"prefix": "https://ss3.4sqi.net/img/categories_v2/arts_entertainment/musicvenue_", "suffix": ".png"}, "primary": true}], "photos": {"count": 0, "groups": []}}, "referralId": "e-0-4ea3abe9b80355a9824656b2-22"}, {"reasons": {"count": 0, "items": [{"summary": "This spot is popular", "type": "general", "reasonName": "globalInteractionReason"}]}, "venue": {"id": "56dc53decd10b73f2cb30895", "name": "Vinny's Lunchbox", "location": {"address": "171 Avenue U", "crossStreet": "btwn W 6th & W 7th St", "lat": 40.596635, "lng": -73.97796600000001, "labeledLatLngs": [{"label": "display", "lat": 40.596635, "lng": -73.97796600000001}, {"label": "entrance", "lat": 40.596567, "lng": -73.977953}], "distance": 409, "postalCode": "11223", "cc": "US", "neighborhood": "Gravesend", "city": "Brooklyn", "state": "NY", "country": "United States", "formattedAddress": ["171 Avenue U (btwn W 6th & W 7th St)", "Brooklyn, NY 11223", "United States"]}, "categories": [{"id": "4bf58dd8d48988d147941735", "name": "Diner", "pluralName": "Diners", "shortName": "Diner", "icon": {"prefix": "https://ss3.4sqi.net/img/categories_v2/food/diner_", "suffix": ".png"}, "primary": true}], "delivery": {"id": "306947", "url": "https://www.seamless.com/menu/vinnys-lunchbox-171-avenue-u-brooklyn/306947?affiliate=1131&utm_source=foursquare-affiliate-network&utm_medium=affiliate&utm_campaign=1131&utm_content=306947", "provider": {"name": "seamless", "icon": {"prefix": "https://fastly.4sqi.net/img/general/cap/", "sizes": [40, 50], "name": "/delivery_provider_seamless_20180129.png"}}}, "photos": {"count": 0, "groups": []}}, "referralId": "e-0-56dc53decd10b73f2cb30895-23"}, {"reasons": {"count": 0, "items": [{"summary": "This spot is popular", "type": "general", "reasonName": "globalInteractionReason"}]}, "venue": {"id": "4c2d84c67d85a593b1d452f3", "name": "Passion Cafe", "location": {"address": "167 Avenue U", "crossStreet": "West 7th", "lat": 40.596619, "lng": -73.978109, "labeledLatLngs": [{"label": "display", "lat": 40.596619, "lng": -73.978109}], "distance": 420, "postalCode": "11223", "cc": "US", "city": "Brooklyn", "state": "NY", "country": "United States", "formattedAddress": ["167 Avenue U (West 7th)", "Brooklyn, NY 11223", "United States"]}, "categories": [{"id": "4bf58dd8d48988d119941735", "name": "Hookah Bar", "pluralName": "Hookah Bars", "shortName": "Hookah Bar", "icon": {"prefix": "https://ss3.4sqi.net/img/categories_v2/nightlife/hookahbar_", "suffix": ".png"}, "primary": true}], "photos": {"count": 0, "groups": []}}, "referralId": "e-0-4c2d84c67d85a593b1d452f3-24"}, {"reasons": {"count": 0, "items": [{"summary": "This spot is popular", "type": "general", "reasonName": "globalInteractionReason"}]}, "venue": {"id": "4c0ad7983c70b7133311285b", "name": "Bari Pork Store", "location": {"address": "158 Avenue U", "crossStreet": "at W 7 St", "lat": 40.596167, "lng": -73.978314, "labeledLatLngs": [{"label": "display", "lat": 40.596167, "lng": -73.978314}, {"label": "entrance", "lat": 40.596302, "lng": -73.978339}], "distance": 421, "postalCode": "11223", "cc": "US", "city": "Brooklyn", "state": "NY", "country": "United States", "formattedAddress": ["158 Avenue U (at W 7 St)", "Brooklyn, NY 11223", "United States"]}, "categories": [{"id": "4bf58dd8d48988d110941735", "name": "Italian Restaurant", "pluralName": "Italian Restaurants", "shortName": "Italian", "icon": {"prefix": "https://ss3.4sqi.net/img/categories_v2/food/italian_", "suffix": ".png"}, "primary": true}], "photos": {"count": 0, "groups": []}}, "referralId": "e-0-4c0ad7983c70b7133311285b-25"}, {"reasons": {"count": 0, "items": [{"summary": "This spot is popular", "type": "general", "reasonName": "globalInteractionReason"}]}, "venue": {"id": "4cca125726fea1cd584f2b4d", "name": "5 Kings Liquors", "location": {"address": "154 Avenue U", "lat": 40.596416147163026, "lng": -73.97856365382246, "labeledLatLngs": [{"label": "display", "lat": 40.596416147163026, "lng": -73.97856365382246}], "distance": 449, "postalCode": "11223", "cc": "US", "city": "Brooklyn", "state": "NY", "country": "United States", "formattedAddress": ["154 Avenue U", "Brooklyn, NY 11223", "United States"]}, "categories": [{"id": "4bf58dd8d48988d186941735", "name": "Liquor Store", "pluralName": "Liquor Stores", "shortName": "Liquor Store", "icon": {"prefix": "https://ss3.4sqi.net/img/categories_v2/shops/food_liquor_", "suffix": ".png"}, "primary": true}], "photos": {"count": 0, "groups": []}}, "referralId": "e-0-4cca125726fea1cd584f2b4d-26"}, {"reasons": {"count": 0, "items": [{"summary": "This spot is popular", "type": "general", "reasonName": "globalInteractionReason"}]}, "venue": {"id": "4bbb60101261d13ae695eb98", "name": "MTA Subway - 86th St (N)", "location": {"address": "86th St.", "crossStreet": "West 7th St.", "lat": 40.59258812061639, "lng": -73.97799546441124, "labeledLatLngs": [{"label": "display", "lat": 40.59258812061639, "lng": -73.97799546441124}], "distance": 484, "postalCode": "11223", "cc": "US", "city": "Brooklyn", "state": "NY", "country": "United States", "formattedAddress": ["86th St. (West 7th St.)", "Brooklyn, NY 11223", "United States"]}, "categories": [{"id": "4bf58dd8d48988d1fd931735", "name": "Metro Station", "pluralName": "Metro Stations", "shortName": "Metro", "icon": {"prefix": "https://ss3.4sqi.net/img/categories_v2/travel/subway_", "suffix": ".png"}, "primary": true}], "photos": {"count": 0, "groups": []}}, "referralId": "e-0-4bbb60101261d13ae695eb98-27"}, {"reasons": {"count": 0, "items": [{"summary": "This spot is popular", "type": "general", "reasonName": "globalInteractionReason"}]}, "venue": {"id": "4db9e9370437ffd20796f4af", "name": "Choy Le Chinese Restaraunt", "location": {"lat": 40.597537, "lng": -73.968531, "labeledLatLngs": [{"label": "display", "lat": 40.597537, "lng": -73.968531}], "distance": 488, "cc": "US", "city": "New York", "state": "NY", "country": "United States", "formattedAddress": ["New York, NY", "United States"]}, "categories": [{"id": "4bf58dd8d48988d145941735", "name": "Chinese Restaurant", "pluralName": "Chinese Restaurants", "shortName": "Chinese", "icon": {"prefix": "https://ss3.4sqi.net/img/categories_v2/food/asian_", "suffix": ".png"}, "primary": true}], "photos": {"count": 0, "groups": []}}, "referralId": "e-0-4db9e9370437ffd20796f4af-28"}, {"reasons": {"count": 0, "items": [{"summary": "This spot is popular", "type": "general", "reasonName": "globalInteractionReason"}]}, "venue": {"id": "4e7626351f6e072f13fc4599", "name": "Mta - B1/B4 (86th Str & West 7th)", "location": {"address": "86th Street", "crossStreet": "West 7th", "lat": 40.59249571757759, "lng": -73.97811190551315, "labeledLatLngs": [{"label": "display", "lat": 40.59249571757759, "lng": -73.97811190551315}], "distance": 498, "cc": "US", "city": "Brooklyn", "state": "NY", "country": "United States", "formattedAddress": ["86th Street (West 7th)", "Brooklyn, NY", "United States"]}, "categories": [{"id": "4bf58dd8d48988d1fe931735", "name": "Bus Station", "pluralName": "Bus Stations", "shortName": "Bus Station", "icon": {"prefix": "https://ss3.4sqi.net/img/categories_v2/travel/busstation_", "suffix": ".png"}, "primary": true}], "photos": {"count": 0, "groups": []}}, "referralId": "e-0-4e7626351f6e072f13fc4599-29"}]