[{"reasons": {"count": 0, "items": [{"summary": "This spot is popular", "type": "general", "reasonName": "globalInteractionReason"}]}, "venue": {"id": "4a916658f964a520151a20e3", "name": "Karczma", "location": {"address": "136 Greenpoint Ave", "lat": 40.730101974807546, "lng": -73.95509198443229, "labeledLatLngs": [{"label": "display", "lat": 40.730101974807546, "lng": -73.95509198443229}, {"label": "entrance", "lat": 40.729996, "lng": -73.955134}], "distance": 72, "postalCode": "11222", "cc": "US", "city": "Brooklyn", "state": "NY", "country": "United States", "formattedAddress": ["136 Greenpoint Ave", "Brooklyn, NY 11222", "United States"]}, "categories": [{"id": "52e81612bcbc57f1066b7a04", "name": "Polish Restaurant", "pluralName": "Polish Restaurants", "shortName": "Polish", "icon": {"prefix": "https://ss3.4sqi.net/img/categories_v2/food/default_", "suffix": ".png"}, "primary": true}], "delivery": {"id": "2034552", "url": "https://www.seamless.com/menu/karczma-polish-restaurant-136-greenpoint-ave-brooklyn/2034552?affiliate=1131&utm_source=foursquare-affiliate-network&utm_medium=affiliate&utm_campaign=1131&utm_content=2034552", "provider": {"name": "seamless", "icon": {"prefix": "https://fastly.4sqi.net/img/general/cap/", "sizes": [40, 50], "name": "/delivery_provider_seamless_20180129.png"}}}, "photos": {"count": 0, "groups": []}, "venuePage": {"id": "94868737"}}, "referralId": "e-0-4a916658f964a520151a20e3-0"}, {"reasons": {"count": 0, "items": [{"summary": "This spot is popular", "type": "general", "reasonName": "globalInteractionReason"}]}, "venue": {"id": "4a9a86dcf964a520cc3120e3", "name": "goodyoga", "location": {"address": "114 Greenpoint Ave", "crossStreet": "btwn Franklin Ave & Manhattan Ave", "lat": 40.7300096443983, "lng": -73.95616742816873, "labeledLatLngs": [{"label": "display", "lat": 40.7300096443983, "lng": -73.95616742816873}], "distance": 163, "postalCode": "11222", "cc": "US", "city": "Brooklyn", "state": "NY", "country": "United States", "formattedAddress": ["114 Greenpoint Ave (btwn Franklin Ave & Manhattan Ave)", "Brooklyn, NY 11222", "United States"]}, "categories": [{"id": "4bf58dd8d48988d102941735", "name": "Yoga Studio", "pluralName": "Yoga Studios", "shortName": "Yoga Studio", "icon": {"prefix": "https://ss3.4sqi.net/img/categories_v2/shops/gym_yogastudio_", "suffix": ".png"}, "primary": true}], "photos": {"count": 0, "groups": []}}, "referralId": "e-0-4a9a86dcf964a520cc3120e3-1"}, {"reasons": {"count": 0, "items": [{"summary": "This spot is popular", "type": "general", "reasonName": "globalInteractionReason"}]}, "venue": {"id": "5b809669b9a5a8002c0c871b", "name": "Chiko", "location": {"address": "954 Manhattan Ave", "lat": 40.731871, "lng": -73.954369, "labeledLatLngs": [{"label": "display", "lat": 40.731871, "lng": -73.954369}], "distance": 186, "postalCode": "11222", "cc": "US", "city": "New York", "state": "NY", "country": "United States", "formattedAddress": ["954 Manhattan Ave", "New York, NY 11222", "United States"]}, "categories": [{"id": "4bf58dd8d48988d1d2941735", "name": "Sushi Restaurant", "pluralName": "Sushi Restaurants", "shortName": "Sushi", "icon": {"prefix": "https://ss3.4sqi.net/img/categories_v2/food/sushi_", "suffix": ".png"}, "primary": true}], "photos": {"count": 0, "groups": []}}, "referralId": "e-0-5b809669b9a5a8002c0c871b-2"}, {"reasons": {"count": 0, "items": [{"summary": "This spot is popular", "type": "general", "reasonName": "globalInteractionReason"}]}, "venue": {"id": "54d43863498e653d2ab8343f", "name": "Early", "location": {"address": "967 Manhattan Ave", "crossStreet": "at India St", "lat": 40.732069, "lng": -73.954721, "labeledLatLngs": [{"label": "display", "lat": 40.732069, "lng": -73.954721}, {"label": "entrance", "lat": 40.732148, "lng": -73.954727}], "distance": 211, "postalCode": "11222", "cc": "US", "city": "Brooklyn", "state": "NY", "country": "United States", "formattedAddress": ["967 Manhattan Ave (at India St)", "Brooklyn, NY 11222", "United States"]}, "categories": [{"id": "4bf58dd8d48988d16d941735", "name": "Caf\u00e9", "pluralName": "Caf\u00e9s", "shortName": "Caf\u00e9", "icon": {"prefix": "https://ss3.4sqi.net/img/categories_v2/food/cafe_", "suffix": ".png"}, "primary": true}], "delivery": {"id": "310918", "url": "https://www.seamless.com/menu/early-967-manhattan-ave-brooklyn/310918?affiliate=1131&utm_source=foursquare-affiliate-network&utm_medium=affiliate&utm_campaign=1131&utm_content=310918", "provider": {"name": "seamless", "icon": {"prefix": "https://fastly.4sqi.net/img/general/cap/", "sizes": [40, 50], "name": "/delivery_provider_seamless_20180129.png"}}}, "photos": {"count": 0, "groups": []}, "venuePage": {"id": "121231804"}}, "referralId": "e-0-54d43863498e653d2ab8343f-3"}, {"reasons": {"count": 0, "items": [{"summary": "This spot is popular", "type": "general", "reasonName": "globalInteractionReason"}]}, "venue": {"id": "4c018f2e716bc9b6c319bc55", "name": "Sunshine Laundry & Pinball Emporium", "location": {"address": "860 Manhattan Ave", "crossStreet": "at Milton St", "lat": 40.7293178142063, "lng": -73.9535637531202, "labeledLatLngs": [{"label": "display", "lat": 40.7293178142063, "lng": -73.9535637531202}], "distance": 113, "postalCode": "11222", "cc": "US", "city": "Brooklyn", "state": "NY", "country": "United States", "formattedAddress": ["860 Manhattan Ave (at Milton St)", "Brooklyn, NY 11222", "United States"]}, "categories": [{"id": "4bf58dd8d48988d1fc941735", "name": "Laundry Service", "pluralName": "Laundry Services", "shortName": "Laundry", "icon": {"prefix": "https://ss3.4sqi.net/img/categories_v2/shops/laundry_", "suffix": ".png"}, "primary": true}], "photos": {"count": 0, "groups": []}}, "referralId": "e-0-4c018f2e716bc9b6c319bc55-4"}, {"reasons": {"count": 0, "items": [{"summary": "This spot is popular", "type": "general", "reasonName": "globalInteractionReason"}]}, "venue": {"id": "5d9faf34fcce7a0007364a4d", "name": "Temkin\u2019s", "location": {"address": "155 Greenpoint Ave", "crossStreet": "btwn Manhattan Ave & McGuinness Blvd", "lat": 40.73038927664983, "lng": -73.9535536738992, "labeledLatLngs": [{"label": "display", "lat": 40.73038927664983, "lng": -73.9535536738992}], "distance": 61, "postalCode": "11222", "cc": "US", "city": "New York", "state": "NY", "country": "United States", "formattedAddress": ["155 Greenpoint Ave (btwn Manhattan Ave & McGuinness Blvd)", "New York, NY 11222", "United States"]}, "categories": [{"id": "4bf58dd8d48988d116941735", "name": "Bar", "pluralName": "Bars", "shortName": "Bar", "icon": {"prefix": "https://ss3.4sqi.net/img/categories_v2/nightlife/pub_", "suffix": ".png"}, "primary": true}], "photos": {"count": 0, "groups": []}}, "referralId": "e-0-5d9faf34fcce7a0007364a4d-5"}, {"reasons": {"count": 0, "items": [{"summary": "This spot is popular", "type": "general", "reasonName": "globalInteractionReason"}]}, "venue": {"id": "5ae8ed8eb3c961002b3360da", "name": "Oxomoco", "location": {"address": "128 Greenpoint Ave", "crossStreet": "at Manhattan Ave", "lat": 40.72998107593486, "lng": -73.95546049139082, "labeledLatLngs": [{"label": "display", "lat": 40.72998107593486, "lng": -73.95546049139082}, {"label": "entrance", "lat": 40.729903, "lng": -73.955483}], "distance": 105, "postalCode": "11222", "cc": "US", "neighborhood": "Greenpoint", "city": "Brooklyn", "state": "NY", "country": "United States", "formattedAddress": ["128 Greenpoint Ave (at Manhattan Ave)", "Brooklyn, NY 11222", "United States"]}, "categories": [{"id": "4bf58dd8d48988d1c1941735", "name": "Mexican Restaurant", "pluralName": "Mexican Restaurants", "shortName": "Mexican", "icon": {"prefix": "https://ss3.4sqi.net/img/categories_v2/food/mexican_", "suffix": ".png"}, "primary": true}], "photos": {"count": 0, "groups": []}}, "referralId": "e-0-5ae8ed8eb3c961002b3360da-6"}, {"reasons": {"count": 0, "items": [{"summary": "This spot is popular", "type": "general", "reasonName": "globalInteractionReason"}]}, "venue": {"id": "5a2b5dbdc0af5755f9b41a7a", "name": "Friducha", "location": {"address": "946 Manhattan Ave", "crossStreet": "Java St", "lat": 40.731512, "lng": -73.954281, "labeledLatLngs": [{"label": "display", "lat": 40.731512, "lng": -73.954281}], "distance": 145, "postalCode": "11222", "cc": "US", "neighborhood": "Greenpoint", "city": "Brooklyn", "state": "NY", "country": "United States", "formattedAddress": ["946 Manhattan Ave (Java St)", "Brooklyn, NY 11222", "United States"]}, "categories": [{"id": "4bf58dd8d48988d1c1941735", "name": "Mexican Restaurant", "pluralName": "Mexican Restaurants", "shortName": "Mexican", "icon": {"prefix": "https://ss3.4sqi.net/img/categories_v2/food/mexican_", "suffix": ".png"}, "primary": true}], "delivery": {"id": "589212", "url": "https://www.seamless.com/menu/friducha-mexican-restaurant-946-manhattan-ave-brooklyn/589212?affiliate=1131&utm_source=foursquare-affiliate-network&utm_medium=affiliate&utm_campaign=1131&utm_content=589212", "provider": {"name": "seamless", "icon": {"prefix": "https://fastly.4sqi.net/img/general/cap/", "sizes": [40, 50], "name": "/delivery_provider_seamless_20180129.png"}}}, "photos": {"count": 0, "groups": []}}, "referralId": "e-0-5a2b5dbdc0af5755f9b41a7a-7"}, {"reasons": {"count": 0, "items": [{"summary": "This spot is popular", "type": "general", "reasonName": "globalInteractionReason"}]}, "venue": {"id": "55bd4edb498eb4327b4dc78d", "name": "IncrediPole", "location": {"address": "145 Java St", "crossStreet": "Manhattan Avenue", "lat": 40.73183806374288, "lng": -73.9550688958426, "labeledLatLngs": [{"label": "display", "lat": 40.73183806374288, "lng": -73.9550688958426}], "distance": 195, "postalCode": "11222", "cc": "US", "city": "Brooklyn", "state": "NY", "country": "United States", "formattedAddress": ["145 Java St (Manhattan Avenue)", "Brooklyn, NY 11222", "United States"]}, "categories": [{"id": "52f2ab2ebcbc57f1066b8b48", "name": "Gymnastics Gym", "pluralName": "Gymnastics Gyms", "shortName": "Gymnastics Gym", "icon": {"prefix": "https://ss3.4sqi.net/img/categories_v2/building/gym_", "suffix": ".png"}, "primary": true}], "photos": {"count": 0, "groups": []}}, "referralId": "e-0-55bd4edb498eb4327b4dc78d-8"}, {"reasons": {"count": 0, "items": [{"summary": "This spot is popular", "type": "general", "reasonName": "globalInteractionReason"}]}, "venue": {"id": "4a6b3156f964a52025ce1fe3", "name": "Cafe Riviera", "location": {"address": "830 Manhattan Ave", "lat": 40.728513705692265, "lng": -73.95347725897479, "labeledLatLngs": [{"label": "display", "lat": 40.728513705692265, "lng": -73.95347725897479}, {"label": "entrance", "lat": 40.728621, "lng": -73.953446}], "distance": 198, "postalCode": "11222", "cc": "US", "city": "Brooklyn", "state": "NY", "country": "United States", "formattedAddress": ["830 Manhattan Ave", "Brooklyn, NY 11222", "United States"]}, "categories": [{"id": "4bf58dd8d48988d16d941735", "name": "Caf\u00e9", "pluralName": "Caf\u00e9s", "shortName": "Caf\u00e9", "icon": {"prefix": "https://ss3.4sqi.net/img/categories_v2/food/cafe_", "suffix": ".png"}, "primary": true}], "photos": {"count": 0, "groups": []}}, "referralId": "e-0-4a6b3156f964a52025ce1fe3-9"}, {"reasons": {"count": 0, "items": [{"summary": "This spot is popular", "type": "general", "reasonName": "globalInteractionReason"}]}, "venue": {"id": "5bf358689fca56002c251a87", "name": "Citro\u00ebn", "location": {"address": "931 Manhattan Ave", "lat": 40.731173193581775, "lng": -73.95452252962613, "labeledLatLngs": [{"label": "display", "lat": 40.731173193581775, "lng": -73.95452252962613}], "distance": 110, "postalCode": "11222", "cc": "US", "city": "New York", "state": "NY", "country": "United States", "formattedAddress": ["931 Manhattan Ave", "New York, NY 11222", "United States"]}, "categories": [{"id": "4bf58dd8d48988d10c941735", "name": "French Restaurant", "pluralName": "French Restaurants", "shortName": "French", "icon": {"prefix": "https://ss3.4sqi.net/img/categories_v2/food/french_", "suffix": ".png"}, "primary": true}], "delivery": {"id": "1448912", "url": "https://www.seamless.com/menu/citroen-931-manhattan-ave-brooklyn/1448912?affiliate=1131&utm_source=foursquare-affiliate-network&utm_medium=affiliate&utm_campaign=1131&utm_content=1448912", "provider": {"name": "seamless", "icon": {"prefix": "https://fastly.4sqi.net/img/general/cap/", "sizes": [40, 50], "name": "/delivery_provider_seamless_20180129.png"}}}, "photos": {"count": 0, "groups": []}}, "referralId": "e-0-5bf358689fca56002c251a87-10"}, {"reasons": {"count": 0, "items": [{"summary": "This spot is popular", "type": "general", "reasonName": "globalInteractionReason"}]}, "venue": {"id": "46869096f964a52048481fe3", "name": "Black Rabbit", "location": {"address": "91 Greenpoint Ave", "crossStreet": "btwn Manhattan Ave & Franklin St", "lat": 40.73005701987417, "lng": -73.95658766171472, "labeledLatLngs": [{"label": "display", "lat": 40.73005701987417, "lng": -73.95658766171472}, {"label": "entrance", "lat": 40.730079, "lng": -73.95662}], "distance": 198, "postalCode": "11222", "cc": "US", "city": "Brooklyn", "state": "NY", "country": "United States", "formattedAddress": ["91 Greenpoint Ave (btwn Manhattan Ave & Franklin St)", "Brooklyn, NY 11222", "United States"]}, "categories": [{"id": "4bf58dd8d48988d116941735", "name": "Bar", "pluralName": "Bars", "shortName": "Bar", "icon": {"prefix": "https://ss3.4sqi.net/img/categories_v2/nightlife/pub_", "suffix": ".png"}, "primary": true}], "photos": {"count": 0, "groups": []}}, "referralId": "e-0-46869096f964a52048481fe3-11"}, {"reasons": {"count": 0, "items": [{"summary": "This spot is popular", "type": "general", "reasonName": "globalInteractionReason"}]}, "venue": {"id": "519bdb24abd81726b7a90ede", "name": "Fornino", "location": {"address": "849 Manhattan Ave", "crossStreet": "btwn Noble & Milton St.", "lat": 40.72895139078759, "lng": -73.95386181678641, "labeledLatLngs": [{"label": "display", "lat": 40.72895139078759, "lng": -73.95386181678641}], "distance": 142, "postalCode": "11222", "cc": "US", "city": "Brooklyn", "state": "NY", "country": "United States", "formattedAddress": ["849 Manhattan Ave (btwn Noble & Milton St.)", "Brooklyn, NY 11222", "United States"]}, "categories": [{"id": "4bf58dd8d48988d1ca941735", "name": "Pizza Place", "pluralName": "Pizza Places", "shortName": "Pizza", "icon": {"prefix": "https://ss3.4sqi.net/img/categories_v2/food/pizza_", "suffix": ".png"}, "primary": true}], "delivery": {"id": "322833", "url": "https://www.seamless.com/menu/fornino-849-manhattan-ave-brooklyn/322833?affiliate=1131&utm_source=foursquare-affiliate-network&utm_medium=affiliate&utm_campaign=1131&utm_content=322833", "provider": {"name": "seamless", "icon": {"prefix": "https://fastly.4sqi.net/img/general/cap/", "sizes": [40, 50], "name": "/delivery_provider_seamless_20180129.png"}}}, "photos": {"count": 0, "groups": []}}, "referralId": "e-0-519bdb24abd81726b7a90ede-12"}, {"reasons": {"count": 0, "items": [{"summary": "This spot is popular", "type": "general", "reasonName": "globalInteractionReason"}]}, "venue": {"id": "4ee8b464754ab0f2605823e9", "name": "Freckle", "location": {"address": "81 Greenpoint Ave", "crossStreet": "Franklin Street", "lat": 40.72999058274405, "lng": -73.95712852478027, "labeledLatLngs": [{"label": "display", "lat": 40.72999058274405, "lng": -73.95712852478027}, {"label": "entrance", "lat": 40.730013, "lng": -73.9573}], "distance": 244, "postalCode": "11222", "cc": "US", "city": "Brooklyn", "state": "NY", "country": "United States", "formattedAddress": ["81 Greenpoint Ave (Franklin Street)", "Brooklyn, NY 11222", "United States"]}, "categories": [{"id": "4bf58dd8d48988d1ed941735", "name": "Spa", "pluralName": "Spas", "shortName": "Spa", "icon": {"prefix": "https://ss3.4sqi.net/img/categories_v2/shops/spa_", "suffix": ".png"}, "primary": true}], "photos": {"count": 0, "groups": []}, "venuePage": {"id": "32885799"}}, "referralId": "e-0-4ee8b464754ab0f2605823e9-13"}, {"reasons": {"count": 0, "items": [{"summary": "This spot is popular", "type": "general", "reasonName": "globalInteractionReason"}]}, "venue": {"id": "5285412911d2a3e51484ff56", "name": "The Brew Inn", "location": {"address": "924 Manhattan Ave", "crossStreet": "at Kent St", "lat": 40.731031, "lng": -73.954191, "labeledLatLngs": [{"label": "display", "lat": 40.731031, "lng": -73.954191}, {"label": "entrance", "lat": 40.731023, "lng": -73.95426}], "distance": 92, "postalCode": "11222", "cc": "US", "city": "Brooklyn", "state": "NY", "country": "United States", "formattedAddress": ["924 Manhattan Ave (at Kent St)", "Brooklyn, NY 11222", "United States"]}, "categories": [{"id": "4bf58dd8d48988d155941735", "name": "Gastropub", "pluralName": "Gastropubs", "shortName": "Gastropub", "icon": {"prefix": "https://ss3.4sqi.net/img/categories_v2/food/gastropub_", "suffix": ".png"}, "primary": true}], "delivery": {"id": "2044316", "url": "https://www.seamless.com/menu/the-brew-inn-924-manhattan-ave-brooklyn/2044316?affiliate=1131&utm_source=foursquare-affiliate-network&utm_medium=affiliate&utm_campaign=1131&utm_content=2044316", "provider": {"name": "seamless", "icon": {"prefix": "https://fastly.4sqi.net/img/general/cap/", "sizes": [40, 50], "name": "/delivery_provider_seamless_20180129.png"}}}, "photos": {"count": 0, "groups": []}, "venuePage": {"id": "77293866"}}, "referralId": "e-0-5285412911d2a3e51484ff56-14"}, {"reasons": {"count": 0, "items": [{"summary": "This spot is popular", "type": "general", "reasonName": "globalInteractionReason"}]}, "venue": {"id": "4c13bd87b7b9c928890caa37", "name": "Black Pearl Nails", "location": {"address": "173 Greenpoint Ave", "lat": 40.73049, "lng": -73.952751, "labeledLatLngs": [{"label": "display", "lat": 40.73049, "lng": -73.952751}], "distance": 129, "postalCode": "11222", "cc": "US", "city": "Brooklyn", "state": "NY", "country": "United States", "formattedAddress": ["173 Greenpoint Ave", "Brooklyn, NY 11222", "United States"]}, "categories": [{"id": "4bf58dd8d48988d1ed941735", "name": "Spa", "pluralName": "Spas", "shortName": "Spa", "icon": {"prefix": "https://ss3.4sqi.net/img/categories_v2/shops/spa_", "suffix": ".png"}, "primary": true}], "photos": {"count": 0, "groups": []}}, "referralId": "e-0-4c13bd87b7b9c928890caa37-15"}, {"reasons": {"count": 0, "items": [{"summary": "This spot is popular", "type": "general", "reasonName": "globalInteractionReason"}]}, "venue": {"id": "5504b6e3498e6198e7fed876", "name": "home of the brave", "location": {"address": "146 Franklin St", "lat": 40.73006815020751, "lng": -73.95764491346982, "labeledLatLngs": [{"label": "display", "lat": 40.73006815020751, "lng": -73.95764491346982}, {"label": "entrance", "lat": 40.730095, "lng": -73.957509}], "distance": 287, "postalCode": "11222", "cc": "US", "city": "Brooklyn", "state": "NY", "country": "United States", "formattedAddress": ["146 Franklin St", "Brooklyn, NY 11222", "United States"]}, "categories": [{"id": "4bf58dd8d48988d1f8941735", "name": "Furniture / Home Store", "pluralName": "Furniture / Home Stores", "shortName": "Furniture / Home", "icon": {"prefix": "https://ss3.4sqi.net/img/categories_v2/shops/furniture_", "suffix": ".png"}, "primary": true}], "photos": {"count": 0, "groups": []}}, "referralId": "e-0-5504b6e3498e6198e7fed876-16"}, {"reasons": {"count": 0, "items": [{"summary": "This spot is popular", "type": "general", "reasonName": "globalInteractionReason"}]}, "venue": {"id": "5198371d498e9c64fd2d7c18", "name": "Broken Land", "location": {"address": "105 Franklin St", "crossStreet": "btwn Milton St & Greenpoint Ave", "lat": 40.7295073878696, "lng": -73.95762309969912, "labeledLatLngs": [{"label": "display", "lat": 40.7295073878696, "lng": -73.95762309969912}], "distance": 295, "postalCode": "11222", "cc": "US", "city": "Brooklyn", "state": "NY", "country": "United States", "formattedAddress": ["105 Franklin St (btwn Milton St & Greenpoint Ave)", "Brooklyn, NY 11222", "United States"]}, "categories": [{"id": "4bf58dd8d48988d11e941735", "name": "Cocktail Bar", "pluralName": "Cocktail Bars", "shortName": "Cocktail", "icon": {"prefix": "https://ss3.4sqi.net/img/categories_v2/nightlife/cocktails_", "suffix": ".png"}, "primary": true}], "photos": {"count": 0, "groups": []}}, "referralId": "e-0-5198371d498e9c64fd2d7c18-17"}, {"reasons": {"count": 0, "items": [{"summary": "This spot is popular", "type": "general", "reasonName": "globalInteractionReason"}]}, "venue": {"id": "4a24458bf964a5200b7e1fe3", "name": "WORD Brooklyn", "location": {"address": "126 Franklin St", "crossStreet": "Milton St", "lat": 40.72907186450759, "lng": -73.95748238034669, "labeledLatLngs": [{"label": "display", "lat": 40.72907186450759, "lng": -73.95748238034669}, {"label": "entrance", "lat": 40.729064, "lng": -73.957336}], "distance": 300, "postalCode": "11222", "cc": "US", "city": "Brooklyn", "state": "NY", "country": "United States", "formattedAddress": ["126 Franklin St (Milton St)", "Brooklyn, NY 11222", "United States"]}, "categories": [{"id": "4bf58dd8d48988d114951735", "name": "Bookstore", "pluralName": "Bookstores", "shortName": "Bookstore", "icon": {"prefix": "https://ss3.4sqi.net/img/categories_v2/shops/bookstore_", "suffix": ".png"}, "primary": true}], "photos": {"count": 0, "groups": []}}, "referralId": "e-0-4a24458bf964a5200b7e1fe3-18"}, {"reasons": {"count": 0, "items": [{"summary": "This spot is popular", "type": "general", "reasonName": "globalInteractionReason"}]}, "venue": {"id": "49ea427af964a5203e661fe3", "name": "Brouwerij Lane", "location": {"address": "78 Greenpoint Ave", "crossStreet": "at Franklin Ave", "lat": 40.72980862404411, "lng": -73.95782313133313, "labeledLatLngs": [{"label": "display", "lat": 40.72980862404411, "lng": -73.95782313133313}, {"label": "entrance", "lat": 40.729751, "lng": -73.957798}], "distance": 305, "postalCode": "11222", "cc": "US", "city": "Brooklyn", "state": "NY", "country": "United States", "formattedAddress": ["78 Greenpoint Ave (at Franklin Ave)", "Brooklyn, NY 11222", "United States"]}, "categories": [{"id": "5370f356bcbc57f1066c94c2", "name": "Beer Store", "pluralName": "Beer Stores", "shortName": "Beer Store", "icon": {"prefix": "https://ss3.4sqi.net/img/categories_v2/nightlife/beergarden_", "suffix": ".png"}, "primary": true}], "photos": {"count": 0, "groups": []}}, "referralId": "e-0-49ea427af964a5203e661fe3-19"}, {"reasons": {"count": 0, "items": [{"summary": "This spot is popular", "type": "general", "reasonName": "globalInteractionReason"}]}, "venue": {"id": "49c2b82ef964a5201e561fe3", "name": "The Garden", "location": {"address": "921 Manhattan Ave", "crossStreet": "at Kent St", "lat": 40.73075955089971, "lng": -73.95450192435896, "labeledLatLngs": [{"label": "display", "lat": 40.73075955089971, "lng": -73.95450192435896}, {"label": "entrance", "lat": 40.730796, "lng": -73.954652}], "distance": 65, "postalCode": "11222", "cc": "US", "city": "Brooklyn", "state": "NY", "country": "United States", "formattedAddress": ["921 Manhattan Ave (at Kent St)", "Brooklyn, NY 11222", "United States"]}, "categories": [{"id": "4bf58dd8d48988d118951735", "name": "Grocery Store", "pluralName": "Grocery Stores", "shortName": "Grocery Store", "icon": {"prefix": "https://ss3.4sqi.net/img/categories_v2/shops/food_grocery_", "suffix": ".png"}, "primary": true}], "photos": {"count": 0, "groups": []}, "venuePage": {"id": "80731795"}}, "referralId": "e-0-49c2b82ef964a5201e561fe3-20"}, {"reasons": {"count": 0, "items": [{"summary": "This spot is popular", "type": "general", "reasonName": "globalInteractionReason"}]}, "venue": {"id": "408c5100f964a520ccf21ee3", "name": "Pencil Factory", "location": {"address": "142 Franklin St", "crossStreet": "at Greenpoint Ave", "lat": 40.729762, "lng": -73.957391, "labeledLatLngs": [{"label": "display", "lat": 40.729762, "lng": -73.957391}, {"label": "entrance", "lat": 40.729745, "lng": -73.957454}], "distance": 270, "postalCode": "11222", "cc": "US", "city": "Brooklyn", "state": "NY", "country": "United States", "formattedAddress": ["142 Franklin St (at Greenpoint Ave)", "Brooklyn, NY 11222", "United States"]}, "categories": [{"id": "4bf58dd8d48988d116941735", "name": "Bar", "pluralName": "Bars", "shortName": "Bar", "icon": {"prefix": "https://ss3.4sqi.net/img/categories_v2/nightlife/pub_", "suffix": ".png"}, "primary": true}], "photos": {"count": 0, "groups": []}}, "referralId": "e-0-408c5100f964a520ccf21ee3-21"}, {"reasons": {"count": 0, "items": [{"summary": "This spot is popular", "type": "general", "reasonName": "globalInteractionReason"}]}, "venue": {"id": "55d7c6bb498efa168c9483a9", "name": "Archestratus Books & Foods", "location": {"address": "160 Huron St", "lat": 40.732905, "lng": -73.955365, "labeledLatLngs": [{"label": "display", "lat": 40.732905, "lng": -73.955365}, {"label": "entrance", "lat": 40.732904, "lng": -73.955174}], "distance": 315, "postalCode": "11222", "cc": "US", "neighborhood": "Greenpoint", "city": "Brooklyn", "state": "NY", "country": "United States", "formattedAddress": ["160 Huron St", "Brooklyn, NY 11222", "United States"]}, "categories": [{"id": "4bf58dd8d48988d1c4941735", "name": "Restaurant", "pluralName": "Restaurants", "shortName": "Restaurant", "icon": {"prefix": "https://ss3.4sqi.net/img/categories_v2/food/default_", "suffix": ".png"}, "primary": true}], "photos": {"count": 0, "groups": []}}, "referralId": "e-0-55d7c6bb498efa168c9483a9-22"}, {"reasons": {"count": 0, "items": [{"summary": "This spot is popular", "type": "general", "reasonName": "globalInteractionReason"}]}, "venue": {"id": "4a9df1f7f964a520e03920e3", "name": "God Bless USA Deli", "location": {"address": "818 Manhattan Ave", "crossStreet": "at Calyer St.", "lat": 40.728267182331756, "lng": -73.95338411193785, "labeledLatLngs": [{"label": "display", "lat": 40.728267182331756, "lng": -73.95338411193785}, {"label": "entrance", "lat": 40.728331, "lng": -73.953279}], "distance": 227, "postalCode": "11222", "cc": "US", "city": "Brooklyn", "state": "NY", "country": "United States", "formattedAddress": ["818 Manhattan Ave (at Calyer St.)", "Brooklyn, NY 11222", "United States"]}, "categories": [{"id": "4bf58dd8d48988d146941735", "name": "Deli / Bodega", "pluralName": "Delis / Bodegas", "shortName": "Deli / Bodega", "icon": {"prefix": "https://ss3.4sqi.net/img/categories_v2/food/deli_", "suffix": ".png"}, "primary": true}], "delivery": {"id": "284414", "url": "https://www.seamless.com/menu/god-bless-usa-deli-818-manhattan-ave-brooklyn/284414?affiliate=1131&utm_source=foursquare-affiliate-network&utm_medium=affiliate&utm_campaign=1131&utm_content=284414", "provider": {"name": "seamless", "icon": {"prefix": "https://fastly.4sqi.net/img/general/cap/", "sizes": [40, 50], "name": "/delivery_provider_seamless_20180129.png"}}}, "photos": {"count": 0, "groups": []}, "venuePage": {"id": "455273651"}}, "referralId": "e-0-4a9df1f7f964a520e03920e3-23"}, {"reasons": {"count": 0, "items": [{"summary": "This spot is popular", "type": "general", "reasonName": "globalInteractionReason"}]}, "venue": {"id": "518cf9ec498e8c38bda0268d", "name": "Homecoming", "location": {"address": "107 Franklin St", "crossStreet": "btwn Noble St & Greenpoint Ave", "lat": 40.72969603048622, "lng": -73.95752484054493, "labeledLatLngs": [{"label": "display", "lat": 40.72969603048622, "lng": -73.95752484054493}], "distance": 282, "postalCode": "11222", "cc": "US", "city": "Brooklyn", "state": "NY", "country": "United States", "formattedAddress": ["107 Franklin St (btwn Noble St & Greenpoint Ave)", "Brooklyn, NY 11222", "United States"]}, "categories": [{"id": "4bf58dd8d48988d1e0931735", "name": "Coffee Shop", "pluralName": "Coffee Shops", "shortName": "Coffee Shop", "icon": {"prefix": "https://ss3.4sqi.net/img/categories_v2/food/coffeeshop_", "suffix": ".png"}, "primary": true}], "photos": {"count": 0, "groups": []}, "venuePage": {"id": "55865654"}}, "referralId": "e-0-518cf9ec498e8c38bda0268d-24"}, {"reasons": {"count": 0, "items": [{"summary": "This spot is popular", "type": "general", "reasonName": "globalInteractionReason"}]}, "venue": {"id": "5c9ab40cb6eedb002c6b7030", "name": "Sama Street", "location": {"address": "988 Manhattan Ave", "crossStreet": "Huron Street", "lat": 40.732702, "lng": -73.954613, "labeledLatLngs": [{"label": "display", "lat": 40.732702, "lng": -73.954613}], "distance": 280, "postalCode": "11222", "cc": "US", "city": "New York", "state": "NY", "country": "United States", "formattedAddress": ["988 Manhattan Ave (Huron Street)", "New York, NY 11222", "United States"]}, "categories": [{"id": "4bf58dd8d48988d11e941735", "name": "Cocktail Bar", "pluralName": "Cocktail Bars", "shortName": "Cocktail", "icon": {"prefix": "https://ss3.4sqi.net/img/categories_v2/nightlife/cocktails_", "suffix": ".png"}, "primary": true}], "photos": {"count": 0, "groups": []}}, "referralId": "e-0-5c9ab40cb6eedb002c6b7030-25"}, {"reasons": {"count": 0, "items": [{"summary": "This spot is popular", "type": "general", "reasonName": "globalInteractionReason"}]}, "venue": {"id": "52324a6211d25c883fe6d36c", "name": "Duke's Liquor Box", "location": {"address": "114 Franklin St", "crossStreet": "Nobel St.", "lat": 40.73097565550042, "lng": -73.95782346176593, "labeledLatLngs": [{"label": "display", "lat": 40.73097565550042, "lng": -73.95782346176593}], "distance": 314, "postalCode": "11222", "cc": "US", "neighborhood": "Greenpoint", "city": "Brooklyn", "state": "NY", "country": "United States", "formattedAddress": ["114 Franklin St (Nobel St.)", "Brooklyn, NY 11222", "United States"]}, "categories": [{"id": "4bf58dd8d48988d186941735", "name": "Liquor Store", "pluralName": "Liquor Stores", "shortName": "Liquor Store", "icon": {"prefix": "https://ss3.4sqi.net/img/categories_v2/shops/food_liquor_", "suffix": ".png"}, "primary": true}], "photos": {"count": 0, "groups": []}, "venuePage": {"id": "79943328"}}, "referralId": "e-0-52324a6211d25c883fe6d36c-26"}, {"reasons": {"count": 0, "items": [{"summary": "This spot is popular", "type": "general", "reasonName": "globalInteractionReason"}]}, "venue": {"id": "52c4d86911d22261f6be51d8", "name": "Ramona", "location": {"address": "113 Franklin St", "crossStreet": "btwn Greenpoint Ave. & Kent St.", "lat": 40.7302487948735, "lng": -73.95773857882399, "labeledLatLngs": [{"label": "display", "lat": 40.7302487948735, "lng": -73.95773857882399}], "distance": 295, "postalCode": "11222", "cc": "US", "city": "Brooklyn", "state": "NY", "country": "United States", "formattedAddress": ["113 Franklin St (btwn Greenpoint Ave. & Kent St.)", "Brooklyn, NY 11222", "United States"]}, "categories": [{"id": "4bf58dd8d48988d11e941735", "name": "Cocktail Bar", "pluralName": "Cocktail Bars", "shortName": "Cocktail", "icon": {"prefix": "https://ss3.4sqi.net/img/categories_v2/nightlife/cocktails_", "suffix": ".png"}, "primary": true}], "photos": {"count": 0, "groups": []}}, "referralId": "e-0-52c4d86911d22261f6be51d8-27"}, {"reasons": {"count": 0, "items": [{"summary": "This spot is popular", "type": "general", "reasonName": "globalInteractionReason"}]}, "venue": {"id": "4e0650e9a809495e61921175", "name": "Wolves Within", "location": {"address": "174 Franklin St", "lat": 40.73123934497688, "lng": -73.95777217896588, "labeledLatLngs": [{"label": "display", "lat": 40.73123934497688, "lng": -73.95777217896588}, {"label": "entrance", "lat": 40.73114, "lng": -73.957681}], "distance": 319, "postalCode": "11222", "cc": "US", "city": "Brooklyn", "state": "NY", "country": "United States", "formattedAddress": ["174 Franklin St", "Brooklyn, NY 11222", "United States"]}, "categories": [{"id": "4bf58dd8d48988d104951735", "name": "Boutique", "pluralName": "Boutiques", "shortName": "Boutique", "icon": {"prefix": "https://ss3.4sqi.net/img/categories_v2/shops/apparel_boutique_", "suffix": ".png"}, "primary": true}], "photos": {"count": 0, "groups": []}}, "referralId": "e-0-4e0650e9a809495e61921175-28"}, {"reasons": {"count": 0, "items": [{"summary": "This spot is popular", "type": "general", "reasonName": "globalInteractionReason"}]}, "venue": {"id": "57040eae498ef7367c74b057", "name": "Paulie Gee's Slice Shop", "location": {"address": "110 Franklin St", "crossStreet": "Noble", "lat": 40.728444159891396, "lng": -73.95734068765103, "labeledLatLngs": [{"label": "display", "lat": 40.728444159891396, "lng": -73.95734068765103}, {"label": "entrance", "lat": 40.728356, "lng": -73.957217}], "distance": 326, "postalCode": "11222", "cc": "US", "city": "Brooklyn", "state": "NY", "country": "United States", "formattedAddress": ["110 Franklin St (Noble)", "Brooklyn, NY 11222", "United States"]}, "categories": [{"id": "4bf58dd8d48988d1ca941735", "name": "Pizza Place", "pluralName": "Pizza Places", "shortName": "Pizza", "icon": {"prefix": "https://ss3.4sqi.net/img/categories_v2/food/pizza_", "suffix": ".png"}, "primary": true}], "photos": {"count": 0, "groups": []}}, "referralId": "e-0-57040eae498ef7367c74b057-29"}, {"reasons": {"count": 0, "items": [{"summary": "This spot is popular", "type": "general", "reasonName": "globalInteractionReason"}]}, "venue": {"id": "535c5a05498ef2eaac201734", "name": "Master Piece Vape & Smoke Shop", "location": {"address": "130 India St", "crossStreet": "Manhattan Avenue and India Street", "lat": 40.73226733877689, "lng": -73.95478366033807, "labeledLatLngs": [{"label": "display", "lat": 40.73226733877689, "lng": -73.95478366033807}], "distance": 234, "postalCode": "11222", "cc": "US", "city": "Brooklyn", "state": "NY", "country": "United States", "formattedAddress": ["130 India St (Manhattan Avenue and India Street)", "Brooklyn, NY 11222", "United States"]}, "categories": [{"id": "56aa371be4b08b9a8d57355c", "name": "Vape Store", "pluralName": "Vape Stores", "shortName": "Vape Store", "icon": {"prefix": "https://ss3.4sqi.net/img/categories_v2/shops/tobacco_", "suffix": ".png"}, "primary": true}], "photos": {"count": 0, "groups": []}, "venuePage": {"id": "94115285"}}, "referralId": "e-0-535c5a05498ef2eaac201734-30"}, {"reasons": {"count": 0, "items": [{"summary": "This spot is popular", "type": "general", "reasonName": "globalInteractionReason"}]}, "venue": {"id": "576eb1f5cd10a371033f7ad6", "name": "Maman", "location": {"address": "80 Kent St", "crossStreet": "at Franklin St", "lat": 40.730427, "lng": -73.958035, "labeledLatLngs": [{"label": "display", "lat": 40.730427, "lng": -73.958035}], "distance": 321, "postalCode": "11249", "cc": "US", "city": "New York", "state": "NY", "country": "United States", "formattedAddress": ["80 Kent St (at Franklin St)", "New York, NY 11249", "United States"]}, "categories": [{"id": "4bf58dd8d48988d1e0931735", "name": "Coffee Shop", "pluralName": "Coffee Shops", "shortName": "Coffee Shop", "icon": {"prefix": "https://ss3.4sqi.net/img/categories_v2/food/coffeeshop_", "suffix": ".png"}, "primary": true}], "delivery": {"id": "2045935", "url": "https://www.seamless.com/menu/maman-80-kent-st-brooklyn/2045935?affiliate=1131&utm_source=foursquare-affiliate-network&utm_medium=affiliate&utm_campaign=1131&utm_content=2045935", "provider": {"name": "seamless", "icon": {"prefix": "https://fastly.4sqi.net/img/general/cap/", "sizes": [40, 50], "name": "/delivery_provider_seamless_20180129.png"}}}, "photos": {"count": 0, "groups": []}}, "referralId": "e-0-576eb1f5cd10a371033f7ad6-31"}, {"reasons": {"count": 0, "items": [{"summary": "This spot is popular", "type": "general", "reasonName": "globalInteractionReason"}]}, "venue": {"id": "589f9810e386e313317c882e", "name": "Threes @ Franklin + Kent", "location": {"address": "113 Franklin St", "crossStreet": "Kent", "lat": 40.730444597560535, "lng": -73.9577290086825, "labeledLatLngs": [{"label": "display", "lat": 40.730444597560535, "lng": -73.9577290086825}, {"label": "entrance", "lat": 40.730234, "lng": -73.957782}], "distance": 295, "postalCode": "11222", "cc": "US", "city": "Brooklyn", "state": "NY", "country": "United States", "formattedAddress": ["113 Franklin St (Kent)", "Brooklyn, NY 11222", "United States"]}, "categories": [{"id": "56aa371ce4b08b9a8d57356c", "name": "Beer Bar", "pluralName": "Beer Bars", "shortName": "Beer Bar", "icon": {"prefix": "https://ss3.4sqi.net/img/categories_v2/nightlife/pub_", "suffix": ".png"}, "primary": true}], "photos": {"count": 0, "groups": []}, "venuePage": {"id": "409891593"}}, "referralId": "e-0-589f9810e386e313317c882e-32"}, {"reasons": {"count": 0, "items": [{"summary": "This spot is popular", "type": "general", "reasonName": "globalInteractionReason"}]}, "venue": {"id": "4d8f7d48d265236a02c72117", "name": "Upright Coffee", "location": {"address": "860 Manhattan Ave", "crossStreet": "at Milton St", "lat": 40.72933199515132, "lng": -73.9538915154595, "labeledLatLngs": [{"label": "display", "lat": 40.72933199515132, "lng": -73.9538915154595}], "distance": 101, "postalCode": "11222", "cc": "US", "city": "Brooklyn", "state": "NY", "country": "United States", "formattedAddress": ["860 Manhattan Ave (at Milton St)", "Brooklyn, NY 11222", "United States"]}, "categories": [{"id": "4bf58dd8d48988d1e0931735", "name": "Coffee Shop", "pluralName": "Coffee Shops", "shortName": "Coffee Shop", "icon": {"prefix": "https://ss3.4sqi.net/img/categories_v2/food/coffeeshop_", "suffix": ".png"}, "primary": true}], "photos": {"count": 0, "groups": []}, "venuePage": {"id": "50256699"}}, "referralId": "e-0-4d8f7d48d265236a02c72117-33"}, {"reasons": {"count": 0, "items": [{"summary": "This spot is popular", "type": "general", "reasonName": "globalInteractionReason"}]}, "venue": {"id": "55b51009498e4c7fd1fea655", "name": "New Love City", "location": {"address": "68 Greenpoint Ave #4", "crossStreet": "Franklin", "lat": 40.729760304268, "lng": -73.95824733769165, "labeledLatLngs": [{"label": "display", "lat": 40.729760304268, "lng": -73.95824733769165}], "distance": 341, "postalCode": "11222", "cc": "US", "city": "Brooklyn", "state": "NY", "country": "United States", "formattedAddress": ["68 Greenpoint Ave #4 (Franklin)", "Brooklyn, NY 11222", "United States"]}, "categories": [{"id": "4bf58dd8d48988d102941735", "name": "Yoga Studio", "pluralName": "Yoga Studios", "shortName": "Yoga Studio", "icon": {"prefix": "https://ss3.4sqi.net/img/categories_v2/shops/gym_yogastudio_", "suffix": ".png"}, "primary": true}], "photos": {"count": 0, "groups": []}, "venuePage": {"id": "136295990"}}, "referralId": "e-0-55b51009498e4c7fd1fea655-34"}, {"reasons": {"count": 0, "items": [{"summary": "This spot is popular", "type": "general", "reasonName": "globalInteractionReason"}]}, "venue": {"id": "575467b1498e848fce847ca1", "name": "Caf\u00e9 de Colombia", "location": {"address": "195 Greenpoint Ave", "crossStreet": "McGuinness Blvd.", "lat": 40.730526, "lng": -73.951822, "labeledLatLngs": [{"label": "display", "lat": 40.730526, "lng": -73.951822}, {"label": "entrance", "lat": 40.73051, "lng": -73.951834}], "distance": 207, "postalCode": "11222", "cc": "US", "city": "Brooklyn", "state": "NY", "country": "United States", "formattedAddress": ["195 Greenpoint Ave (McGuinness Blvd.)", "Brooklyn, NY 11222", "United States"]}, "categories": [{"id": "4bf58dd8d48988d1e0931735", "name": "Coffee Shop", "pluralName": "Coffee Shops", "shortName": "Coffee Shop", "icon": {"prefix": "https://ss3.4sqi.net/img/categories_v2/food/coffeeshop_", "suffix": ".png"}, "primary": true}], "photos": {"count": 0, "groups": []}}, "referralId": "e-0-575467b1498e848fce847ca1-35"}, {"reasons": {"count": 0, "items": [{"summary": "This spot is popular", "type": "general", "reasonName": "globalInteractionReason"}]}, "venue": {"id": "4bd61b737b1876b008038c86", "name": "Dandelion Wine", "location": {"address": "153 Franklin St", "lat": 40.731716671588636, "lng": -73.95790091208669, "labeledLatLngs": [{"label": "display", "lat": 40.731716671588636, "lng": -73.95790091208669}, {"label": "entrance", "lat": 40.731674, "lng": -73.958013}], "distance": 351, "postalCode": "11222", "cc": "US", "city": "Brooklyn", "state": "NY", "country": "United States", "formattedAddress": ["153 Franklin St", "Brooklyn, NY 11222", "United States"]}, "categories": [{"id": "4bf58dd8d48988d119951735", "name": "Wine Shop", "pluralName": "Wine Shops", "shortName": "Wine Shop", "icon": {"prefix": "https://ss3.4sqi.net/img/categories_v2/shops/food_wineshop_", "suffix": ".png"}, "primary": true}], "photos": {"count": 0, "groups": []}}, "referralId": "e-0-4bd61b737b1876b008038c86-36"}, {"reasons": {"count": 0, "items": [{"summary": "This spot is popular", "type": "general", "reasonName": "globalInteractionReason"}]}, "venue": {"id": "5aa427100a464d2cf717b688", "name": "\u0110i \u0103n \u0110i", "location": {"address": "68 Greenpoint Ave", "lat": 40.7298006838517, "lng": -73.9582564594443, "labeledLatLngs": [{"label": "display", "lat": 40.7298006838517, "lng": -73.9582564594443}], "distance": 341, "postalCode": "11222", "cc": "US", "city": "New York", "state": "NY", "country": "United States", "formattedAddress": ["68 Greenpoint Ave", "New York, NY 11222", "United States"]}, "categories": [{"id": "4bf58dd8d48988d14a941735", "name": "Vietnamese Restaurant", "pluralName": "Vietnamese Restaurants", "shortName": "Vietnamese", "icon": {"prefix": "https://ss3.4sqi.net/img/categories_v2/food/vietnamese_", "suffix": ".png"}, "primary": true}], "photos": {"count": 0, "groups": []}}, "referralId": "e-0-5aa427100a464d2cf717b688-37"}, {"reasons": {"count": 0, "items": [{"summary": "This spot is popular", "type": "general", "reasonName": "globalInteractionReason"}]}, "venue": {"id": "4b9709fcf964a520c4f434e3", "name": "Paulie Gee\u2019s", "location": {"address": "60 Greenpoint Ave", "crossStreet": "btwn Franklin St & West St", "lat": 40.729801246987186, "lng": -73.95852046352437, "labeledLatLngs": [{"label": "display", "lat": 40.729801246987186, "lng": -73.95852046352437}], "distance": 363, "postalCode": "11222", "cc": "US", "city": "Brooklyn", "state": "NY", "country": "United States", "formattedAddress": ["60 Greenpoint Ave (btwn Franklin St & West St)", "Brooklyn, NY 11222", "United States"]}, "categories": [{"id": "4bf58dd8d48988d1ca941735", "name": "Pizza Place", "pluralName": "Pizza Places", "shortName": "Pizza", "icon": {"prefix": "https://ss3.4sqi.net/img/categories_v2/food/pizza_", "suffix": ".png"}, "primary": true}], "photos": {"count": 0, "groups": []}, "venuePage": {"id": "60471092"}}, "referralId": "e-0-4b9709fcf964a520c4f434e3-38"}, {"reasons": {"count": 0, "items": [{"summary": "This spot is popular", "type": "general", "reasonName": "globalInteractionReason"}]}, "venue": {"id": "58b6e16ffc73d40233da9715", "name": "odd fox", "location": {"address": "984 Manhattan Ave", "crossStreet": "India & Huron", "lat": 40.73267268846633, "lng": -73.95454999352046, "labeledLatLngs": [{"label": "display", "lat": 40.73267268846633, "lng": -73.95454999352046}], "distance": 276, "postalCode": "11222", "cc": "US", "city": "Brooklyn", "state": "NY", "country": "United States", "formattedAddress": ["984 Manhattan Ave (India & Huron)", "Brooklyn, NY 11222", "United States"]}, "categories": [{"id": "4bf58dd8d48988d1e0931735", "name": "Coffee Shop", "pluralName": "Coffee Shops", "shortName": "Coffee Shop", "icon": {"prefix": "https://ss3.4sqi.net/img/categories_v2/food/coffeeshop_", "suffix": ".png"}, "primary": true}], "photos": {"count": 0, "groups": []}}, "referralId": "e-0-58b6e16ffc73d40233da9715-39"}, {"reasons": {"count": 0, "items": [{"summary": "This spot is popular", "type": "general", "reasonName": "globalInteractionReason"}]}, "venue": {"id": "522004a693cd39a8ea569310", "name": "The Moonlight Mile", "location": {"address": "200 Franklin St", "crossStreet": "btwn India St & Huron St", "lat": 40.73206003215346, "lng": -73.95790395558619, "labeledLatLngs": [{"label": "display", "lat": 40.73206003215346, "lng": -73.95790395558619}], "distance": 371, "postalCode": "11222", "cc": "US", "city": "Brooklyn", "state": "NY", "country": "United States", "formattedAddress": ["200 Franklin St (btwn India St & Huron St)", "Brooklyn, NY 11222", "United States"]}, "categories": [{"id": "4bf58dd8d48988d122941735", "name": "Whisky Bar", "pluralName": "Whisky Bars", "shortName": "Whisky Bar", "icon": {"prefix": "https://ss3.4sqi.net/img/categories_v2/nightlife/whiskey_", "suffix": ".png"}, "primary": true}], "photos": {"count": 0, "groups": []}, "venuePage": {"id": "65240268"}}, "referralId": "e-0-522004a693cd39a8ea569310-40"}, {"reasons": {"count": 0, "items": [{"summary": "This spot is popular", "type": "general", "reasonName": "globalInteractionReason"}]}, "venue": {"id": "5ae25347fd16bb002cf0c3f2", "name": "Elder Greene", "location": {"address": "160 Franklin Street", "crossStreet": "Kent Street", "lat": 40.73062110833443, "lng": -73.95769664253251, "labeledLatLngs": [{"label": "display", "lat": 40.73062110833443, "lng": -73.95769664253251}], "distance": 295, "postalCode": "11222", "cc": "US", "city": "Brooklyn", "state": "NY", "country": "United States", "formattedAddress": ["160 Franklin Street (Kent Street)", "Brooklyn, NY 11222", "United States"]}, "categories": [{"id": "4bf58dd8d48988d116941735", "name": "Bar", "pluralName": "Bars", "shortName": "Bar", "icon": {"prefix": "https://ss3.4sqi.net/img/categories_v2/nightlife/pub_", "suffix": ".png"}, "primary": true}], "delivery": {"id": "1149898", "url": "https://www.seamless.com/menu/elder-greene-160-franklin-st-brooklyn/1149898?affiliate=1131&utm_source=foursquare-affiliate-network&utm_medium=affiliate&utm_campaign=1131&utm_content=1149898", "provider": {"name": "seamless", "icon": {"prefix": "https://fastly.4sqi.net/img/general/cap/", "sizes": [40, 50], "name": "/delivery_provider_seamless_20180129.png"}}}, "photos": {"count": 0, "groups": []}, "venuePage": {"id": "488736184"}}, "referralId": "e-0-5ae25347fd16bb002cf0c3f2-41"}, {"reasons": {"count": 0, "items": [{"summary": "This spot is popular", "type": "general", "reasonName": "globalInteractionReason"}]}, "venue": {"id": "54024ec9498e9e7e7e9ecf59", "name": "Esme", "location": {"address": "999 Manhattan Ave", "crossStreet": "Huron", "lat": 40.73313714246883, "lng": -73.95481279617375, "labeledLatLngs": [{"label": "display", "lat": 40.73313714246883, "lng": -73.95481279617375}, {"label": "entrance", "lat": 40.7332, "lng": -73.954891}], "distance": 330, "postalCode": "11222", "cc": "US", "city": "Brooklyn", "state": "NY", "country": "United States", "formattedAddress": ["999 Manhattan Ave (Huron)", "Brooklyn, NY 11222", "United States"]}, "categories": [{"id": "4bf58dd8d48988d157941735", "name": "New American Restaurant", "pluralName": "New American Restaurants", "shortName": "New American", "icon": {"prefix": "https://ss3.4sqi.net/img/categories_v2/food/newamerican_", "suffix": ".png"}, "primary": true}], "photos": {"count": 0, "groups": []}, "venuePage": {"id": "98525912"}}, "referralId": "e-0-54024ec9498e9e7e7e9ecf59-42"}, {"reasons": {"count": 0, "items": [{"summary": "This spot is popular", "type": "general", "reasonName": "globalInteractionReason"}]}, "venue": {"id": "5ca2be45531593002dfb6031", "name": "Magazine", "location": {"address": "130 Franklin St", "crossStreet": "Milton Street", "lat": 40.72929052666392, "lng": -73.95750082352023, "labeledLatLngs": [{"label": "display", "lat": 40.72929052666392, "lng": -73.95750082352023}], "distance": 293, "postalCode": "10013", "cc": "US", "city": "New York", "state": "NY", "country": "United States", "formattedAddress": ["130 Franklin St (Milton Street)", "New York, NY 10013", "United States"]}, "categories": [{"id": "4bf58dd8d48988d11e941735", "name": "Cocktail Bar", "pluralName": "Cocktail Bars", "shortName": "Cocktail", "icon": {"prefix": "https://ss3.4sqi.net/img/categories_v2/nightlife/cocktails_", "suffix": ".png"}, "primary": true}], "photos": {"count": 0, "groups": []}}, "referralId": "e-0-5ca2be45531593002dfb6031-43"}, {"reasons": {"count": 0, "items": [{"summary": "This spot is popular", "type": "general", "reasonName": "globalInteractionReason"}]}, "venue": {"id": "49d798e9f964a520395d1fe3", "name": "Sakura 6", "location": {"address": "837 Manhattan Ave", "crossStreet": "Noble St", "lat": 40.72880445934397, "lng": -73.95368298528952, "labeledLatLngs": [{"label": "display", "lat": 40.72880445934397, "lng": -73.95368298528952}, {"label": "entrance", "lat": 40.7287, "lng": -73.953714}], "distance": 162, "postalCode": "11222", "cc": "US", "city": "Brooklyn", "state": "NY", "country": "United States", "formattedAddress": ["837 Manhattan Ave (Noble St)", "Brooklyn, NY 11222", "United States"]}, "categories": [{"id": "4bf58dd8d48988d1d2941735", "name": "Sushi Restaurant", "pluralName": "Sushi Restaurants", "shortName": "Sushi", "icon": {"prefix": "https://ss3.4sqi.net/img/categories_v2/food/sushi_", "suffix": ".png"}, "primary": true}], "delivery": {"id": "1700636", "url": "https://www.seamless.com/menu/sakura-6-837-manhattan-ave-brooklyn/1700636?affiliate=1131&utm_source=foursquare-affiliate-network&utm_medium=affiliate&utm_campaign=1131&utm_content=1700636", "provider": {"name": "seamless", "icon": {"prefix": "https://fastly.4sqi.net/img/general/cap/", "sizes": [40, 50], "name": "/delivery_provider_seamless_20180129.png"}}}, "photos": {"count": 0, "groups": []}}, "referralId": "e-0-49d798e9f964a520395d1fe3-44"}, {"reasons": {"count": 0, "items": [{"summary": "This spot is popular", "type": "general", "reasonName": "globalInteractionReason"}]}, "venue": {"id": "52e59d62498eabe67f97945e", "name": "Littleneck Outpost", "location": {"address": "128 Franklin St", "crossStreet": "btwn Greenpoint Ave & Milton", "lat": 40.729209, "lng": -73.957422, "labeledLatLngs": [{"label": "display", "lat": 40.729209, "lng": -73.957422}, {"label": "entrance", "lat": 40.729292, "lng": -73.957376}], "distance": 290, "postalCode": "11222", "cc": "US", "city": "Brooklyn", "state": "NY", "country": "United States", "formattedAddress": ["128 Franklin St (btwn Greenpoint Ave & Milton)", "Brooklyn, NY 11222", "United States"]}, "categories": [{"id": "4bf58dd8d48988d1c5941735", "name": "Sandwich Place", "pluralName": "Sandwich Places", "shortName": "Sandwiches", "icon": {"prefix": "https://ss3.4sqi.net/img/categories_v2/food/deli_", "suffix": ".png"}, "primary": true}], "delivery": {"id": "304414", "url": "https://www.seamless.com/menu/littleneck-outpost-128-franklin-st-brooklyn/304414?affiliate=1131&utm_source=foursquare-affiliate-network&utm_medium=affiliate&utm_campaign=1131&utm_content=304414", "provider": {"name": "seamless", "icon": {"prefix": "https://fastly.4sqi.net/img/general/cap/", "sizes": [40, 50], "name": "/delivery_provider_seamless_20180129.png"}}}, "photos": {"count": 0, "groups": []}, "venuePage": {"id": "198109498"}}, "referralId": "e-0-52e59d62498eabe67f97945e-45"}, {"reasons": {"count": 0, "items": [{"summary": "This spot is popular", "type": "general", "reasonName": "globalInteractionReason"}]}, "venue": {"id": "4e8f8cb0d3e3187fc28dc932", "name": "Bellocq", "location": {"address": "104 West St", "crossStreet": "at Kent St", "lat": 40.73037188233206, "lng": -73.95921311917728, "labeledLatLngs": [{"label": "display", "lat": 40.73037188233206, "lng": -73.95921311917728}], "distance": 419, "postalCode": "11222", "cc": "US", "city": "Brooklyn", "state": "NY", "country": "United States", "formattedAddress": ["104 West St (at Kent St)", "Brooklyn, NY 11222", "United States"]}, "categories": [{"id": "4bf58dd8d48988d1dc931735", "name": "Tea Room", "pluralName": "Tea Rooms", "shortName": "Tea Room", "icon": {"prefix": "https://ss3.4sqi.net/img/categories_v2/food/tearoom_", "suffix": ".png"}, "primary": true}], "photos": {"count": 0, "groups": []}, "venuePage": {"id": "51050085"}}, "referralId": "e-0-4e8f8cb0d3e3187fc28dc932-46"}, {"reasons": {"count": 0, "items": [{"summary": "This spot is popular", "type": "general", "reasonName": "globalInteractionReason"}]}, "venue": {"id": "59c68c0c4382ab16da7cf734", "name": "Brooklyn Whiskers", "location": {"address": "1008 Manhattan Ave", "lat": 40.733314122944364, "lng": -73.95479140606002, "labeledLatLngs": [{"label": "display", "lat": 40.733314122944364, "lng": -73.95479140606002}], "distance": 349, "postalCode": "11222", "cc": "US", "city": "New York", "state": "NY", "country": "United States", "formattedAddress": ["1008 Manhattan Ave", "New York, NY 11222", "United States"]}, "categories": [{"id": "4bf58dd8d48988d16a941735", "name": "Bakery", "pluralName": "Bakeries", "shortName": "Bakery", "icon": {"prefix": "https://ss3.4sqi.net/img/categories_v2/food/bakery_", "suffix": ".png"}, "primary": true}], "delivery": {"id": "602249", "url": "https://www.seamless.com/menu/brooklyn-whiskers-1008-manhattan-ave-brooklyn/602249?affiliate=1131&utm_source=foursquare-affiliate-network&utm_medium=affiliate&utm_campaign=1131&utm_content=602249", "provider": {"name": "seamless", "icon": {"prefix": "https://fastly.4sqi.net/img/general/cap/", "sizes": [40, 50], "name": "/delivery_provider_seamless_20180129.png"}}}, "photos": {"count": 0, "groups": []}}, "referralId": "e-0-59c68c0c4382ab16da7cf734-47"}, {"reasons": {"count": 0, "items": [{"summary": "This spot is popular", "type": "general", "reasonName": "globalInteractionReason"}]}, "venue": {"id": "4e35d04162e17d2908384c6f", "name": "Troost", "location": {"address": "1011 Manhattan Ave", "crossStreet": "btwn Green & Huron St", "lat": 40.73349590190173, "lng": -73.95492785042778, "labeledLatLngs": [{"label": "display", "lat": 40.73349590190173, "lng": -73.95492785042778}, {"label": "entrance", "lat": 40.733472, "lng": -73.954942}], "distance": 371, "postalCode": "11222", "cc": "US", "city": "Brooklyn", "state": "NY", "country": "United States", "formattedAddress": ["1011 Manhattan Ave (btwn Green & Huron St)", "Brooklyn, NY 11222", "United States"]}, "categories": [{"id": "4bf58dd8d48988d11e941735", "name": "Cocktail Bar", "pluralName": "Cocktail Bars", "shortName": "Cocktail", "icon": {"prefix": "https://ss3.4sqi.net/img/categories_v2/nightlife/cocktails_", "suffix": ".png"}, "primary": true}], "photos": {"count": 0, "groups": []}, "venuePage": {"id": "80566988"}}, "referralId": "e-0-4e35d04162e17d2908384c6f-48"}, {"reasons": {"count": 0, "items": [{"summary": "This spot is popular", "type": "general", "reasonName": "globalInteractionReason"}]}, "venue": {"id": "49e7a1d2f964a520ee641fe3", "name": "Capri Social Club", "location": {"address": "156 Calyer St", "crossStreet": "at Lorimer St", "lat": 40.72779228924773, "lng": -73.95421298350264, "labeledLatLngs": [{"label": "display", "lat": 40.72779228924773, "lng": -73.95421298350264}], "distance": 268, "postalCode": "11222", "cc": "US", "city": "Brooklyn", "state": "NY", "country": "United States", "formattedAddress": ["156 Calyer St (at Lorimer St)", "Brooklyn, NY 11222", "United States"]}, "categories": [{"id": "4bf58dd8d48988d116941735", "name": "Bar", "pluralName": "Bars", "shortName": "Bar", "icon": {"prefix": "https://ss3.4sqi.net/img/categories_v2/nightlife/pub_", "suffix": ".png"}, "primary": true}], "photos": {"count": 0, "groups": []}}, "referralId": "e-0-49e7a1d2f964a520ee641fe3-49"}, {"reasons": {"count": 0, "items": [{"summary": "This spot is popular", "type": "general", "reasonName": "globalInteractionReason"}]}, "venue": {"id": "4c4bbf66c668e21ec3a57afa", "name": "Ovenly", "location": {"address": "31 Greenpoint Ave", "crossStreet": "at West St", "lat": 40.729707682840896, "lng": -73.95954448458306, "labeledLatLngs": [{"label": "display", "lat": 40.729707682840896, "lng": -73.95954448458306}], "distance": 450, "postalCode": "11222", "cc": "US", "city": "Brooklyn", "state": "NY", "country": "United States", "formattedAddress": ["31 Greenpoint Ave (at West St)", "Brooklyn, NY 11222", "United States"]}, "categories": [{"id": "4bf58dd8d48988d16a941735", "name": "Bakery", "pluralName": "Bakeries", "shortName": "Bakery", "icon": {"prefix": "https://ss3.4sqi.net/img/categories_v2/food/bakery_", "suffix": ".png"}, "primary": true}], "photos": {"count": 0, "groups": []}, "venuePage": {"id": "32823574"}}, "referralId": "e-0-4c4bbf66c668e21ec3a57afa-50"}, {"reasons": {"count": 0, "items": [{"summary": "This spot is popular", "type": "general", "reasonName": "globalInteractionReason"}]}, "venue": {"id": "4bcf1883c564ef3ba33beff0", "name": "Le Gamin", "location": {"address": "108 Franklin St", "crossStreet": "at Noble St.", "lat": 40.72828009841782, "lng": -73.95733511406732, "labeledLatLngs": [{"label": "display", "lat": 40.72828009841782, "lng": -73.95733511406732}, {"label": "entrance", "lat": 40.728287, "lng": -73.957206}], "distance": 337, "postalCode": "11222", "cc": "US", "city": "Brooklyn", "state": "NY", "country": "United States", "formattedAddress": ["108 Franklin St (at Noble St.)", "Brooklyn, NY 11222", "United States"]}, "categories": [{"id": "4bf58dd8d48988d10c941735", "name": "French Restaurant", "pluralName": "French Restaurants", "shortName": "French", "icon": {"prefix": "https://ss3.4sqi.net/img/categories_v2/food/french_", "suffix": ".png"}, "primary": true}], "delivery": {"id": "295021", "url": "https://www.seamless.com/menu/le-gamin-108-franklin-st-brooklyn/295021?affiliate=1131&utm_source=foursquare-affiliate-network&utm_medium=affiliate&utm_campaign=1131&utm_content=295021", "provider": {"name": "seamless", "icon": {"prefix": "https://fastly.4sqi.net/img/general/cap/", "sizes": [40, 50], "name": "/delivery_provider_seamless_20180129.png"}}}, "photos": {"count": 0, "groups": []}}, "referralId": "e-0-4bcf1883c564ef3ba33beff0-51"}, {"reasons": {"count": 0, "items": [{"summary": "This spot is popular", "type": "general", "reasonName": "globalInteractionReason"}]}, "venue": {"id": "4fa1c934e4b0ddb34f20186a", "name": "Record Grouch", "location": {"address": "986 Manhattan Ave", "crossStreet": "Huron St", "lat": 40.73266972419425, "lng": -73.95463594329628, "labeledLatLngs": [{"label": "display", "lat": 40.73266972419425, "lng": -73.95463594329628}, {"label": "entrance", "lat": 40.732785, "lng": -73.954549}], "distance": 276, "postalCode": "11222", "cc": "US", "city": "Brooklyn", "state": "NY", "country": "United States", "formattedAddress": ["986 Manhattan Ave (Huron St)", "Brooklyn, NY 11222", "United States"]}, "categories": [{"id": "4bf58dd8d48988d10d951735", "name": "Record Shop", "pluralName": "Record Shops", "shortName": "Record Shop", "icon": {"prefix": "https://ss3.4sqi.net/img/categories_v2/shops/record_shop_", "suffix": ".png"}, "primary": true}], "photos": {"count": 0, "groups": []}}, "referralId": "e-0-4fa1c934e4b0ddb34f20186a-52"}, {"reasons": {"count": 0, "items": [{"summary": "This spot is popular", "type": "general", "reasonName": "globalInteractionReason"}]}, "venue": {"id": "58fd34584382ab70ad90083e", "name": "Chez Ma Tante", "location": {"address": "90 Calyer St", "crossStreet": "at Franklin St", "lat": 40.726932060395754, "lng": -73.95725041012756, "labeledLatLngs": [{"label": "display", "lat": 40.726932060395754, "lng": -73.95725041012756}, {"label": "entrance", "lat": 40.726915, "lng": -73.957599}], "distance": 443, "postalCode": "11222", "cc": "US", "neighborhood": "Greenpoint", "city": "Brooklyn", "state": "NY", "country": "United States", "formattedAddress": ["90 Calyer St (at Franklin St)", "Brooklyn, NY 11222", "United States"]}, "categories": [{"id": "4bf58dd8d48988d10c941735", "name": "French Restaurant", "pluralName": "French Restaurants", "shortName": "French", "icon": {"prefix": "https://ss3.4sqi.net/img/categories_v2/food/french_", "suffix": ".png"}, "primary": true}], "photos": {"count": 0, "groups": []}}, "referralId": "e-0-58fd34584382ab70ad90083e-53"}, {"reasons": {"count": 0, "items": [{"summary": "This spot is popular", "type": "general", "reasonName": "globalInteractionReason"}]}, "venue": {"id": "4a16a406f964a52006791fe3", "name": "Baker's Dozen", "location": {"address": "788 Manhattan Ave", "crossStreet": "btwn Meserole Ave. & Calyer St.", "lat": 40.72753862263256, "lng": -73.95292838140413, "labeledLatLngs": [{"label": "display", "lat": 40.72753862263256, "lng": -73.95292838140413}, {"label": "entrance", "lat": 40.72755, "lng": -73.952832}], "distance": 316, "postalCode": "11222", "cc": "US", "city": "Brooklyn", "state": "NY", "country": "United States", "formattedAddress": ["788 Manhattan Ave (btwn Meserole Ave. & Calyer St.)", "Brooklyn, NY 11222", "United States"]}, "categories": [{"id": "4bf58dd8d48988d179941735", "name": "Bagel Shop", "pluralName": "Bagel Shops", "shortName": "Bagels", "icon": {"prefix": "https://ss3.4sqi.net/img/categories_v2/food/bagels_", "suffix": ".png"}, "primary": true}], "delivery": {"id": "115788", "url": "https://www.seamless.com/menu/bakers-dozen-788-manhattan-ave-brooklyn/115788?affiliate=1131&utm_source=foursquare-affiliate-network&utm_medium=affiliate&utm_campaign=1131&utm_content=115788", "provider": {"name": "seamless", "icon": {"prefix": "https://fastly.4sqi.net/img/general/cap/", "sizes": [40, 50], "name": "/delivery_provider_seamless_20180129.png"}}}, "photos": {"count": 0, "groups": []}, "venuePage": {"id": "79427904"}}, "referralId": "e-0-4a16a406f964a52006791fe3-54"}, {"reasons": {"count": 0, "items": [{"summary": "This spot is popular", "type": "general", "reasonName": "globalInteractionReason"}]}, "venue": {"id": "4ac3a58ef964a5202d9c20e3", "name": "Ott", "location": {"address": "970 Manhattan Ave", "crossStreet": "at India St", "lat": 40.732350431719375, "lng": -73.95452501167034, "labeledLatLngs": [{"label": "display", "lat": 40.732350431719375, "lng": -73.95452501167034}], "distance": 240, "postalCode": "11222", "cc": "US", "city": "Brooklyn", "state": "NY", "country": "United States", "formattedAddress": ["970 Manhattan Ave (at India St)", "Brooklyn, NY 11222", "United States"]}, "categories": [{"id": "4bf58dd8d48988d149941735", "name": "Thai Restaurant", "pluralName": "Thai Restaurants", "shortName": "Thai", "icon": {"prefix": "https://ss3.4sqi.net/img/categories_v2/food/thai_", "suffix": ".png"}, "primary": true}], "photos": {"count": 0, "groups": []}, "venuePage": {"id": "79424535"}}, "referralId": "e-0-4ac3a58ef964a5202d9c20e3-55"}, {"reasons": {"count": 0, "items": [{"summary": "This spot is popular", "type": "general", "reasonName": "globalInteractionReason"}]}, "venue": {"id": "590e4f28356b492c77d5ae72", "name": "West Wine Bar", "location": {"address": "67 West St", "crossStreet": "Milton", "lat": 40.7289264310201, "lng": -73.95897548309165, "labeledLatLngs": [{"label": "display", "lat": 40.7289264310201, "lng": -73.95897548309165}], "distance": 423, "postalCode": "11222", "cc": "US", "city": "Brooklyn", "state": "NY", "country": "United States", "formattedAddress": ["67 West St (Milton)", "Brooklyn, NY 11222", "United States"]}, "categories": [{"id": "4bf58dd8d48988d123941735", "name": "Wine Bar", "pluralName": "Wine Bars", "shortName": "Wine Bar", "icon": {"prefix": "https://ss3.4sqi.net/img/categories_v2/food/winery_", "suffix": ".png"}, "primary": true}], "photos": {"count": 0, "groups": []}}, "referralId": "e-0-590e4f28356b492c77d5ae72-56"}, {"reasons": {"count": 0, "items": [{"summary": "This spot is popular", "type": "general", "reasonName": "globalInteractionReason"}]}, "venue": {"id": "51719d0c498ecaa68f1485fa", "name": "Java Studios", "location": {"address": "252 Java St", "crossStreet": "McGuiness And Provost", "lat": 40.731753280494296, "lng": -73.94998828643834, "labeledLatLngs": [{"label": "display", "lat": 40.731753280494296, "lng": -73.94998828643834}], "distance": 398, "postalCode": "11222", "cc": "US", "city": "Brooklyn", "state": "NY", "country": "United States", "formattedAddress": ["252 Java St (McGuiness And Provost)", "Brooklyn, NY 11222", "United States"]}, "categories": [{"id": "4bf58dd8d48988d174941735", "name": "Coworking Space", "pluralName": "Coworking Spaces", "shortName": "Coworking Space", "icon": {"prefix": "https://ss3.4sqi.net/img/categories_v2/building/office_coworkingspace_", "suffix": ".png"}, "primary": true}], "photos": {"count": 0, "groups": []}, "venuePage": {"id": "99449849"}}, "referralId": "e-0-51719d0c498ecaa68f1485fa-57"}, {"reasons": {"count": 0, "items": [{"summary": "This spot is popular", "type": "general", "reasonName": "globalInteractionReason"}]}, "venue": {"id": "55ed0a7e498e433fa7c63631", "name": "Mr. Berry", "location": {"address": "892 Manhattan Ave", "lat": 40.72998958855696, "lng": -73.95413898249976, "labeledLatLngs": [{"label": "display", "lat": 40.72998958855696, "lng": -73.95413898249976}, {"label": "entrance", "lat": 40.729968, "lng": -73.95406}], "distance": 25, "postalCode": "11222", "cc": "US", "city": "Brooklyn", "state": "NY", "country": "United States", "formattedAddress": ["892 Manhattan Ave", "Brooklyn, NY 11222", "United States"]}, "categories": [{"id": "52f2ab2ebcbc57f1066b8b1c", "name": "Fruit & Vegetable Store", "pluralName": "Fruit & Vegetable Stores", "shortName": "Fruit & Vegetable Store", "icon": {"prefix": "https://ss3.4sqi.net/img/categories_v2/shops/food_grocery_", "suffix": ".png"}, "primary": true}], "photos": {"count": 0, "groups": []}}, "referralId": "e-0-55ed0a7e498e433fa7c63631-58"}, {"reasons": {"count": 0, "items": [{"summary": "This spot is popular", "type": "general", "reasonName": "globalInteractionReason"}]}, "venue": {"id": "5ad7c4224febd54bc97c5c47", "name": "Pelicana Chicken", "location": {"address": "941 Manhattan Avenue", "crossStreet": "Java Street", "lat": 40.731452410096246, "lng": -73.95450966745076, "labeledLatLngs": [{"label": "display", "lat": 40.731452410096246, "lng": -73.95450966745076}], "distance": 141, "postalCode": "11222", "cc": "US", "city": "New York", "state": "NY", "country": "United States", "formattedAddress": ["941 Manhattan Avenue (Java Street)", "New York, NY 11222", "United States"]}, "categories": [{"id": "4d4ae6fc7a7b7dea34424761", "name": "Fried Chicken Joint", "pluralName": "Fried Chicken Joints", "shortName": "Fried Chicken", "icon": {"prefix": "https://ss3.4sqi.net/img/categories_v2/food/friedchicken_", "suffix": ".png"}, "primary": true}], "delivery": {"id": "766666", "url": "https://www.seamless.com/menu/pelicana-chicken-941-manhattan-ave-brooklyn/766666?affiliate=1131&utm_source=foursquare-affiliate-network&utm_medium=affiliate&utm_campaign=1131&utm_content=766666", "provider": {"name": "seamless", "icon": {"prefix": "https://fastly.4sqi.net/img/general/cap/", "sizes": [40, 50], "name": "/delivery_provider_seamless_20180129.png"}}}, "photos": {"count": 0, "groups": []}}, "referralId": "e-0-5ad7c4224febd54bc97c5c47-59"}, {"reasons": {"count": 0, "items": [{"summary": "This spot is popular", "type": "general", "reasonName": "globalInteractionReason"}]}, "venue": {"id": "59e63235f1fdaf746d090d16", "name": "Davey\u2019s Ice Cream", "location": {"address": "74 Meserole Ave", "crossStreet": "Guernsey St", "lat": 40.726577368721, "lng": -73.95430528096284, "labeledLatLngs": [{"label": "display", "lat": 40.726577368721, "lng": -73.95430528096284}], "distance": 403, "postalCode": "11222", "cc": "US", "city": "New York", "state": "NY", "country": "United States", "formattedAddress": ["74 Meserole Ave (Guernsey St)", "New York, NY 11222", "United States"]}, "categories": [{"id": "4bf58dd8d48988d1c9941735", "name": "Ice Cream Shop", "pluralName": "Ice Cream Shops", "shortName": "Ice Cream", "icon": {"prefix": "https://ss3.4sqi.net/img/categories_v2/food/icecream_", "suffix": ".png"}, "primary": true}], "photos": {"count": 0, "groups": []}}, "referralId": "e-0-59e63235f1fdaf746d090d16-60"}, {"reasons": {"count": 0, "items": [{"summary": "This spot is popular", "type": "general", "reasonName": "globalInteractionReason"}]}, "venue": {"id": "5172d6477043c222fb3a8b97", "name": "Maha Rose", "location": {"address": "97 Green St Apt G3", "crossStreet": "Franklin ave", "lat": 40.73352898609119, "lng": -73.95747338180999, "labeledLatLngs": [{"label": "display", "lat": 40.73352898609119, "lng": -73.95747338180999}], "distance": 459, "postalCode": "11222", "cc": "US", "city": "Brooklyn", "state": "NY", "country": "United States", "formattedAddress": ["97 Green St Apt G3 (Franklin ave)", "Brooklyn, NY 11222", "United States"]}, "categories": [{"id": "4bf58dd8d48988d102941735", "name": "Yoga Studio", "pluralName": "Yoga Studios", "shortName": "Yoga Studio", "icon": {"prefix": "https://ss3.4sqi.net/img/categories_v2/shops/gym_yogastudio_", "suffix": ".png"}, "primary": true}], "photos": {"count": 0, "groups": []}}, "referralId": "e-0-5172d6477043c222fb3a8b97-61"}, {"reasons": {"count": 0, "items": [{"summary": "This spot is popular", "type": "general", "reasonName": "globalInteractionReason"}]}, "venue": {"id": "4a142410f964a52007781fe3", "name": "Italy Pizza", "location": {"address": "800 Manhattan Ave", "crossStreet": "Meserole Ave/Calyer St", "lat": 40.727711857496196, "lng": -73.95305085278082, "labeledLatLngs": [{"label": "display", "lat": 40.727711857496196, "lng": -73.95305085278082}, {"label": "entrance", "lat": 40.727802, "lng": -73.952978}], "distance": 294, "postalCode": "11222", "cc": "US", "city": "Brooklyn", "state": "NY", "country": "United States", "formattedAddress": ["800 Manhattan Ave (Meserole Ave/Calyer St)", "Brooklyn, NY 11222", "United States"]}, "categories": [{"id": "4bf58dd8d48988d1ca941735", "name": "Pizza Place", "pluralName": "Pizza Places", "shortName": "Pizza", "icon": {"prefix": "https://ss3.4sqi.net/img/categories_v2/food/pizza_", "suffix": ".png"}, "primary": true}], "delivery": {"id": "1134212", "url": "https://www.seamless.com/menu/italy-pizza-800-manhattan-ave-brooklyn/1134212?affiliate=1131&utm_source=foursquare-affiliate-network&utm_medium=affiliate&utm_campaign=1131&utm_content=1134212", "provider": {"name": "seamless", "icon": {"prefix": "https://fastly.4sqi.net/img/general/cap/", "sizes": [40, 50], "name": "/delivery_provider_seamless_20180129.png"}}}, "photos": {"count": 0, "groups": []}}, "referralId": "e-0-4a142410f964a52007781fe3-62"}, {"reasons": {"count": 0, "items": [{"summary": "This spot is popular", "type": "general", "reasonName": "globalInteractionReason"}]}, "venue": {"id": "5424b085498ec9a9cdb44b70", "name": "Naked Dog", "location": {"address": "47 Java St", "lat": 40.7312918882724, "lng": -73.95947690314539, "labeledLatLngs": [{"label": "display", "lat": 40.7312918882724, "lng": -73.95947690314539}, {"label": "entrance", "lat": 40.731238, "lng": -73.959344}], "distance": 458, "postalCode": "11222", "cc": "US", "city": "Brooklyn", "state": "NY", "country": "United States", "formattedAddress": ["47 Java St", "Brooklyn, NY 11222", "United States"]}, "categories": [{"id": "4bf58dd8d48988d110941735", "name": "Italian Restaurant", "pluralName": "Italian Restaurants", "shortName": "Italian", "icon": {"prefix": "https://ss3.4sqi.net/img/categories_v2/food/italian_", "suffix": ".png"}, "primary": true}], "delivery": {"id": "2121895", "url": "https://www.seamless.com/menu/naked-dog-47-java-st-ny/2121895?affiliate=1131&utm_source=foursquare-affiliate-network&utm_medium=affiliate&utm_campaign=1131&utm_content=2121895", "provider": {"name": "seamless", "icon": {"prefix": "https://fastly.4sqi.net/img/general/cap/", "sizes": [40, 50], "name": "/delivery_provider_seamless_20180129.png"}}}, "photos": {"count": 0, "groups": []}}, "referralId": "e-0-5424b085498ec9a9cdb44b70-63"}, {"reasons": {"count": 0, "items": [{"summary": "This spot is popular", "type": "general", "reasonName": "globalInteractionReason"}]}, "venue": {"id": "45ed04d8f964a520a9431fe3", "name": "Peter Pan Donut & Pastry Shop", "location": {"address": "727 Manhattan Ave", "crossStreet": "btwn Norman & Meserole Ave", "lat": 40.726102, "lng": -73.952252, "labeledLatLngs": [{"label": "display", "lat": 40.726102, "lng": -73.952252}, {"label": "entrance", "lat": 40.726077, "lng": -73.952221}], "distance": 486, "postalCode": "11222", "cc": "US", "neighborhood": "Greenpoint", "city": "Brooklyn", "state": "NY", "country": "United States", "formattedAddress": ["727 Manhattan Ave (btwn Norman & Meserole Ave)", "Brooklyn, NY 11222", "United States"]}, "categories": [{"id": "4bf58dd8d48988d148941735", "name": "Donut Shop", "pluralName": "Donut Shops", "shortName": "Donuts", "icon": {"prefix": "https://ss3.4sqi.net/img/categories_v2/food/donuts_", "suffix": ".png"}, "primary": true}], "photos": {"count": 0, "groups": []}, "venuePage": {"id": "70348613"}}, "referralId": "e-0-45ed04d8f964a520a9431fe3-64"}, {"reasons": {"count": 0, "items": [{"summary": "This spot is popular", "type": "general", "reasonName": "globalInteractionReason"}]}, "venue": {"id": "550b5d7c498e2c05af69f85c", "name": "Triskelion Arts", "location": {"address": "106 Calyer St", "lat": 40.72702845479533, "lng": -73.9566549430326, "labeledLatLngs": [{"label": "display", "lat": 40.72702845479533, "lng": -73.9566549430326}, {"label": "entrance", "lat": 40.727013, "lng": -73.956561}], "distance": 407, "postalCode": "11222", "cc": "US", "city": "Brooklyn", "state": "NY", "country": "United States", "formattedAddress": ["106 Calyer St", "Brooklyn, NY 11222", "United States"]}, "categories": [{"id": "4bf58dd8d48988d134941735", "name": "Dance Studio", "pluralName": "Dance Studios", "shortName": "Dance Studio", "icon": {"prefix": "https://ss3.4sqi.net/img/categories_v2/arts_entertainment/performingarts_dancestudio_", "suffix": ".png"}, "primary": true}], "photos": {"count": 0, "groups": []}}, "referralId": "e-0-550b5d7c498e2c05af69f85c-65"}, {"reasons": {"count": 0, "items": [{"summary": "This spot is popular", "type": "general", "reasonName": "globalInteractionReason"}]}, "venue": {"id": "4a5a78f1f964a52064ba1fe3", "name": "Anella", "location": {"address": "222 Franklin St", "crossStreet": "btwn Green & Huron St", "lat": 40.73327191911455, "lng": -73.95801948957296, "labeledLatLngs": [{"label": "display", "lat": 40.73327191911455, "lng": -73.95801948957296}, {"label": "entrance", "lat": 40.733254, "lng": -73.95802}], "distance": 467, "postalCode": "11222", "cc": "US", "city": "Brooklyn", "state": "NY", "country": "United States", "formattedAddress": ["222 Franklin St (btwn Green & Huron St)", "Brooklyn, NY 11222", "United States"]}, "categories": [{"id": "4bf58dd8d48988d14e941735", "name": "American Restaurant", "pluralName": "American Restaurants", "shortName": "American", "icon": {"prefix": "https://ss3.4sqi.net/img/categories_v2/food/default_", "suffix": ".png"}, "primary": true}], "photos": {"count": 0, "groups": []}, "venuePage": {"id": "43366397"}}, "referralId": "e-0-4a5a78f1f964a52064ba1fe3-66"}, {"reasons": {"count": 0, "items": [{"summary": "This spot is popular", "type": "general", "reasonName": "globalInteractionReason"}]}, "venue": {"id": "5a51a92497461750cb744252", "name": "Grand Republic Cocktail Club", "location": {"address": "19 Greenpoint Avenue", "crossStreet": "West St", "lat": 40.72972222591839, "lng": -73.95989711429449, "labeledLatLngs": [{"label": "display", "lat": 40.72972222591839, "lng": -73.95989711429449}], "distance": 480, "postalCode": "11222", "cc": "US", "city": "New York", "state": "NY", "country": "United States", "formattedAddress": ["19 Greenpoint Avenue (West St)", "New York, NY 11222", "United States"]}, "categories": [{"id": "4bf58dd8d48988d11e941735", "name": "Cocktail Bar", "pluralName": "Cocktail Bars", "shortName": "Cocktail", "icon": {"prefix": "https://ss3.4sqi.net/img/categories_v2/nightlife/cocktails_", "suffix": ".png"}, "primary": true}], "photos": {"count": 0, "groups": []}}, "referralId": "e-0-5a51a92497461750cb744252-67"}, {"reasons": {"count": 0, "items": [{"summary": "This spot is popular", "type": "general", "reasonName": "globalInteractionReason"}]}, "venue": {"id": "55cf6244498e24c4ebe3ae0b", "name": "Sweetleaf", "location": {"address": "159 Freeman St", "lat": 40.734431143292184, "lng": -73.95542611092719, "labeledLatLngs": [{"label": "display", "lat": 40.734431143292184, "lng": -73.95542611092719}, {"label": "entrance", "lat": 40.734492, "lng": -73.955381}], "distance": 481, "postalCode": "11222", "cc": "US", "city": "Brooklyn", "state": "NY", "country": "United States", "formattedAddress": ["159 Freeman St", "Brooklyn, NY 11222", "United States"]}, "categories": [{"id": "4bf58dd8d48988d1e0931735", "name": "Coffee Shop", "pluralName": "Coffee Shops", "shortName": "Coffee Shop", "icon": {"prefix": "https://ss3.4sqi.net/img/categories_v2/food/coffeeshop_", "suffix": ".png"}, "primary": true}], "delivery": {"id": "2092295", "url": "https://www.seamless.com/menu/sweetleaf-159-freeman-st-long-island-city/2092295?affiliate=1131&utm_source=foursquare-affiliate-network&utm_medium=affiliate&utm_campaign=1131&utm_content=2092295", "provider": {"name": "seamless", "icon": {"prefix": "https://fastly.4sqi.net/img/general/cap/", "sizes": [40, 50], "name": "/delivery_provider_seamless_20180129.png"}}}, "photos": {"count": 0, "groups": []}, "venuePage": {"id": "147036663"}}, "referralId": "e-0-55cf6244498e24c4ebe3ae0b-68"}, {"reasons": {"count": 0, "items": [{"summary": "This spot is popular", "type": "general", "reasonName": "globalInteractionReason"}]}, "venue": {"id": "5cfda20a0d8a0f002cba15f3", "name": "Madre", "location": {"address": "214 Franklin St", "crossStreet": "Green Street", "lat": 40.73304, "lng": -73.95796, "labeledLatLngs": [{"label": "display", "lat": 40.73304, "lng": -73.95796}], "distance": 445, "postalCode": "11222", "cc": "US", "neighborhood": "Greenpoint", "city": "Brooklyn", "state": "NY", "country": "United States", "formattedAddress": ["214 Franklin St (Green Street)", "Brooklyn, NY 11222", "United States"]}, "categories": [{"id": "4bf58dd8d48988d1c4941735", "name": "Restaurant", "pluralName": "Restaurants", "shortName": "Restaurant", "icon": {"prefix": "https://ss3.4sqi.net/img/categories_v2/food/default_", "suffix": ".png"}, "primary": true}], "photos": {"count": 0, "groups": []}}, "referralId": "e-0-5cfda20a0d8a0f002cba15f3-69"}, {"reasons": {"count": 0, "items": [{"summary": "This spot is popular", "type": "general", "reasonName": "globalInteractionReason"}]}, "venue": {"id": "51315bace4b0feed248b7731", "name": "3 Roots", "location": {"address": "159 Franklin St", "crossStreet": "India St.", "lat": 40.731958168951394, "lng": -73.95792042052904, "labeledLatLngs": [{"label": "display", "lat": 40.731958168951394, "lng": -73.95792042052904}, {"label": "entrance", "lat": 40.731882, "lng": -73.958046}], "distance": 366, "postalCode": "11222", "cc": "US", "city": "Brooklyn", "state": "NY", "country": "United States", "formattedAddress": ["159 Franklin St (India St.)", "Brooklyn, NY 11222", "United States"]}, "categories": [{"id": "4bf58dd8d48988d112941735", "name": "Juice Bar", "pluralName": "Juice Bars", "shortName": "Juice Bar", "icon": {"prefix": "https://ss3.4sqi.net/img/categories_v2/food/juicebar_", "suffix": ".png"}, "primary": true}], "delivery": {"id": "688041", "url": "https://www.seamless.com/menu/3-roots-159-franklin-st-brooklyn/688041?affiliate=1131&utm_source=foursquare-affiliate-network&utm_medium=affiliate&utm_campaign=1131&utm_content=688041", "provider": {"name": "seamless", "icon": {"prefix": "https://fastly.4sqi.net/img/general/cap/", "sizes": [40, 50], "name": "/delivery_provider_seamless_20180129.png"}}}, "photos": {"count": 0, "groups": []}}, "referralId": "e-0-51315bace4b0feed248b7731-70"}, {"reasons": {"count": 0, "items": [{"summary": "This spot is popular", "type": "general", "reasonName": "globalInteractionReason"}]}, "venue": {"id": "564df7a6498e7b03a1b5e113", "name": "Polka Dot", "location": {"address": "726 Manhattan Ave", "lat": 40.72607234859372, "lng": -73.95210119026234, "labeledLatLngs": [{"label": "display", "lat": 40.72607234859372, "lng": -73.95210119026234}], "distance": 493, "postalCode": "11222", "cc": "US", "city": "Brooklyn", "state": "NY", "country": "United States", "formattedAddress": ["726 Manhattan Ave", "Brooklyn, NY 11222", "United States"]}, "categories": [{"id": "52e81612bcbc57f1066b7a04", "name": "Polish Restaurant", "pluralName": "Polish Restaurants", "shortName": "Polish", "icon": {"prefix": "https://ss3.4sqi.net/img/categories_v2/food/default_", "suffix": ".png"}, "primary": true}], "delivery": {"id": "446930", "url": "https://www.seamless.com/menu/polka-dot-726-manhattan-ave-brooklyn/446930?affiliate=1131&utm_source=foursquare-affiliate-network&utm_medium=affiliate&utm_campaign=1131&utm_content=446930", "provider": {"name": "seamless", "icon": {"prefix": "https://fastly.4sqi.net/img/general/cap/", "sizes": [40, 50], "name": "/delivery_provider_seamless_20180129.png"}}}, "photos": {"count": 0, "groups": []}}, "referralId": "e-0-564df7a6498e7b03a1b5e113-71"}, {"reasons": {"count": 0, "items": [{"summary": "This spot is popular", "type": "general", "reasonName": "globalInteractionReason"}]}, "venue": {"id": "5165f61490e7403845dff8a3", "name": "Alameda", "location": {"address": "195 Franklin St", "crossStreet": "at Green St", "lat": 40.7334267350945, "lng": -73.95820087509992, "labeledLatLngs": [{"label": "display", "lat": 40.7334267350945, "lng": -73.95820087509992}], "distance": 490, "postalCode": "11222", "cc": "US", "city": "Brooklyn", "state": "NY", "country": "United States", "formattedAddress": ["195 Franklin St (at Green St)", "Brooklyn, NY 11222", "United States"]}, "categories": [{"id": "4bf58dd8d48988d157941735", "name": "New American Restaurant", "pluralName": "New American Restaurants", "shortName": "New American", "icon": {"prefix": "https://ss3.4sqi.net/img/categories_v2/food/newamerican_", "suffix": ".png"}, "primary": true}], "photos": {"count": 0, "groups": []}, "venuePage": {"id": "95402165"}}, "referralId": "e-0-5165f61490e7403845dff8a3-72"}, {"reasons": {"count": 0, "items": [{"summary": "This spot is popular", "type": "general", "reasonName": "globalInteractionReason"}]}, "venue": {"id": "4bc21536920eb7133d9a1b2c", "name": "American Playground", "location": {"address": "81-91 Franklin St", "crossStreet": "Milton St", "lat": 40.728676171614346, "lng": -73.957704297801, "labeledLatLngs": [{"label": "display", "lat": 40.728676171614346, "lng": -73.957704297801}], "distance": 337, "postalCode": "11222", "cc": "US", "city": "Brooklyn", "state": "NY", "country": "United States", "formattedAddress": ["81-91 Franklin St (Milton St)", "Brooklyn, NY 11222", "United States"]}, "categories": [{"id": "4bf58dd8d48988d1e7941735", "name": "Playground", "pluralName": "Playgrounds", "shortName": "Playground", "icon": {"prefix": "https://ss3.4sqi.net/img/categories_v2/parks_outdoors/playground_", "suffix": ".png"}, "primary": true}], "photos": {"count": 0, "groups": []}}, "referralId": "e-0-4bc21536920eb7133d9a1b2c-73"}, {"reasons": {"count": 0, "items": [{"summary": "This spot is popular", "type": "general", "reasonName": "globalInteractionReason"}]}, "venue": {"id": "4a1e0ca0f964a520bf7b1fe3", "name": "The Diamond", "location": {"address": "43 Franklin St", "crossStreet": "at Calyer St", "lat": 40.72683338071467, "lng": -73.95731389720854, "labeledLatLngs": [{"label": "display", "lat": 40.72683338071467, "lng": -73.95731389720854}, {"label": "entrance", "lat": 40.72676, "lng": -73.957396}], "distance": 455, "postalCode": "11222", "cc": "US", "city": "Brooklyn", "state": "NY", "country": "United States", "formattedAddress": ["43 Franklin St (at Calyer St)", "Brooklyn, NY 11222", "United States"]}, "categories": [{"id": "4bf58dd8d48988d116941735", "name": "Bar", "pluralName": "Bars", "shortName": "Bar", "icon": {"prefix": "https://ss3.4sqi.net/img/categories_v2/nightlife/pub_", "suffix": ".png"}, "primary": true}], "photos": {"count": 0, "groups": []}, "venuePage": {"id": "97503883"}}, "referralId": "e-0-4a1e0ca0f964a520bf7b1fe3-74"}, {"reasons": {"count": 0, "items": [{"summary": "This spot is popular", "type": "general", "reasonName": "globalInteractionReason"}]}, "venue": {"id": "5650aecb498edc1811df4527", "name": "Vittles", "location": {"address": "94 Franklin St", "crossStreet": "Oak st", "lat": 40.72783349952013, "lng": -73.95698783339796, "labeledLatLngs": [{"label": "display", "lat": 40.72783349952013, "lng": -73.95698783339796}, {"label": "entrance", "lat": 40.727873, "lng": -73.957135}], "distance": 350, "postalCode": "11222", "cc": "US", "city": "Brooklyn", "state": "NY", "country": "United States", "formattedAddress": ["94 Franklin St (Oak st)", "Brooklyn, NY 11222", "United States"]}, "categories": [{"id": "4bf58dd8d48988d16d941735", "name": "Caf\u00e9", "pluralName": "Caf\u00e9s", "shortName": "Caf\u00e9", "icon": {"prefix": "https://ss3.4sqi.net/img/categories_v2/food/cafe_", "suffix": ".png"}, "primary": true}], "delivery": {"id": "335337", "url": "https://www.seamless.com/menu/vittles-94-franklin-st-brooklyn/335337?affiliate=1131&utm_source=foursquare-affiliate-network&utm_medium=affiliate&utm_campaign=1131&utm_content=335337", "provider": {"name": "seamless", "icon": {"prefix": "https://fastly.4sqi.net/img/general/cap/", "sizes": [40, 50], "name": "/delivery_provider_seamless_20180129.png"}}}, "photos": {"count": 0, "groups": []}}, "referralId": "e-0-5650aecb498edc1811df4527-75"}, {"reasons": {"count": 0, "items": [{"summary": "This spot is popular", "type": "general", "reasonName": "globalInteractionReason"}]}, "venue": {"id": "4ab947baf964a520c17e20e3", "name": "Russ Pizza", "location": {"address": "745 Manhattan Ave", "crossStreet": "btw Norman & Meserole", "lat": 40.72645867309902, "lng": -73.95235989468806, "labeledLatLngs": [{"label": "display", "lat": 40.72645867309902, "lng": -73.95235989468806}, {"label": "entrance", "lat": 40.726454, "lng": -73.952426}], "distance": 445, "postalCode": "11222", "cc": "US", "city": "Brooklyn", "state": "NY", "country": "United States", "formattedAddress": ["745 Manhattan Ave (btw Norman & Meserole)", "Brooklyn, NY 11222", "United States"]}, "categories": [{"id": "4bf58dd8d48988d1ca941735", "name": "Pizza Place", "pluralName": "Pizza Places", "shortName": "Pizza", "icon": {"prefix": "https://ss3.4sqi.net/img/categories_v2/food/pizza_", "suffix": ".png"}, "primary": true}], "delivery": {"id": "1186726", "url": "https://www.seamless.com/menu/russ-pizza-745-manhattan-ave-brooklyn/1186726?affiliate=1131&utm_source=foursquare-affiliate-network&utm_medium=affiliate&utm_campaign=1131&utm_content=1186726", "provider": {"name": "seamless", "icon": {"prefix": "https://fastly.4sqi.net/img/general/cap/", "sizes": [40, 50], "name": "/delivery_provider_seamless_20180129.png"}}}, "photos": {"count": 0, "groups": []}, "venuePage": {"id": "94877768"}}, "referralId": "e-0-4ab947baf964a520c17e20e3-76"}, {"reasons": {"count": 0, "items": [{"summary": "This spot is popular", "type": "general", "reasonName": "globalInteractionReason"}]}, "venue": {"id": "57dc9cf9498e9b5df967d6c2", "name": "21 Greenpoint", "location": {"address": "21 Greenpoint Ave", "crossStreet": "West St.", "lat": 40.72973145449354, "lng": -73.95989263835487, "labeledLatLngs": [{"label": "display", "lat": 40.72973145449354, "lng": -73.95989263835487}, {"label": "entrance", "lat": 40.729763, "lng": -73.959923}], "distance": 479, "postalCode": "11222", "cc": "US", "city": "Brooklyn", "state": "NY", "country": "United States", "formattedAddress": ["21 Greenpoint Ave (West St.)", "Brooklyn, NY 11222", "United States"]}, "categories": [{"id": "4bf58dd8d48988d116941735", "name": "Bar", "pluralName": "Bars", "shortName": "Bar", "icon": {"prefix": "https://ss3.4sqi.net/img/categories_v2/nightlife/pub_", "suffix": ".png"}, "primary": true}], "photos": {"count": 0, "groups": []}, "venuePage": {"id": "505553552"}}, "referralId": "e-0-57dc9cf9498e9b5df967d6c2-77"}, {"reasons": {"count": 0, "items": [{"summary": "This spot is popular", "type": "general", "reasonName": "globalInteractionReason"}]}, "venue": {"id": "55f5ee4b498ec17bd3110e2b", "name": "Kimchee Market", "location": {"address": "191 Greenpoint Ave", "crossStreet": "btwn McGuiness Blvd & Manhattan Ave", "lat": 40.73063, "lng": -73.951953, "labeledLatLngs": [{"label": "display", "lat": 40.73063, "lng": -73.951953}, {"label": "entrance", "lat": 40.730497, "lng": -73.951928}], "distance": 198, "postalCode": "11222", "cc": "US", "city": "Brooklyn", "state": "NY", "country": "United States", "formattedAddress": ["191 Greenpoint Ave (btwn McGuiness Blvd & Manhattan Ave)", "Brooklyn, NY 11222", "United States"]}, "categories": [{"id": "4bf58dd8d48988d118951735", "name": "Grocery Store", "pluralName": "Grocery Stores", "shortName": "Grocery Store", "icon": {"prefix": "https://ss3.4sqi.net/img/categories_v2/shops/food_grocery_", "suffix": ".png"}, "primary": true}], "delivery": {"id": "348320", "url": "https://www.seamless.com/menu/kimchee-market-korean-food-191-greenpoint-ave-brooklyn/348320?affiliate=1131&utm_source=foursquare-affiliate-network&utm_medium=affiliate&utm_campaign=1131&utm_content=348320", "provider": {"name": "seamless", "icon": {"prefix": "https://fastly.4sqi.net/img/general/cap/", "sizes": [40, 50], "name": "/delivery_provider_seamless_20180129.png"}}}, "photos": {"count": 0, "groups": []}}, "referralId": "e-0-55f5ee4b498ec17bd3110e2b-78"}, {"reasons": {"count": 0, "items": [{"summary": "This spot is popular", "type": "general", "reasonName": "globalInteractionReason"}]}, "venue": {"id": "5748f138498e27b0cc08e6f5", "name": "Franklin Guest House", "location": {"address": "214 Franklin", "crossStreet": "Huron", "lat": 40.733048739775676, "lng": -73.95806238816328, "labeledLatLngs": [{"label": "display", "lat": 40.733048739775676, "lng": -73.95806238816328}], "distance": 452, "postalCode": "11222", "cc": "US", "city": "Brooklyn", "state": "NY", "country": "United States", "formattedAddress": ["214 Franklin (Huron)", "Brooklyn, NY 11222", "United States"]}, "categories": [{"id": "4bf58dd8d48988d1fa931735", "name": "Hotel", "pluralName": "Hotels", "shortName": "Hotel", "icon": {"prefix": "https://ss3.4sqi.net/img/categories_v2/travel/hotel_", "suffix": ".png"}, "primary": true}], "photos": {"count": 0, "groups": []}}, "referralId": "e-0-5748f138498e27b0cc08e6f5-79"}, {"reasons": {"count": 0, "items": [{"summary": "This spot is popular", "type": "general", "reasonName": "globalInteractionReason"}]}, "venue": {"id": "5cb12982d905160025a301f5", "name": "Getaway", "location": {"address": "158 Green St", "crossStreet": "Manhattan Ave.", "lat": 40.733705, "lng": -73.955189, "labeledLatLngs": [{"label": "display", "lat": 40.733705, "lng": -73.955189}], "distance": 398, "postalCode": "11222", "cc": "US", "city": "New York", "state": "NY", "country": "United States", "formattedAddress": ["158 Green St (Manhattan Ave.)", "New York, NY 11222", "United States"]}, "categories": [{"id": "4bf58dd8d48988d116941735", "name": "Bar", "pluralName": "Bars", "shortName": "Bar", "icon": {"prefix": "https://ss3.4sqi.net/img/categories_v2/nightlife/pub_", "suffix": ".png"}, "primary": true}], "photos": {"count": 0, "groups": []}}, "referralId": "e-0-5cb12982d905160025a301f5-80"}, {"reasons": {"count": 0, "items": [{"summary": "This spot is popular", "type": "general", "reasonName": "globalInteractionReason"}]}, "venue": {"id": "52fe870b498e1ae6f20f5550", "name": "Brooklyn Safehouse", "location": {"address": "120 Franklin St", "crossStreet": "btwn Noble St & Milton St", "lat": 40.728874317878144, "lng": -73.95743413349477, "labeledLatLngs": [{"label": "display", "lat": 40.728874317878144, "lng": -73.95743413349477}, {"label": "entrance", "lat": 40.728858, "lng": -73.957304}], "distance": 307, "postalCode": "11222", "cc": "US", "city": "Brooklyn", "state": "NY", "country": "United States", "formattedAddress": ["120 Franklin St (btwn Noble St & Milton St)", "Brooklyn, NY 11222", "United States"]}, "categories": [{"id": "4bf58dd8d48988d116941735", "name": "Bar", "pluralName": "Bars", "shortName": "Bar", "icon": {"prefix": "https://ss3.4sqi.net/img/categories_v2/nightlife/pub_", "suffix": ".png"}, "primary": true}], "photos": {"count": 0, "groups": []}}, "referralId": "e-0-52fe870b498e1ae6f20f5550-81"}, {"reasons": {"count": 0, "items": [{"summary": "This spot is popular", "type": "general", "reasonName": "globalInteractionReason"}]}, "venue": {"id": "504b5e8ee4b0c8862acd48e6", "name": "TD Bank", "location": {"address": "765 Manhattan Ave", "crossStreet": "Meserole Avenue", "lat": 40.7268789, "lng": -73.9527937, "labeledLatLngs": [{"label": "display", "lat": 40.7268789, "lng": -73.9527937}], "distance": 389, "postalCode": "11222", "cc": "US", "city": "Brooklyn", "state": "NY", "country": "United States", "formattedAddress": ["765 Manhattan Ave (Meserole Avenue)", "Brooklyn, NY 11222", "United States"]}, "categories": [{"id": "4bf58dd8d48988d10a951735", "name": "Bank", "pluralName": "Banks", "shortName": "Bank", "icon": {"prefix": "https://ss3.4sqi.net/img/categories_v2/shops/financial_", "suffix": ".png"}, "primary": true}], "photos": {"count": 0, "groups": []}}, "referralId": "e-0-504b5e8ee4b0c8862acd48e6-82"}, {"reasons": {"count": 0, "items": [{"summary": "This spot is popular", "type": "general", "reasonName": "globalInteractionReason"}]}, "venue": {"id": "51a5445c498ee0f182370cb2", "name": "Agra Taj Mahal", "location": {"address": "1005 Manhattan Ave", "lat": 40.733321, "lng": -73.954928, "labeledLatLngs": [{"label": "display", "lat": 40.733321, "lng": -73.954928}, {"label": "entrance", "lat": 40.73334, "lng": -73.95492}], "distance": 352, "postalCode": "11222", "cc": "US", "city": "Brooklyn", "state": "NY", "country": "United States", "formattedAddress": ["1005 Manhattan Ave", "Brooklyn, NY 11222", "United States"]}, "categories": [{"id": "4bf58dd8d48988d10f941735", "name": "Indian Restaurant", "pluralName": "Indian Restaurants", "shortName": "Indian", "icon": {"prefix": "https://ss3.4sqi.net/img/categories_v2/food/indian_", "suffix": ".png"}, "primary": true}], "delivery": {"id": "276731", "url": "https://www.seamless.com/menu/agra-taj-mahal-1005-manhattan-ave-brooklyn/276731?affiliate=1131&utm_source=foursquare-affiliate-network&utm_medium=affiliate&utm_campaign=1131&utm_content=276731", "provider": {"name": "seamless", "icon": {"prefix": "https://fastly.4sqi.net/img/general/cap/", "sizes": [40, 50], "name": "/delivery_provider_seamless_20180129.png"}}}, "photos": {"count": 0, "groups": []}, "venuePage": {"id": "79428851"}}, "referralId": "e-0-51a5445c498ee0f182370cb2-83"}, {"reasons": {"count": 0, "items": [{"summary": "This spot is popular", "type": "general", "reasonName": "globalInteractionReason"}]}, "venue": {"id": "4bf2916ca32e20a19756d557", "name": "Enterprise Rent-A-Car", "location": {"address": "266 McGuinness Blvd", "lat": 40.731486732580755, "lng": -73.95133535564355, "labeledLatLngs": [{"label": "display", "lat": 40.731486732580755, "lng": -73.95133535564355}, {"label": "entrance", "lat": 40.731478, "lng": -73.951376}], "distance": 283, "postalCode": "11222", "cc": "US", "city": "Brooklyn", "state": "NY", "country": "United States", "formattedAddress": ["266 McGuinness Blvd", "Brooklyn, NY 11222", "United States"]}, "categories": [{"id": "4bf58dd8d48988d1ef941735", "name": "Rental Car Location", "pluralName": "Rental Car Locations", "shortName": "Rental Car", "icon": {"prefix": "https://ss3.4sqi.net/img/categories_v2/shops/airport_rentalcar_", "suffix": ".png"}, "primary": true}], "photos": {"count": 0, "groups": []}}, "referralId": "e-0-4bf2916ca32e20a19756d557-84"}, {"reasons": {"count": 0, "items": [{"summary": "This spot is popular", "type": "general", "reasonName": "globalInteractionReason"}]}, "venue": {"id": "4aba7062f964a5204e8120e3", "name": "Triangolo Pizzeria", "location": {"address": "1017 Manhattan Ave", "crossStreet": "btwn Huron St & Green St", "lat": 40.7336509812184, "lng": -73.95482948305418, "labeledLatLngs": [{"label": "display", "lat": 40.7336509812184, "lng": -73.95482948305418}, {"label": "entrance", "lat": 40.733614, "lng": -73.954965}], "distance": 387, "postalCode": "11222", "cc": "US", "city": "Brooklyn", "state": "NY", "country": "United States", "formattedAddress": ["1017 Manhattan Ave (btwn Huron St & Green St)", "Brooklyn, NY 11222", "United States"]}, "categories": [{"id": "4bf58dd8d48988d1ca941735", "name": "Pizza Place", "pluralName": "Pizza Places", "shortName": "Pizza", "icon": {"prefix": "https://ss3.4sqi.net/img/categories_v2/food/pizza_", "suffix": ".png"}, "primary": true}], "photos": {"count": 0, "groups": []}}, "referralId": "e-0-4aba7062f964a5204e8120e3-85"}, {"reasons": {"count": 0, "items": [{"summary": "This spot is popular", "type": "general", "reasonName": "globalInteractionReason"}]}, "venue": {"id": "5a98492083e3807c830d584e", "name": "KanaHashi", "location": {"address": "981 Manhattan Ave", "lat": 40.73261526084619, "lng": -73.95467545941128, "labeledLatLngs": [{"label": "display", "lat": 40.73261526084619, "lng": -73.95467545941128}], "distance": 271, "postalCode": "11222", "cc": "US", "city": "New York", "state": "NY", "country": "United States", "formattedAddress": ["981 Manhattan Ave", "New York, NY 11222", "United States"]}, "categories": [{"id": "4bf58dd8d48988d1d2941735", "name": "Sushi Restaurant", "pluralName": "Sushi Restaurants", "shortName": "Sushi", "icon": {"prefix": "https://ss3.4sqi.net/img/categories_v2/food/sushi_", "suffix": ".png"}, "primary": true}], "delivery": {"id": "726121", "url": "https://www.seamless.com/menu/kanahashi-981-manhattan-ave-brooklyn/726121?affiliate=1131&utm_source=foursquare-affiliate-network&utm_medium=affiliate&utm_campaign=1131&utm_content=726121", "provider": {"name": "seamless", "icon": {"prefix": "https://fastly.4sqi.net/img/general/cap/", "sizes": [40, 50], "name": "/delivery_provider_seamless_20180129.png"}}}, "photos": {"count": 0, "groups": []}, "venuePage": {"id": "487788252"}}, "referralId": "e-0-5a98492083e3807c830d584e-86"}, {"reasons": {"count": 0, "items": [{"summary": "This spot is popular", "type": "general", "reasonName": "globalInteractionReason"}]}, "venue": {"id": "4be9d4284f5576b08311b396", "name": "Vamos Al Tequila", "location": {"address": "162 Franklin St", "crossStreet": "btwn Kent & Greenpoint", "lat": 40.730715435561976, "lng": -73.95771406506972, "labeledLatLngs": [{"label": "display", "lat": 40.730715435561976, "lng": -73.95771406506972}], "distance": 298, "postalCode": "11222", "cc": "US", "city": "Brooklyn", "state": "NY", "country": "United States", "formattedAddress": ["162 Franklin St (btwn Kent & Greenpoint)", "Brooklyn, NY 11222", "United States"]}, "categories": [{"id": "4bf58dd8d48988d1c1941735", "name": "Mexican Restaurant", "pluralName": "Mexican Restaurants", "shortName": "Mexican", "icon": {"prefix": "https://ss3.4sqi.net/img/categories_v2/food/mexican_", "suffix": ".png"}, "primary": true}], "photos": {"count": 0, "groups": []}}, "referralId": "e-0-4be9d4284f5576b08311b396-87"}, {"reasons": {"count": 0, "items": [{"summary": "This spot is popular", "type": "general", "reasonName": "globalInteractionReason"}]}, "venue": {"id": "4b8576e0f964a520a45f31e3", "name": "Hair Greenpoint", "location": {"address": "1008 Manhattan Ave", "crossStreet": "Btwn Huron and Green Street", "lat": 40.733426001757735, "lng": -73.95479214014925, "labeledLatLngs": [{"label": "display", "lat": 40.733426001757735, "lng": -73.95479214014925}, {"label": "entrance", "lat": 40.733433, "lng": -73.954647}], "distance": 362, "postalCode": "11222", "cc": "US", "city": "Brooklyn", "state": "NY", "country": "United States", "formattedAddress": ["1008 Manhattan Ave (Btwn Huron and Green Street)", "Brooklyn, NY 11222", "United States"]}, "categories": [{"id": "4bf58dd8d48988d110951735", "name": "Salon / Barbershop", "pluralName": "Salons / Barbershops", "shortName": "Salon / Barbershop", "icon": {"prefix": "https://ss3.4sqi.net/img/categories_v2/shops/salon_barber_", "suffix": ".png"}, "primary": true}], "photos": {"count": 0, "groups": []}, "venuePage": {"id": "90533243"}}, "referralId": "e-0-4b8576e0f964a520a45f31e3-88"}, {"reasons": {"count": 0, "items": [{"summary": "This spot is popular", "type": "general", "reasonName": "globalInteractionReason"}]},