[{"reasons": {"count": 0, "items": [{"summary": "This spot is popular", "type": "general", "reasonName": "globalInteractionReason"}]}, "venue": {"id": "4b154febf964a5207caf23e3", "name": "Carnesecca Arena", "location": {"address": "St. John's University", "lat": 40.72402914913341, "lng": -73.79445765744263, "labeledLatLngs": [{"label": "display", "lat": 40.72402914913341, "lng": -73.79445765744263}], "distance": 266, "postalCode": "11439", "cc": "US", "neighborhood": "Northeastern Queens", "city": "Queens", "state": "NY", "country": "United States", "formattedAddress": ["St. John's University", "Queens, NY 11439", "United States"]}, "categories": [{"id": "4bf58dd8d48988d1ba941735", "name": "College Basketball Court", "pluralName": "College Basketball Courts", "shortName": "Basketball", "icon": {"prefix": "https://ss3.4sqi.net/img/categories_v2/arts_entertainment/stadium_basketball_", "suffix": ".png"}, "primary": true}], "photos": {"count": 0, "groups": []}}, "referralId": "e-0-4b154febf964a5207caf23e3-0"}, {"reasons": {"count": 0, "items": [{"summary": "This spot is popular", "type": "general", "reasonName": "globalInteractionReason"}]}, "venue": {"id": "4ba6c2c2f964a520ee6d39e3", "name": "D'Angelo Center", "location": {"address": "St. John's University", "lat": 40.72271712769394, "lng": -73.79604941751279, "labeledLatLngs": [{"label": "display", "lat": 40.72271712769394, "lng": -73.79604941751279}], "distance": 179, "postalCode": "11439", "cc": "US", "city": "Queens", "state": "NY", "country": "United States", "formattedAddress": ["St. John's University", "Queens, NY 11439", "United States"]}, "categories": [{"id": "4bf58dd8d48988d198941735", "name": "College Academic Building", "pluralName": "College Academic Buildings", "shortName": "Academic Building", "icon": {"prefix": "https://ss3.4sqi.net/img/categories_v2/education/academicbuilding_", "suffix": ".png"}, "primary": true}], "photos": {"count": 0, "groups": []}}, "referralId": "e-0-4ba6c2c2f964a520ee6d39e3-1"}, {"reasons": {"count": 0, "items": [{"summary": "This spot is popular", "type": "general", "reasonName": "globalInteractionReason"}]}, "venue": {"id": "57d57eb9498e432cab4b3ea2", "name": "Wo Kee Noodle", "location": {"address": "168-12 Union Turnpike", "crossStreet": "168 Street", "lat": 40.72304496588971, "lng": -73.79978649886627, "labeledLatLngs": [{"label": "display", "lat": 40.72304496588971, "lng": -73.79978649886627}], "distance": 203, "postalCode": "11432", "cc": "US", "city": "Jamaica", "state": "NY", "country": "United States", "formattedAddress": ["168-12 Union Turnpike (168 Street)", "Jamaica, NY 11432", "United States"]}, "categories": [{"id": "4bf58dd8d48988d1f5931735", "name": "Dim Sum Restaurant", "pluralName": "Dim Sum Restaurants", "shortName": "Dim Sum", "icon": {"prefix": "https://ss3.4sqi.net/img/categories_v2/food/dimsum_", "suffix": ".png"}, "primary": true}], "photos": {"count": 0, "groups": []}}, "referralId": "e-0-57d57eb9498e432cab4b3ea2-2"}, {"reasons": {"count": 0, "items": [{"summary": "This spot is popular", "type": "general", "reasonName": "globalInteractionReason"}]}, "venue": {"id": "4f997b4bd4f21823bb1f4dcf", "name": "Baskin-Robbins", "location": {"address": "16822 Union Tpke", "lat": 40.722978909580966, "lng": -73.7994614428566, "labeledLatLngs": [{"label": "display", "lat": 40.722978909580966, "lng": -73.7994614428566}], "distance": 182, "postalCode": "11366", "cc": "US", "city": "Flushing", "state": "NY", "country": "United States", "formattedAddress": ["16822 Union Tpke", "Flushing, NY 11366", "United States"]}, "categories": [{"id": "4bf58dd8d48988d1c9941735", "name": "Ice Cream Shop", "pluralName": "Ice Cream Shops", "shortName": "Ice Cream", "icon": {"prefix": "https://ss3.4sqi.net/img/categories_v2/food/icecream_", "suffix": ".png"}, "primary": true}], "photos": {"count": 0, "groups": []}}, "referralId": "e-0-4f997b4bd4f21823bb1f4dcf-3"}, {"reasons": {"count": 0, "items": [{"summary": "This spot is popular", "type": "general", "reasonName": "globalInteractionReason"}]}, "venue": {"id": "575ef973498e47359524d3df", "name": "AT&T Store", "location": {"address": "16713 Union Tpke", "lat": 40.7229914, "lng": -73.8006786, "labeledLatLngs": [{"label": "display", "lat": 40.7229914, "lng": -73.8006786}], "distance": 275, "postalCode": "11366", "cc": "US", "city": "Fresh Meadows", "state": "NY", "country": "United States", "formattedAddress": ["16713 Union Tpke", "Fresh Meadows, NY 11366", "United States"]}, "categories": [{"id": "4f04afc02fb6e1c99f3db0bc", "name": "Mobile Phone Shop", "pluralName": "Mobile Phone Shops", "shortName": "Mobile Phones", "icon": {"prefix": "https://ss3.4sqi.net/img/categories_v2/shops/mobilephoneshop_", "suffix": ".png"}, "primary": true}], "photos": {"count": 0, "groups": []}}, "referralId": "e-0-575ef973498e47359524d3df-4"}, {"reasons": {"count": 0, "items": [{"summary": "This spot is popular", "type": "general", "reasonName": "globalInteractionReason"}]}, "venue": {"id": "500eeb076de406feaec6a1a9", "name": "7-Eleven", "location": {"address": "168-01 Union Tpke", "lat": 40.7232238499731, "lng": -73.8000744581222, "labeledLatLngs": [{"label": "display", "lat": 40.7232238499731, "lng": -73.8000744581222}], "distance": 218, "postalCode": "11366", "cc": "US", "neighborhood": "Northeastern Queens", "city": "Flushing", "state": "NY", "country": "United States", "formattedAddress": ["168-01 Union Tpke", "Flushing, NY 11366", "United States"]}, "categories": [{"id": "4d954b0ea243a5684a65b473", "name": "Convenience Store", "pluralName": "Convenience Stores", "shortName": "Convenience Store", "icon": {"prefix": "https://ss3.4sqi.net/img/categories_v2/shops/conveniencestore_", "suffix": ".png"}, "primary": true}], "photos": {"count": 0, "groups": []}}, "referralId": "e-0-500eeb076de406feaec6a1a9-5"}, {"reasons": {"count": 0, "items": [{"summary": "This spot is popular", "type": "general", "reasonName": "globalInteractionReason"}]}, "venue": {"id": "4c4cb44a4237be9a9f9dc912", "name": "Dunkin'", "location": {"address": "16822 Union Tpke", "lat": 40.72296235251937, "lng": -73.79946305398465, "labeledLatLngs": [{"label": "display", "lat": 40.72296235251937, "lng": -73.79946305398465}], "distance": 183, "postalCode": "11366", "cc": "US", "neighborhood": "Northeastern Queens", "city": "Flushing", "state": "NY", "country": "United States", "formattedAddress": ["16822 Union Tpke", "Flushing, NY 11366", "United States"]}, "categories": [{"id": "4bf58dd8d48988d148941735", "name": "Donut Shop", "pluralName": "Donut Shops", "shortName": "Donuts", "icon": {"prefix": "https://ss3.4sqi.net/img/categories_v2/food/donuts_", "suffix": ".png"}, "primary": true}], "photos": {"count": 0, "groups": []}}, "referralId": "e-0-4c4cb44a4237be9a9f9dc912-6"}, {"reasons": {"count": 0, "items": [{"summary": "This spot is popular", "type": "general", "reasonName": "globalInteractionReason"}]}, "venue": {"id": "4fc94580d4f24895b4467dc0", "name": "Starbucks", "location": {"address": "D'Angelo Center", "crossStreet": "at St. John's University", "lat": 40.72278120784277, "lng": -73.79607982554525, "labeledLatLngs": [{"label": "display", "lat": 40.72278120784277, "lng": -73.79607982554525}], "distance": 173, "postalCode": "11439", "cc": "US", "neighborhood": "Northeastern Queens, Queens, NY", "city": "Queens", "state": "NY", "country": "United States", "formattedAddress": ["D'Angelo Center (at St. John's University)", "Queens, NY 11439", "United States"]}, "categories": [{"id": "4bf58dd8d48988d1e0931735", "name": "Coffee Shop", "pluralName": "Coffee Shops", "shortName": "Coffee Shop", "icon": {"prefix": "https://ss3.4sqi.net/img/categories_v2/food/coffeeshop_", "suffix": ".png"}, "primary": true}], "photos": {"count": 0, "groups": []}}, "referralId": "e-0-4fc94580d4f24895b4467dc0-7"}, {"reasons": {"count": 0, "items": [{"summary": "This spot is popular", "type": "general", "reasonName": "globalInteractionReason"}]}, "venue": {"id": "4be30387cbdbef3b5b8460d8", "name": "The UPS Store", "location": {"address": "176-25 Union Tpke", "lat": 40.7257413, "lng": -73.7924724, "labeledLatLngs": [{"label": "display", "lat": 40.7257413, "lng": -73.7924724}], "distance": 482, "postalCode": "11366", "cc": "US", "city": "Fresh Meadows", "state": "NY", "country": "United States", "formattedAddress": ["176-25 Union Tpke", "Fresh Meadows, NY 11366", "United States"]}, "categories": [{"id": "52f2ab2ebcbc57f1066b8b1f", "name": "Shipping Store", "pluralName": "Shipping Stores", "shortName": "Shipping Store", "icon": {"prefix": "https://ss3.4sqi.net/img/categories_v2/shops/default_", "suffix": ".png"}, "primary": true}], "photos": {"count": 0, "groups": []}}, "referralId": "e-0-4be30387cbdbef3b5b8460d8-8"}, {"reasons": {"count": 0, "items": [{"summary": "This spot is popular", "type": "general", "reasonName": "globalInteractionReason"}]}, "venue": {"id": "5256bb9711d2fa261c9b8ccd", "name": "Dunkin'", "location": {"address": "8000 Utopia Pkwy", "crossStreet": "St. John's University", "lat": 40.723095342315084, "lng": -73.79490708512525, "labeledLatLngs": [{"label": "display", "lat": 40.723095342315084, "lng": -73.79490708512525}], "distance": 241, "postalCode": "11439", "cc": "US", "city": "Jamaica", "state": "NY", "country": "United States", "formattedAddress": ["8000 Utopia Pkwy (St. John's University)", "Jamaica, NY 11439", "United States"]}, "categories": [{"id": "4bf58dd8d48988d148941735", "name": "Donut Shop", "pluralName": "Donut Shops", "shortName": "Donuts", "icon": {"prefix": "https://ss3.4sqi.net/img/categories_v2/food/donuts_", "suffix": ".png"}, "primary": true}], "photos": {"count": 0, "groups": []}}, "referralId": "e-0-5256bb9711d2fa261c9b8ccd-9"}, {"reasons": {"count": 0, "items": [{"summary": "This spot is popular", "type": "general", "reasonName": "globalInteractionReason"}]}, "venue": {"id": "4b97d19bf964a520ab1735e3", "name": "Chang Xin Foods Market Inc.", "location": {"address": "167-23 Union Tpke", "crossStreet": "at 168th St", "lat": 40.72305611428239, "lng": -73.80054975366757, "labeledLatLngs": [{"label": "display", "lat": 40.72305611428239, "lng": -73.80054975366757}], "distance": 262, "postalCode": "11366", "cc": "US", "city": "Flushing", "state": "NY", "country": "United States", "formattedAddress": ["167-23 Union Tpke (at 168th St)", "Flushing, NY 11366", "United States"]}, "categories": [{"id": "4bf58dd8d48988d118951735", "name": "Grocery Store", "pluralName": "Grocery Stores", "shortName": "Grocery Store", "icon": {"prefix": "https://ss3.4sqi.net/img/categories_v2/shops/food_grocery_", "suffix": ".png"}, "primary": true}], "photos": {"count": 0, "groups": []}}, "referralId": "e-0-4b97d19bf964a520ab1735e3-10"}, {"reasons": {"count": 0, "items": [{"summary": "This spot is popular", "type": "general", "reasonName": "globalInteractionReason"}]}, "venue": {"id": "4e6e482b6365c1843ae5b0d3", "name": "D'Angelo Center Food Court", "location": {"address": "St. John's University", "crossStreet": "8000 Utopia Parkway", "lat": 40.72235783116957, "lng": -73.79655549273419, "labeledLatLngs": [{"label": "display", "lat": 40.72235783116957, "lng": -73.79655549273419}], "distance": 185, "postalCode": "11439", "cc": "US", "city": "Queens", "state": "NY", "country": "United States", "formattedAddress": ["St. John's University (8000 Utopia Parkway)", "Queens, NY 11439", "United States"]}, "categories": [{"id": "4bf58dd8d48988d120951735", "name": "Food Court", "pluralName": "Food Courts", "shortName": "Food Court", "icon": {"prefix": "https://ss3.4sqi.net/img/categories_v2/shops/food_foodcourt_", "suffix": ".png"}, "primary": true}], "photos": {"count": 0, "groups": []}}, "referralId": "e-0-4e6e482b6365c1843ae5b0d3-11"}, {"reasons": {"count": 0, "items": [{"summary": "This spot is popular", "type": "general", "reasonName": "globalInteractionReason"}]}, "venue": {"id": "56786b4d498e9f35c37a25d5", "name": "Golden Island Supermarket", "location": {"address": "176-19 Union Tpke", "lat": 40.72568275868446, "lng": -73.79280353360845, "labeledLatLngs": [{"label": "display", "lat": 40.72568275868446, "lng": -73.79280353360845}], "distance": 454, "postalCode": "11366", "cc": "US", "city": "Fresh Meadows", "state": "NY", "country": "United States", "formattedAddress": ["176-19 Union Tpke", "Fresh Meadows, NY 11366", "United States"]}, "categories": [{"id": "50be8ee891d4fa8dcc7199a7", "name": "Market", "pluralName": "Markets", "shortName": "Market", "icon": {"prefix": "https://ss3.4sqi.net/img/categories_v2/shops/market_", "suffix": ".png"}, "primary": true}], "photos": {"count": 0, "groups": []}}, "referralId": "e-0-56786b4d498e9f35c37a25d5-12"}, {"reasons": {"count": 0, "items": [{"summary": "This spot is popular", "type": "general", "reasonName": "globalInteractionReason"}]}, "venue": {"id": "4bcb1e66cc8cd13a38afbecf", "name": "Burger King", "location": {"address": "101 Murray St", "lat": 40.72296780336042, "lng": -73.79497768220904, "labeledLatLngs": [{"label": "display", "lat": 40.72296780336042, "lng": -73.79497768220904}], "distance": 241, "postalCode": "11439", "cc": "US", "city": "Jamaica", "state": "NY", "country": "United States", "formattedAddress": ["101 Murray St", "Jamaica, NY 11439", "United States"]}, "categories": [{"id": "4bf58dd8d48988d16e941735", "name": "Fast Food Restaurant", "pluralName": "Fast Food Restaurants", "shortName": "Fast Food", "icon": {"prefix": "https://ss3.4sqi.net/img/categories_v2/food/fastfood_", "suffix": ".png"}, "primary": true}], "photos": {"count": 0, "groups": []}}, "referralId": "e-0-4bcb1e66cc8cd13a38afbecf-13"}, {"reasons": {"count": 0, "items": [{"summary": "This spot is popular", "type": "general", "reasonName": "globalInteractionReason"}]}, "venue": {"id": "4e4dc094bd41b76bef9292dd", "name": "Dante Restaurant", "location": {"address": "168-12 Union Tpke", "lat": 40.72306991640908, "lng": -73.79976608299833, "labeledLatLngs": [{"label": "display", "lat": 40.72306991640908, "lng": -73.79976608299833}], "distance": 200, "postalCode": "11366", "cc": "US", "city": "Flushing", "state": "NY", "country": "United States", "formattedAddress": ["168-12 Union Tpke", "Flushing, NY 11366", "United States"]}, "categories": [{"id": "4bf58dd8d48988d110941735", "name": "Italian Restaurant", "pluralName": "Italian Restaurants", "shortName": "Italian", "icon": {"prefix": "https://ss3.4sqi.net/img/categories_v2/food/italian_", "suffix": ".png"}, "primary": true}], "photos": {"count": 0, "groups": []}}, "referralId": "e-0-4e4dc094bd41b76bef9292dd-14"}, {"reasons": {"count": 0, "items": [{"summary": "This spot is popular", "type": "general", "reasonName": "globalInteractionReason"}]}, "venue": {"id": "4babac88f964a52027bf3ae3", "name": "DaSilva Memorial Field", "location": {"address": "St. John's University", "lat": 40.72303021126645, "lng": -73.7961010400101, "labeledLatLngs": [{"label": "display", "lat": 40.72303021126645, "lng": -73.7961010400101}], "distance": 154, "postalCode": "11439", "cc": "US", "city": "Queens", "state": "NY", "country": "United States", "formattedAddress": ["St. John's University", "Queens, NY 11439", "United States"]}, "categories": [{"id": "4bf58dd8d48988d1b4941735", "name": "College Stadium", "pluralName": "College Stadiums", "shortName": "Stadium", "icon": {"prefix": "https://ss3.4sqi.net/img/categories_v2/arts_entertainment/stadium_", "suffix": ".png"}, "primary": true}], "photos": {"count": 0, "groups": []}}, "referralId": "e-0-4babac88f964a52027bf3ae3-15"}, {"reasons": {"count": 0, "items": [{"summary": "This spot is popular", "type": "general", "reasonName": "globalInteractionReason"}]}, "venue": {"id": "4e6e4b77aeb7ba66da039e00", "name": "Marillac Terrace", "location": {"address": "8000 Utopia Pkwy", "lat": 40.72300795989303, "lng": -73.79479872154286, "labeledLatLngs": [{"label": "display", "lat": 40.72300795989303, "lng": -73.79479872154286}], "distance": 253, "postalCode": "11439", "cc": "US", "city": "Jamaica", "state": "NY", "country": "United States", "formattedAddress": ["8000 Utopia Pkwy", "Jamaica, NY 11439", "United States"]}, "categories": [{"id": "4d4b7105d754a06374d81259", "name": "Food", "pluralName": "Food", "shortName": "Food", "icon": {"prefix": "https://ss3.4sqi.net/img/categories_v2/food/default_", "suffix": ".png"}, "primary": true}], "photos": {"count": 0, "groups": []}}, "referralId": "e-0-4e6e4b77aeb7ba66da039e00-16"}, {"reasons": {"count": 0, "items": [{"summary": "This spot is popular", "type": "general", "reasonName": "globalInteractionReason"}]}, "venue": {"id": "4cc1afea1da0a1cd6eae9bc6", "name": "Marillac Cafeteria", "location": {"address": "8000 Utopia Pkwy", "crossStreet": "at St. Johns University", "lat": 40.72305124631918, "lng": -73.79477250817799, "labeledLatLngs": [{"label": "display", "lat": 40.72305124631918, "lng": -73.79477250817799}], "distance": 253, "postalCode": "11439", "cc": "US", "city": "Jamaica", "state": "NY", "country": "United States", "formattedAddress": ["8000 Utopia Pkwy (at St. Johns University)", "Jamaica, NY 11439", "United States"]}, "categories": [{"id": "4bf58dd8d48988d1a1941735", "name": "College Cafeteria", "pluralName": "College Cafeterias", "shortName": "Cafeteria", "icon": {"prefix": "https://ss3.4sqi.net/img/categories_v2/education/cafeteria_", "suffix": ".png"}, "primary": true}], "photos": {"count": 0, "groups": []}}, "referralId": "e-0-4cc1afea1da0a1cd6eae9bc6-17"}, {"reasons": {"count": 0, "items": [{"summary": "This spot is popular", "type": "general", "reasonName": "globalInteractionReason"}]}, "venue": {"id": "4cf70c1a1cfea093f326e339", "name": "Vincenzo's pizza", "location": {"address": "16819 Union Tpke", "crossStreet": "at 168th St", "lat": 40.723290726588445, "lng": -73.79961171812727, "labeledLatLngs": [{"label": "display", "lat": 40.723290726588445, "lng": -73.79961171812727}], "distance": 179, "postalCode": "11366", "cc": "US", "city": "Fresh Meadows", "state": "NY", "country": "United States", "formattedAddress": ["16819 Union Tpke (at 168th St)", "Fresh Meadows, NY 11366", "United States"]}, "categories": [{"id": "4bf58dd8d48988d1ca941735", "name": "Pizza Place", "pluralName": "Pizza Places", "shortName": "Pizza", "icon": {"prefix": "https://ss3.4sqi.net/img/categories_v2/food/pizza_", "suffix": ".png"}, "primary": true}], "delivery": {"id": "1097295", "url": "https://www.seamless.com/menu/vincenzos-pizzeria--restaurant-16819-union-tpke-flushing/1097295?affiliate=1131&utm_source=foursquare-affiliate-network&utm_medium=affiliate&utm_campaign=1131&utm_content=1097295", "provider": {"name": "seamless", "icon": {"prefix": "https://fastly.4sqi.net/img/general/cap/", "sizes": [40, 50], "name": "/delivery_provider_seamless_20180129.png"}}}, "photos": {"count": 0, "groups": []}}, "referralId": "e-0-4cf70c1a1cfea093f326e339-18"}, {"reasons": {"count": 0, "items": [{"summary": "This spot is popular", "type": "general", "reasonName": "globalInteractionReason"}]}, "venue": {"id": "525da2ff498e090e4a0bca2d", "name": "Farmers Fresh Depot", "location": {"address": "176-19 Union Tpke", "crossStreet": "btwn Utopia Pkwy & 176th St", "lat": 40.725595454536275, "lng": -73.79298742382706, "labeledLatLngs": [{"label": "display", "lat": 40.725595454536275, "lng": -73.79298742382706}], "distance": 436, "postalCode": "11366", "cc": "US", "city": "Fresh Meadows", "state": "NY", "country": "United States", "formattedAddress": ["176-19 Union Tpke (btwn Utopia Pkwy & 176th St)", "Fresh Meadows, NY 11366", "United States"]}, "categories": [{"id": "4bf58dd8d48988d118951735", "name": "Grocery Store", "pluralName": "Grocery Stores", "shortName": "Grocery Store", "icon": {"prefix": "https://ss3.4sqi.net/img/categories_v2/shops/food_grocery_", "suffix": ".png"}, "primary": true}], "photos": {"count": 0, "groups": []}}, "referralId": "e-0-525da2ff498e090e4a0bca2d-19"}, {"reasons": {"count": 0, "items": [{"summary": "This spot is popular", "type": "general", "reasonName": "globalInteractionReason"}]}, "venue": {"id": "4f804fc3e4b0acccb7e045d6", "name": "ADGreek", "location": {"lat": 40.72575781384155, "lng": -73.79227507675047, "labeledLatLngs": [{"label": "display", "lat": 40.72575781384155, "lng": -73.79227507675047}], "distance": 498, "postalCode": "11366", "cc": "US", "city": "Fresh Meadows", "state": "NY", "country": "United States", "formattedAddress": ["Fresh Meadows, NY 11366", "United States"]}, "categories": [{"id": "4bf58dd8d48988d103951735", "name": "Clothing Store", "pluralName": "Clothing Stores", "shortName": "Apparel", "icon": {"prefix": "https://ss3.4sqi.net/img/categories_v2/shops/apparel_", "suffix": ".png"}, "primary": true}], "photos": {"count": 0, "groups": []}}, "referralId": "e-0-4f804fc3e4b0acccb7e045d6-20"}]