[{"reasons": {"count": 0, "items": [{"summary": "This spot is popular", "type": "general", "reasonName": "globalInteractionReason"}]}, "venue": {"id": "5d83b397b89d6a000864c0d7", "name": "Bob Ben", "location": {"address": "84-33 Wareham Pl", "lat": 40.717436314618254, "lng": -73.78615379333496, "labeledLatLngs": [{"label": "display", "lat": 40.717436314618254, "lng": -73.78615379333496}], "distance": 114, "postalCode": "11432", "cc": "US", "city": "Jamaica", "state": "NY", "country": "United States", "formattedAddress": ["84-33 Wareham Pl", "Jamaica, NY 11432", "United States"]}, "categories": [{"id": "4bf58dd8d48988d116951735", "name": "Antique Shop", "pluralName": "Antique Shops", "shortName": "Antiques", "icon": {"prefix": "https://ss3.4sqi.net/img/categories_v2/shops/antique_", "suffix": ".png"}, "primary": true}], "photos": {"count": 0, "groups": []}}, "referralId": "e-0-5d83b397b89d6a000864c0d7-0"}, {"reasons": {"count": 0, "items": [{"summary": "This spot is popular", "type": "general", "reasonName": "globalInteractionReason"}]}, "venue": {"id": "58100b3038faeb22662c8038", "name": "Grand Central Parkway at Exit 18", "location": {"address": "Grand Central Pkwy", "crossStreet": "at Utopia Pkwy", "lat": 40.71920377570646, "lng": -73.79075489803017, "labeledLatLngs": [{"label": "display", "lat": 40.71920377570646, "lng": -73.79075489803017}], "distance": 399, "postalCode": "11432", "cc": "US", "city": "Jamaica Hills", "state": "NY", "country": "United States", "formattedAddress": ["Grand Central Pkwy (at Utopia Pkwy)", "Jamaica Hills, NY 11432", "United States"]}, "categories": [{"id": "52f2ab2ebcbc57f1066b8b4c", "name": "Intersection", "pluralName": "Intersections", "shortName": "Intersection", "icon": {"prefix": "https://ss3.4sqi.net/img/categories_v2/travel/default_", "suffix": ".png"}, "primary": true}], "photos": {"count": 0, "groups": []}}, "referralId": "e-0-58100b3038faeb22662c8038-1"}, {"reasons": {"count": 0, "items": [{"summary": "This spot is popular", "type": "general", "reasonName": "globalInteractionReason"}]}, "venue": {"id": "4d87dca226a36ea8519dc1ad", "name": "Q30/Q31 bus stop", "location": {"address": "Utopia parkway and Kildare Rd", "lat": 40.71953954463752, "lng": -73.79073547920552, "labeledLatLngs": [{"label": "display", "lat": 40.71953954463752, "lng": -73.79073547920552}], "distance": 424, "cc": "US", "city": "New York", "state": "NY", "country": "United States", "formattedAddress": ["Utopia parkway and Kildare Rd", "New York, NY", "United States"]}, "categories": [{"id": "4bf58dd8d48988d1fe931735", "name": "Bus Station", "pluralName": "Bus Stations", "shortName": "Bus Station", "icon": {"prefix": "https://ss3.4sqi.net/img/categories_v2/travel/busstation_", "suffix": ".png"}, "primary": true}], "photos": {"count": 0, "groups": []}}, "referralId": "e-0-4d87dca226a36ea8519dc1ad-2"}, {"reasons": {"count": 0, "items": [{"summary": "This spot is popular", "type": "general", "reasonName": "globalInteractionReason"}]}, "venue": {"id": "537c23f8498e3ec735a28ab5", "name": "Dhaka Hajir Biryani", "location": {"address": "169th Street", "crossStreet": "Home lawn", "lat": 40.72098922729492, "lng": -73.78678131103516, "labeledLatLngs": [{"label": "display", "lat": 40.72098922729492, "lng": -73.78678131103516}], "distance": 467, "postalCode": "11432", "cc": "US", "city": "Jamaica", "state": "NY", "country": "United States", "formattedAddress": ["169th Street (Home lawn)", "Jamaica, NY 11432", "United States"]}, "categories": [{"id": "4bf58dd8d48988d10f941735", "name": "Indian Restaurant", "pluralName": "Indian Restaurants", "shortName": "Indian", "icon": {"prefix": "https://ss3.4sqi.net/img/categories_v2/food/indian_", "suffix": ".png"}, "primary": true}], "photos": {"count": 0, "groups": []}}, "referralId": "e-0-537c23f8498e3ec735a28ab5-3"}, {"reasons": {"count": 0, "items": [{"summary": "This spot is popular", "type": "general", "reasonName": "globalInteractionReason"}]}, "venue": {"id": "595709a565211f66debe7512", "name": "The House of Shibas", "location": {"address": "172-21 83rd Avenue", "lat": 40.718127, "lng": -73.792829, "labeledLatLngs": [{"label": "display", "lat": 40.718127, "lng": -73.792829}], "distance": 495, "postalCode": "11432", "cc": "US", "city": "Jamaica Hills", "state": "NY", "country": "United States", "formattedAddress": ["172-21 83rd Avenue", "Jamaica Hills, NY 11432", "United States"]}, "categories": [{"id": "4bf58dd8d48988d121941735", "name": "Lounge", "pluralName": "Lounges", "shortName": "Lounge", "icon": {"prefix": "https://ss3.4sqi.net/img/categories_v2/nightlife/default_", "suffix": ".png"}, "primary": true}], "photos": {"count": 0, "groups": []}}, "referralId": "e-0-595709a565211f66debe7512-4"}]