[{"reasons": {"count": 0, "items": [{"summary": "This spot is popular", "type": "general", "reasonName": "globalInteractionReason"}]}, "venue": {"id": "4b93fe04f964a520a75f34e3", "name": "Benjy's Kosher Pizza & Falafel", "location": {"address": "72-72 Main St", "crossStreet": "btwn 73rd Ave and 72nd Dr", "lat": 40.72477036009629, "lng": -73.82109149359167, "labeledLatLngs": [{"label": "display", "lat": 40.72477036009629, "lng": -73.82109149359167}], "distance": 244, "postalCode": "11367", "cc": "US", "city": "Kew Gardens Hills", "state": "NY", "country": "United States", "formattedAddress": ["72-72 Main St (btwn 73rd Ave and 72nd Dr)", "Kew Gardens Hills, NY 11367", "United States"]}, "categories": [{"id": "4bf58dd8d48988d1ca941735", "name": "Pizza Place", "pluralName": "Pizza Places", "shortName": "Pizza", "icon": {"prefix": "https://ss3.4sqi.net/img/categories_v2/food/pizza_", "suffix": ".png"}, "primary": true}], "photos": {"count": 0, "groups": []}}, "referralId": "e-0-4b93fe04f964a520a75f34e3-0"}, {"reasons": {"count": 0, "items": [{"summary": "This spot is popular", "type": "general", "reasonName": "globalInteractionReason"}]}, "venue": {"id": "4c9785b2f7cfa1cdf81dcf15", "name": "Capital One Bank", "location": {"address": "75-21 Main St", "lat": 40.72355112443508, "lng": -73.81983697414398, "labeledLatLngs": [{"label": "display", "lat": 40.72355112443508, "lng": -73.81983697414398}], "distance": 139, "postalCode": "11367", "cc": "US", "city": "Kew Gardens Hills", "state": "NY", "country": "United States", "formattedAddress": ["75-21 Main St", "Kew Gardens Hills, NY 11367", "United States"]}, "categories": [{"id": "4bf58dd8d48988d10a951735", "name": "Bank", "pluralName": "Banks", "shortName": "Bank", "icon": {"prefix": "https://ss3.4sqi.net/img/categories_v2/shops/financial_", "suffix": ".png"}, "primary": true}], "photos": {"count": 0, "groups": []}}, "referralId": "e-0-4c9785b2f7cfa1cdf81dcf15-1"}, {"reasons": {"count": 0, "items": [{"summary": "This spot is popular", "type": "general", "reasonName": "globalInteractionReason"}]}, "venue": {"id": "51094689e4b08ba572d6305b", "name": "TD Bank", "location": {"address": "76-02 Main St", "crossStreet": "76th Ave.", "lat": 40.7224681, "lng": -73.8198214, "labeledLatLngs": [{"label": "display", "lat": 40.7224681, "lng": -73.8198214}], "distance": 89, "postalCode": "11367", "cc": "US", "city": "Kew Gardens Hills", "state": "NY", "country": "United States", "formattedAddress": ["76-02 Main St (76th Ave.)", "Kew Gardens Hills, NY 11367", "United States"]}, "categories": [{"id": "4bf58dd8d48988d10a951735", "name": "Bank", "pluralName": "Banks", "shortName": "Bank", "icon": {"prefix": "https://ss3.4sqi.net/img/categories_v2/shops/financial_", "suffix": ".png"}, "primary": true}], "photos": {"count": 0, "groups": []}}, "referralId": "e-0-51094689e4b08ba572d6305b-2"}, {"reasons": {"count": 0, "items": [{"summary": "This spot is popular", "type": "general", "reasonName": "globalInteractionReason"}]}, "venue": {"id": "4b8d3c9df964a5201fef32e3", "name": "Charisma Ballroom", "location": {"address": "71-46 Main St", "crossStreet": "btw 71st & 72nd", "lat": 40.726885892225326, "lng": -73.8220932456316, "labeledLatLngs": [{"label": "display", "lat": 40.726885892225326, "lng": -73.8220932456316}], "distance": 490, "postalCode": "11367", "cc": "US", "city": "Kew Gardens Hills", "state": "NY", "country": "United States", "formattedAddress": ["71-46 Main St (btw 71st & 72nd)", "Kew Gardens Hills, NY 11367", "United States"]}, "categories": [{"id": "4bf58dd8d48988d134941735", "name": "Dance Studio", "pluralName": "Dance Studios", "shortName": "Dance Studio", "icon": {"prefix": "https://ss3.4sqi.net/img/categories_v2/arts_entertainment/performingarts_dancestudio_", "suffix": ".png"}, "primary": true}], "photos": {"count": 0, "groups": []}}, "referralId": "e-0-4b8d3c9df964a5201fef32e3-3"}, {"reasons": {"count": 0, "items": [{"summary": "This spot is popular", "type": "general", "reasonName": "globalInteractionReason"}]}, "venue": {"id": "4be30043d27a20a11df4905b", "name": "Pita Hot", "location": {"address": "75-43 Main St", "crossStreet": "at 75th Rd.", "lat": 40.72294037271778, "lng": -73.81964531702678, "labeledLatLngs": [{"label": "display", "lat": 40.72294037271778, "lng": -73.81964531702678}], "distance": 111, "postalCode": "11367", "cc": "US", "city": "Flushing", "state": "NY", "country": "United States", "formattedAddress": ["75-43 Main St (at 75th Rd.)", "Flushing, NY 11367", "United States"]}, "categories": [{"id": "4bf58dd8d48988d115941735", "name": "Middle Eastern Restaurant", "pluralName": "Middle Eastern Restaurants", "shortName": "Middle Eastern", "icon": {"prefix": "https://ss3.4sqi.net/img/categories_v2/food/middleeastern_", "suffix": ".png"}, "primary": true}], "photos": {"count": 0, "groups": []}}, "referralId": "e-0-4be30043d27a20a11df4905b-4"}, {"reasons": {"count": 0, "items": [{"summary": "This spot is popular", "type": "general", "reasonName": "globalInteractionReason"}]}, "venue": {"id": "50ecbc5ce4b0b319769396f0", "name": "Elite Cafe", "location": {"address": "72-28 Main St", "lat": 40.725835, "lng": -73.821606, "labeledLatLngs": [{"label": "display", "lat": 40.725835, "lng": -73.821606}], "distance": 367, "postalCode": "11367", "cc": "US", "city": "Flushing", "state": "NY", "country": "United States", "formattedAddress": ["72-28 Main St", "Flushing, NY 11367", "United States"]}, "categories": [{"id": "4bf58dd8d48988d1d2941735", "name": "Sushi Restaurant", "pluralName": "Sushi Restaurants", "shortName": "Sushi", "icon": {"prefix": "https://ss3.4sqi.net/img/categories_v2/food/sushi_", "suffix": ".png"}, "primary": true}], "photos": {"count": 0, "groups": []}}, "referralId": "e-0-50ecbc5ce4b0b319769396f0-5"}, {"reasons": {"count": 0, "items": [{"summary": "This spot is popular", "type": "general", "reasonName": "globalInteractionReason"}]}, "venue": {"id": "4b145a62f964a520b2a123e3", "name": "Ami Convenience Inc.", "location": {"address": "7547 Main St", "crossStreet": "75th Ave", "lat": 40.722823891518686, "lng": -73.81964690158895, "labeledLatLngs": [{"label": "display", "lat": 40.722823891518686, "lng": -73.81964690158895}], "distance": 107, "postalCode": "11367", "cc": "US", "city": "Flushing", "state": "NY", "country": "United States", "formattedAddress": ["7547 Main St (75th Ave)", "Flushing, NY 11367", "United States"]}, "categories": [{"id": "4d954b0ea243a5684a65b473", "name": "Convenience Store", "pluralName": "Convenience Stores", "shortName": "Convenience Store", "icon": {"prefix": "https://ss3.4sqi.net/img/categories_v2/shops/conveniencestore_", "suffix": ".png"}, "primary": true}], "photos": {"count": 0, "groups": []}}, "referralId": "e-0-4b145a62f964a520b2a123e3-6"}, {"reasons": {"count": 0, "items": [{"summary": "This spot is popular", "type": "general", "reasonName": "globalInteractionReason"}]}, "venue": {"id": "50161d3f90e7014483f78453", "name": "Svetsarah", "location": {"address": "73-27 Main St", "crossStreet": "at 75 Ave", "lat": 40.72413655548345, "lng": -73.82029294967651, "labeledLatLngs": [{"label": "display", "lat": 40.72413655548345, "lng": -73.82029294967651}], "distance": 180, "postalCode": "11367", "cc": "US", "city": "Flushing", "state": "NY", "country": "United States", "formattedAddress": ["73-27 Main St (at 75 Ave)", "Flushing, NY 11367", "United States"]}, "categories": [{"id": "4bf58dd8d48988d1c4941735", "name": "Restaurant", "pluralName": "Restaurants", "shortName": "Restaurant", "icon": {"prefix": "https://ss3.4sqi.net/img/categories_v2/food/default_", "suffix": ".png"}, "primary": true}], "photos": {"count": 0, "groups": []}}, "referralId": "e-0-50161d3f90e7014483f78453-7"}, {"reasons": {"count": 0, "items": [{"summary": "This spot is popular", "type": "general", "reasonName": "globalInteractionReason"}]}, "venue": {"id": "4c71a8c08ffc9521adb5ff63", "name": "MTA NYCT Q20A, Q20B (Main Street/76th Avenue)", "location": {"address": "Main St", "lat": 40.72267296820732, "lng": -73.8197135925293, "labeledLatLngs": [{"label": "display", "lat": 40.72267296820732, "lng": -73.8197135925293}], "distance": 98, "postalCode": "11367", "cc": "US", "city": "Kew Gardens Hills", "state": "NY", "country": "United States", "formattedAddress": ["Main St", "Kew Gardens Hills, NY 11367", "United States"]}, "categories": [{"id": "4bf58dd8d48988d1fe931735", "name": "Bus Station", "pluralName": "Bus Stations", "shortName": "Bus Station", "icon": {"prefix": "https://ss3.4sqi.net/img/categories_v2/travel/busstation_", "suffix": ".png"}, "primary": true}], "photos": {"count": 0, "groups": []}}, "referralId": "e-0-4c71a8c08ffc9521adb5ff63-8"}, {"reasons": {"count": 0, "items": [{"summary": "This spot is popular", "type": "general", "reasonName": "globalInteractionReason"}]}, "venue": {"id": "4dc6b9f7d164eb9ca00ea419", "name": "MTA NYCT Q20A, Q20B, Q44 (Main St/73 Ave)", "location": {"address": "Main St & 73rd Ave", "lat": 40.72464003830448, "lng": -73.82074645811372, "labeledLatLngs": [{"label": "display", "lat": 40.72464003830448, "lng": -73.82074645811372}], "distance": 229, "postalCode": "11367", "cc": "US", "city": "Kew Gardens Hills", "state": "NY", "country": "United States", "formattedAddress": ["Main St & 73rd Ave", "Kew Gardens Hills, NY 11367", "United States"]}, "categories": [{"id": "4bf58dd8d48988d1fe931735", "name": "Bus Station", "pluralName": "Bus Stations", "shortName": "Bus Station", "icon": {"prefix": "https://ss3.4sqi.net/img/categories_v2/travel/busstation_", "suffix": ".png"}, "primary": true}], "photos": {"count": 0, "groups": []}}, "referralId": "e-0-4dc6b9f7d164eb9ca00ea419-9"}, {"reasons": {"count": 0, "items": [{"summary": "This spot is popular", "type": "general", "reasonName": "globalInteractionReason"}]}, "venue": {"id": "4c910d1cae96a093aa3da046", "name": "Swan Delight", "location": {"address": "vleigh pl", "lat": 40.71994505478587, "lng": -73.82056611726254, "labeledLatLngs": [{"label": "display", "lat": 40.71994505478587, "lng": -73.82056611726254}], "distance": 294, "postalCode": "11367", "cc": "US", "city": "Flushing", "state": "NY", "country": "United States", "formattedAddress": ["vleigh pl", "Flushing, NY 11367", "United States"]}, "categories": [{"id": "4bf58dd8d48988d146941735", "name": "Deli / Bodega", "pluralName": "Delis / Bodegas", "shortName": "Deli / Bodega", "icon": {"prefix": "https://ss3.4sqi.net/img/categories_v2/food/deli_", "suffix": ".png"}, "primary": true}], "photos": {"count": 0, "groups": []}}, "referralId": "e-0-4c910d1cae96a093aa3da046-10"}, {"reasons": {"count": 0, "items": [{"summary": "This spot is popular", "type": "general", "reasonName": "globalInteractionReason"}]}, "venue": {"id": "4ae016d7f964a5202e7e21e3", "name": "Uncle Tommy's", "location": {"address": "77-49 Vleigh Pl", "crossStreet": "77th Road", "lat": 40.71974223885612, "lng": -73.82067506657279, "labeledLatLngs": [{"label": "display", "lat": 40.71974223885612, "lng": -73.82067506657279}], "distance": 316, "postalCode": "11367", "cc": "US", "city": "Flushing", "state": "NY", "country": "United States", "formattedAddress": ["77-49 Vleigh Pl (77th Road)", "Flushing, NY 11367", "United States"]}, "categories": [{"id": "4bf58dd8d48988d1ca941735", "name": "Pizza Place", "pluralName": "Pizza Places", "shortName": "Pizza", "icon": {"prefix": "https://ss3.4sqi.net/img/categories_v2/food/pizza_", "suffix": ".png"}, "primary": true}], "photos": {"count": 0, "groups": []}}, "referralId": "e-0-4ae016d7f964a5202e7e21e3-11"}, {"reasons": {"count": 0, "items": [{"summary": "This spot is popular", "type": "general", "reasonName": "globalInteractionReason"}]}, "venue": {"id": "4c6916e68d22c928b142b645", "name": "Te Amo", "location": {"address": "7907 Main St", "crossStreet": "at 79th Ave.", "lat": 40.719875549110924, "lng": -73.81937033003913, "labeledLatLngs": [{"label": "display", "lat": 40.719875549110924, "lng": -73.81937033003913}], "distance": 326, "postalCode": "11367", "cc": "US", "city": "Flushing", "state": "NY", "country": "United States", "formattedAddress": ["7907 Main St (at 79th Ave.)", "Flushing, NY 11367", "United States"]}, "categories": [{"id": "4bf58dd8d48988d123951735", "name": "Smoke Shop", "pluralName": "Smoke Shops", "shortName": "Smoke Shop", "icon": {"prefix": "https://ss3.4sqi.net/img/categories_v2/shops/tobacco_", "suffix": ".png"}, "primary": true}], "photos": {"count": 0, "groups": []}}, "referralId": "e-0-4c6916e68d22c928b142b645-12"}, {"reasons": {"count": 0, "items": [{"summary": "This spot is popular", "type": "general", "reasonName": "globalInteractionReason"}]}, "venue": {"id": "4cbc46f0f50e224bbf28fefb", "name": "Vleigh Playground", "location": {"lat": 40.719334784278566, "lng": -73.82093928688005, "labeledLatLngs": [{"label": "display", "lat": 40.719334784278566, "lng": -73.82093928688005}], "distance": 361, "postalCode": "11367", "cc": "US", "city": "Flushing", "state": "NY", "country": "United States", "formattedAddress": ["Flushing, NY 11367", "United States"]}, "categories": [{"id": "4bf58dd8d48988d1e7941735", "name": "Playground", "pluralName": "Playgrounds", "shortName": "Playground", "icon": {"prefix": "https://ss3.4sqi.net/img/categories_v2/parks_outdoors/playground_", "suffix": ".png"}, "primary": true}], "photos": {"count": 0, "groups": []}}, "referralId": "e-0-4cbc46f0f50e224bbf28fefb-13"}, {"reasons": {"count": 0, "items": [{"summary": "This spot is popular", "type": "general", "reasonName": "globalInteractionReason"}]}, "venue": {"id": "4c48338f96abd13ab0687301", "name": "Chase Bank", "location": {"address": "71-41 Main St", "lat": 40.726985107695974, "lng": -73.82159254503196, "labeledLatLngs": [{"label": "display", "lat": 40.726985107695974, "lng": -73.82159254503196}], "distance": 494, "postalCode": "11367", "cc": "US", "city": "Flushing", "state": "NY", "country": "United States", "formattedAddress": ["71-41 Main St", "Flushing, NY 11367", "United States"]}, "categories": [{"id": "4bf58dd8d48988d10a951735", "name": "Bank", "pluralName": "Banks", "shortName": "Bank", "icon": {"prefix": "https://ss3.4sqi.net/img/categories_v2/shops/financial_", "suffix": ".png"}, "primary": true}], "photos": {"count": 0, "groups": []}}, "referralId": "e-0-4c48338f96abd13ab0687301-14"}, {"reasons": {"count": 0, "items": [{"summary": "This spot is popular", "type": "general", "reasonName": "globalInteractionReason"}]}, "venue": {"id": "594b29e4005ac11bf31fa5b8", "name": "Holy Schnitzel", "location": {"address": "7222 Main St.", "lat": 40.725921, "lng": -73.821702, "labeledLatLngs": [{"label": "display", "lat": 40.725921, "lng": -73.821702}], "distance": 378, "postalCode": "11367", "cc": "US", "city": "New York", "state": "NY", "country": "United States", "formattedAddress": ["7222 Main St.", "New York, NY 11367", "United States"]}, "categories": [{"id": "4bf58dd8d48988d1c4941735", "name": "Restaurant", "pluralName": "Restaurants", "shortName": "Restaurant", "icon": {"prefix": "https://ss3.4sqi.net/img/categories_v2/food/default_", "suffix": ".png"}, "primary": true}], "delivery": {"id": "536628", "url": "https://www.seamless.com/menu/holy-schnitzel-7222-main-st-flushing/536628?affiliate=1131&utm_source=foursquare-affiliate-network&utm_medium=affiliate&utm_campaign=1131&utm_content=536628", "provider": {"name": "seamless", "icon": {"prefix": "https://fastly.4sqi.net/img/general/cap/", "sizes": [40, 50], "name": "/delivery_provider_seamless_20180129.png"}}}, "photos": {"count": 0, "groups": []}}, "referralId": "e-0-594b29e4005ac11bf31fa5b8-15"}, {"reasons": {"count": 0, "items": [{"summary": "This spot is popular", "type": "general", "reasonName": "globalInteractionReason"}]}, "venue": {"id": "4bd4c0135631c9b6ec11a330", "name": "Annie's Kitchen", "location": {"address": "72-24 Main St", "crossStreet": "at 72nd Rd.", "lat": 40.725985660292785, "lng": -73.82168898134572, "labeledLatLngs": [{"label": "display", "lat": 40.725985660292785, "lng": -73.82168898134572}], "distance": 385, "postalCode": "11367", "cc": "US", "city": "Flushing", "state": "NY", "country": "United States", "formattedAddress": ["72-24 Main St (at 72nd Rd.)", "Flushing, NY 11367", "United States"]}, "categories": [{"id": "4bf58dd8d48988d145941735", "name": "Chinese Restaurant", "pluralName": "Chinese Restaurants", "shortName": "Chinese", "icon": {"prefix": "https://ss3.4sqi.net/img/categories_v2/food/asian_", "suffix": ".png"}, "primary": true}], "delivery": {"id": "1044210", "url": "https://www.seamless.com/menu/annies-kitchen-7224-main-st-flushing/1044210?affiliate=1131&utm_source=foursquare-affiliate-network&utm_medium=affiliate&utm_campaign=1131&utm_content=1044210", "provider": {"name": "seamless", "icon": {"prefix": "https://fastly.4sqi.net/img/general/cap/", "sizes": [40, 50], "name": "/delivery_provider_seamless_20180129.png"}}}, "photos": {"count": 0, "groups": []}}, "referralId": "e-0-4bd4c0135631c9b6ec11a330-16"}, {"reasons": {"count": 0, "items": [{"summary": "This spot is popular", "type": "general", "reasonName": "globalInteractionReason"}]}, "venue": {"id": "4d3311015c2db60cdad2c76c", "name": "Gift World Judaica", "location": {"address": "72-20 Main St", "crossStreet": "72nd Avenue", "lat": 40.72601718333333, "lng": -73.821527, "labeledLatLngs": [{"label": "display", "lat": 40.72601718333333, "lng": -73.821527}], "distance": 386, "postalCode": "11367", "cc": "US", "city": "Flushing", "state": "NY", "country": "United States", "formattedAddress": ["72-20 Main St (72nd Avenue)", "Flushing, NY 11367", "United States"]}, "categories": [{"id": "4bf58dd8d48988d128951735", "name": "Gift Shop", "pluralName": "Gift Shops", "shortName": "Gift Shop", "icon": {"prefix": "https://ss3.4sqi.net/img/categories_v2/shops/giftshop_", "suffix": ".png"}, "primary": true}], "photos": {"count": 0, "groups": []}}, "referralId": "e-0-4d3311015c2db60cdad2c76c-17"}, {"reasons": {"count": 0, "items": [{"summary": "This spot is popular", "type": "general", "reasonName": "globalInteractionReason"}]}, "venue": {"id": "4c47755a972c0f47d1e02321", "name": "Judge Moses Weinstein Playground", "location": {"address": "141st St", "lat": 40.71889672096326, "lng": -73.81924482444585, "labeledLatLngs": [{"label": "display", "lat": 40.71889672096326, "lng": -73.81924482444585}], "distance": 432, "postalCode": "11367", "cc": "US", "city": "Flushing", "state": "NY", "country": "United States", "formattedAddress": ["141st St", "Flushing, NY 11367", "United States"]}, "categories": [{"id": "4bf58dd8d48988d1e7941735", "name": "Playground", "pluralName": "Playgrounds", "shortName": "Playground", "icon": {"prefix": "https://ss3.4sqi.net/img/categories_v2/parks_outdoors/playground_", "suffix": ".png"}, "primary": true}], "photos": {"count": 0, "groups": []}}, "referralId": "e-0-4c47755a972c0f47d1e02321-18"}, {"reasons": {"count": 0, "items": [{"summary": "This spot is popular", "type": "general", "reasonName": "globalInteractionReason"}]}, "venue": {"id": "523b13ff7e489040ba1d664f", "name": "Air Duct Cleaning Queens", "location": {"address": "153-21 76th Rd", "lat": 40.72316083420869, "lng": -73.8154649734497, "labeledLatLngs": [{"label": "display", "lat": 40.72316083420869, "lng": -73.8154649734497}], "distance": 461, "postalCode": "11367", "cc": "US", "city": "Flushing", "state": "NY", "country": "United States", "formattedAddress": ["153-21 76th Rd", "Flushing, NY 11367", "United States"]}, "categories": [{"id": "4bf58dd8d48988d1f8941735", "name": "Furniture / Home Store", "pluralName": "Furniture / Home Stores", "shortName": "Furniture / Home", "icon": {"prefix": "https://ss3.4sqi.net/img/categories_v2/shops/furniture_", "suffix": ".png"}, "primary": true}], "photos": {"count": 0, "groups": []}}, "referralId": "e-0-523b13ff7e489040ba1d664f-19"}, {"reasons": {"count": 0, "items": [{"summary": "This spot is popular", "type": "general", "reasonName": "globalInteractionReason"}]}, "venue": {"id": "5613e5a0498eba52259d2c6e", "name": "Senior Movers", "location": {"address": "2765 W 5th St Apt 7A", "lat": 40.7213069243792, "lng": -73.82632255554199, "labeledLatLngs": [{"label": "display", "lat": 40.7213069243792, "lng": -73.82632255554199}], "distance": 480, "postalCode": "11224", "cc": "US", "city": "Brooklyn", "state": "NY", "country": "United States", "formattedAddress": ["2765 W 5th St Apt 7A", "Brooklyn, NY 11224", "United States"]}, "categories": [{"id": "4f2a23984b9023bd5841ed2c", "name": "Moving Target", "pluralName": "Moving Targets", "shortName": "Moving Target", "icon": {"prefix": "https://ss3.4sqi.net/img/categories_v2/travel/movingtarget_", "suffix": ".png"}, "primary": true}], "photos": {"count": 0, "groups": []}}, "referralId": "e-0-5613e5a0498eba52259d2c6e-20"}, {"reasons": {"count": 0, "items": [{"summary": "This spot is popular", "type": "general", "reasonName": "globalInteractionReason"}]}, "venue": {"id": "4f3247db19836c91c7c82a5e", "name": "Kissena Beverage", "location": {"address": "15617 73rd Ave", "lat": 40.72597164149209, "lng": -73.8172965470309, "labeledLatLngs": [{"label": "display", "lat": 40.72597164149209, "lng": -73.8172965470309}], "distance": 483, "postalCode": "11367", "cc": "US", "city": "Flushing", "state": "NY", "country": "United States", "formattedAddress": ["15617 73rd Ave", "Flushing, NY 11367", "United States"]}, "categories": [{"id": "4bf58dd8d48988d123941735", "name": "Wine Bar", "pluralName": "Wine Bars", "shortName": "Wine Bar", "icon": {"prefix": "https://ss3.4sqi.net/img/categories_v2/food/winery_", "suffix": ".png"}, "primary": true}], "photos": {"count": 0, "groups": []}}, "referralId": "e-0-4f3247db19836c91c7c82a5e-21"}]