[{"reasons": {"count": 0, "items": [{"summary": "This spot is popular", "type": "general", "reasonName": "globalInteractionReason"}]}, "venue": {"id": "4daa2ff1a86e771ea71ed648", "name": "Popeyes Louisiana Kitchen", "location": {"address": "96-23 57th Ave.", "lat": 40.737124298541765, "lng": -73.86405391926831, "labeledLatLngs": [{"label": "display", "lat": 40.737124298541765, "lng": -73.86405391926831}], "distance": 174, "postalCode": "11368", "cc": "US", "city": "New York", "state": "NY", "country": "United States", "formattedAddress": ["96-23 57th Ave.", "New York, NY 11368", "United States"]}, "categories": [{"id": "4d4ae6fc7a7b7dea34424761", "name": "Fried Chicken Joint", "pluralName": "Fried Chicken Joints", "shortName": "Fried Chicken", "icon": {"prefix": "https://ss3.4sqi.net/img/categories_v2/food/friedchicken_", "suffix": ".png"}, "primary": true}], "delivery": {"id": "2030784", "url": "https://www.seamless.com/menu/popeyes-9623-57th-ave-corona/2030784?affiliate=1131&utm_source=foursquare-affiliate-network&utm_medium=affiliate&utm_campaign=1131&utm_content=2030784", "provider": {"name": "seamless", "icon": {"prefix": "https://fastly.4sqi.net/img/general/cap/", "sizes": [40, 50], "name": "/delivery_provider_seamless_20180129.png"}}}, "photos": {"count": 0, "groups": []}}, "referralId": "e-0-4daa2ff1a86e771ea71ed648-0"}, {"reasons": {"count": 0, "items": [{"summary": "This spot is popular", "type": "general", "reasonName": "globalInteractionReason"}]}, "venue": {"id": "4dbf345afa8cc78a860cbc44", "name": "Panera Bread", "location": {"address": "61-35 Junction Blvd Ste D102", "lat": 40.73342763659789, "lng": -73.86334407669337, "labeledLatLngs": [{"label": "display", "lat": 40.73342763659789, "lng": -73.86334407669337}], "distance": 302, "postalCode": "11374", "cc": "US", "city": "Rego Park", "state": "NY", "country": "United States", "formattedAddress": ["61-35 Junction Blvd Ste D102", "Rego Park, NY 11374", "United States"]}, "categories": [{"id": "4bf58dd8d48988d16a941735", "name": "Bakery", "pluralName": "Bakeries", "shortName": "Bakery", "icon": {"prefix": "https://ss3.4sqi.net/img/categories_v2/food/bakery_", "suffix": ".png"}, "primary": true}], "delivery": {"id": "2053479", "url": "https://www.seamless.com/menu/panera-bread-6135-junction-blvd-ste-d102-rego-park/2053479?affiliate=1131&utm_source=foursquare-affiliate-network&utm_medium=affiliate&utm_campaign=1131&utm_content=2053479", "provider": {"name": "seamless", "icon": {"prefix": "https://fastly.4sqi.net/img/general/cap/", "sizes": [40, 50], "name": "/delivery_provider_seamless_20180129.png"}}}, "photos": {"count": 0, "groups": []}}, "referralId": "e-0-4dbf345afa8cc78a860cbc44-1"}, {"reasons": {"count": 0, "items": [{"summary": "This spot is popular", "type": "general", "reasonName": "globalInteractionReason"}]}, "venue": {"id": "4e9376dce5faf79bbd66bfae", "name": "Ulta Beauty", "location": {"address": "6135 Junction Blvd", "crossStreet": "Rego Center", "lat": 40.7331245, "lng": -73.8632635, "labeledLatLngs": [{"label": "display", "lat": 40.7331245, "lng": -73.8632635}], "distance": 334, "postalCode": "11374", "cc": "US", "city": "Rego Park", "state": "NY", "country": "United States", "formattedAddress": ["6135 Junction Blvd (Rego Center)", "Rego Park, NY 11374", "United States"]}, "categories": [{"id": "4bf58dd8d48988d10c951735", "name": "Cosmetics Shop", "pluralName": "Cosmetics Shops", "shortName": "Cosmetics", "icon": {"prefix": "https://ss3.4sqi.net/img/categories_v2/shops/beauty_cosmetic_", "suffix": ".png"}, "primary": true}], "photos": {"count": 0, "groups": []}}, "referralId": "e-0-4e9376dce5faf79bbd66bfae-2"}, {"reasons": {"count": 0, "items": [{"summary": "This spot is popular", "type": "general", "reasonName": "globalInteractionReason"}]}, "venue": {"id": "4e525392aeb7560ca4ab1fef", "name": "Pier 1 Imports", "location": {"address": "61-35 Junction Blvd Ste A5", "lat": 40.73246393059588, "lng": -73.86335310681534, "labeledLatLngs": [{"label": "display", "lat": 40.73246393059588, "lng": -73.86335310681534}], "distance": 407, "postalCode": "11374", "cc": "US", "city": "Rego Park", "state": "NY", "country": "United States", "formattedAddress": ["61-35 Junction Blvd Ste A5", "Rego Park, NY 11374", "United States"]}, "categories": [{"id": "4bf58dd8d48988d1f8941735", "name": "Furniture / Home Store", "pluralName": "Furniture / Home Stores", "shortName": "Furniture / Home", "icon": {"prefix": "https://ss3.4sqi.net/img/categories_v2/shops/furniture_", "suffix": ".png"}, "primary": true}], "photos": {"count": 0, "groups": []}}, "referralId": "e-0-4e525392aeb7560ca4ab1fef-3"}, {"reasons": {"count": 0, "items": [{"summary": "This spot is popular", "type": "general", "reasonName": "globalInteractionReason"}]}, "venue": {"id": "4b75984af964a520ee162ee3", "name": "Rego Center", "location": {"address": "61-35 Junction Blvd", "crossStreet": "btwn 62nd Dr & LIE", "lat": 40.73298720283457, "lng": -73.86313449536031, "labeledLatLngs": [{"label": "display", "lat": 40.73298720283457, "lng": -73.86313449536031}], "distance": 347, "postalCode": "11374", "cc": "US", "neighborhood": "Rego Park", "city": "Rego Park", "state": "NY", "country": "United States", "formattedAddress": ["61-35 Junction Blvd (btwn 62nd Dr & LIE)", "Rego Park, NY 11374", "United States"]}, "categories": [{"id": "4bf58dd8d48988d1fd941735", "name": "Shopping Mall", "pluralName": "Shopping Malls", "shortName": "Mall", "icon": {"prefix": "https://ss3.4sqi.net/img/categories_v2/shops/mall_", "suffix": ".png"}, "primary": true}], "photos": {"count": 0, "groups": []}}, "referralId": "e-0-4b75984af964a520ee162ee3-4"}, {"reasons": {"count": 0, "items": [{"summary": "This spot is popular", "type": "general", "reasonName": "globalInteractionReason"}]}, "venue": {"id": "55a44374498e376365fbf17d", "name": "Great Wall Supermarket", "location": {"address": "5916 99th St", "lat": 40.736373423969674, "lng": -73.8591858625726, "labeledLatLngs": [{"label": "display", "lat": 40.736373423969674, "lng": -73.8591858625726}], "distance": 283, "postalCode": "11368", "cc": "US", "city": "Corona", "state": "NY", "country": "United States", "formattedAddress": ["5916 99th St", "Corona, NY 11368", "United States"]}, "categories": [{"id": "52f2ab2ebcbc57f1066b8b1c", "name": "Fruit & Vegetable Store", "pluralName": "Fruit & Vegetable Stores", "shortName": "Fruit & Vegetable Store", "icon": {"prefix": "https://ss3.4sqi.net/img/categories_v2/shops/food_grocery_", "suffix": ".png"}, "primary": true}], "photos": {"count": 0, "groups": []}}, "referralId": "e-0-55a44374498e376365fbf17d-5"}, {"reasons": {"count": 0, "items": [{"summary": "This spot is popular", "type": "general", "reasonName": "globalInteractionReason"}]}, "venue": {"id": "513502cbe4b0feed3fa72299", "name": "Miller's Ale House - Rego Park", "location": {"address": "6135 Junction Blvd", "lat": 40.733394, "lng": -73.863868, "labeledLatLngs": [{"label": "display", "lat": 40.733394, "lng": -73.863868}], "distance": 319, "postalCode": "11374", "cc": "US", "neighborhood": "Rego Park", "city": "Rego Park", "state": "NY", "country": "United States", "formattedAddress": ["6135 Junction Blvd", "Rego Park, NY 11374", "United States"]}, "categories": [{"id": "4bf58dd8d48988d1c4941735", "name": "Restaurant", "pluralName": "Restaurants", "shortName": "Restaurant", "icon": {"prefix": "https://ss3.4sqi.net/img/categories_v2/food/default_", "suffix": ".png"}, "primary": true}], "photos": {"count": 0, "groups": []}}, "referralId": "e-0-513502cbe4b0feed3fa72299-6"}, {"reasons": {"count": 0, "items": [{"summary": "This spot is popular", "type": "general", "reasonName": "globalInteractionReason"}]}, "venue": {"id": "4f551b55e4b0d3a8f7adba1d", "name": "Subway", "location": {"address": "61-01 Junction Blvd.", "crossStreet": "btwn Horace Harding Expwy & 62nd Dr", "lat": 40.7331637095959, "lng": -73.8637812286824, "labeledLatLngs": [{"label": "display", "lat": 40.7331637095959, "lng": -73.8637812286824}], "distance": 340, "postalCode": "11374", "cc": "US", "city": "Rego Park", "state": "NY", "country": "United States", "formattedAddress": ["61-01 Junction Blvd. (btwn Horace Harding Expwy & 62nd Dr)", "Rego Park, NY 11374", "United States"]}, "categories": [{"id": "4bf58dd8d48988d1c5941735", "name": "Sandwich Place", "pluralName": "Sandwich Places", "shortName": "Sandwiches", "icon": {"prefix": "https://ss3.4sqi.net/img/categories_v2/food/deli_", "suffix": ".png"}, "primary": true}], "photos": {"count": 0, "groups": []}}, "referralId": "e-0-4f551b55e4b0d3a8f7adba1d-7"}, {"reasons": {"count": 0, "items": [{"summary": "This spot is popular", "type": "general", "reasonName": "globalInteractionReason"}]}, "venue": {"id": "4d5daad3640e6ea82d141a14", "name": "ALDI Food Market", "location": {"address": "61-11 Junction Blvd", "lat": 40.7334093, "lng": -73.8624119, "labeledLatLngs": [{"label": "display", "lat": 40.7334093, "lng": -73.8624119}], "distance": 296, "postalCode": "11374", "cc": "US", "city": "Rego Park", "state": "NY", "country": "United States", "formattedAddress": ["61-11 Junction Blvd", "Rego Park, NY 11374", "United States"]}, "categories": [{"id": "52f2ab2ebcbc57f1066b8b46", "name": "Supermarket", "pluralName": "Supermarkets", "shortName": "Supermarket", "icon": {"prefix": "https://ss3.4sqi.net/img/categories_v2/shops/food_grocery_", "suffix": ".png"}, "primary": true}], "photos": {"count": 0, "groups": []}}, "referralId": "e-0-4d5daad3640e6ea82d141a14-8"}, {"reasons": {"count": 0, "items": [{"summary": "This spot is popular", "type": "general", "reasonName": "globalInteractionReason"}]}, "venue": {"id": "4e6d8177aeb7ba66d9b0b927", "name": "Liquor & Wine Warehouse", "location": {"address": "9925 Horace Harding Expwy.", "lat": 40.7363833916963, "lng": -73.85777130011255, "labeledLatLngs": [{"label": "display", "lat": 40.7363833916963, "lng": -73.85777130011255}], "distance": 402, "postalCode": "11368", "cc": "US", "city": "Corona", "state": "NY", "country": "United States", "formattedAddress": ["9925 Horace Harding Expwy.", "Corona, NY 11368", "United States"]}, "categories": [{"id": "4bf58dd8d48988d186941735", "name": "Liquor Store", "pluralName": "Liquor Stores", "shortName": "Liquor Store", "icon": {"prefix": "https://ss3.4sqi.net/img/categories_v2/shops/food_liquor_", "suffix": ".png"}, "primary": true}], "photos": {"count": 0, "groups": []}}, "referralId": "e-0-4e6d8177aeb7ba66d9b0b927-9"}, {"reasons": {"count": 0, "items": [{"summary": "This spot is popular", "type": "general", "reasonName": "globalInteractionReason"}]}, "venue": {"id": "4b8e9229f964a520562933e3", "name": "Century 21 Department Store", "location": {"address": "61-35 Junction Blvd", "crossStreet": "at 62nd Dr", "lat": 40.7333304, "lng": -73.8635717, "labeledLatLngs": [{"label": "display", "lat": 40.7333304, "lng": -73.8635717}], "distance": 317, "postalCode": "11374", "cc": "US", "city": "Rego Park", "state": "NY", "country": "United States", "formattedAddress": ["61-35 Junction Blvd (at 62nd Dr)", "Rego Park, NY 11374", "United States"]}, "categories": [{"id": "4bf58dd8d48988d1f6941735", "name": "Department Store", "pluralName": "Department Stores", "shortName": "Department Store", "icon": {"prefix": "https://ss3.4sqi.net/img/categories_v2/shops/departmentstore_", "suffix": ".png"}, "primary": true}], "photos": {"count": 0, "groups": []}}, "referralId": "e-0-4b8e9229f964a520562933e3-10"}, {"reasons": {"count": 0, "items": [{"summary": "This spot is popular", "type": "general", "reasonName": "globalInteractionReason"}]}, "venue": {"id": "58335576b50d520d9954f4fb", "name": "Chipotle Mexican Grill", "location": {"address": "6135 Junction Blvd", "crossStreet": "Horace Harding Expy", "lat": 40.7332441, "lng": -73.8638964, "labeledLatLngs": [{"label": "display", "lat": 40.7332441, "lng": -73.8638964}], "distance": 335, "postalCode": "11374", "cc": "US", "city": "Rego Park", "state": "NY", "country": "United States", "formattedAddress": ["6135 Junction Blvd (Horace Harding Expy)", "Rego Park, NY 11374", "United States"]}, "categories": [{"id": "4bf58dd8d48988d1c1941735", "name": "Mexican Restaurant", "pluralName": "Mexican Restaurants", "shortName": "Mexican", "icon": {"prefix": "https://ss3.4sqi.net/img/categories_v2/food/mexican_", "suffix": ".png"}, "primary": true}], "photos": {"count": 0, "groups": []}}, "referralId": "e-0-58335576b50d520d9954f4fb-11"}, {"reasons": {"count": 0, "items": [{"summary": "This spot is popular", "type": "general", "reasonName": "globalInteractionReason"}]}, "venue": {"id": "4c3236f33896e21e7529e890", "name": "Costco", "location": {"address": "6135 Junction Blvd", "lat": 40.73315483635352, "lng": -73.86370807647576, "labeledLatLngs": [{"label": "display", "lat": 40.73315483635352, "lng": -73.86370807647576}], "distance": 340, "postalCode": "11374", "cc": "US", "city": "Rego Park", "state": "NY", "country": "United States", "formattedAddress": ["6135 Junction Blvd", "Rego Park, NY 11374", "United States"]}, "categories": [{"id": "52e816a6bcbc57f1066b7a54", "name": "Warehouse Store", "pluralName": "Warehouse Stores", "shortName": "Warehouse Store", "icon": {"prefix": "https://ss3.4sqi.net/img/categories_v2/shops/default_", "suffix": ".png"}, "primary": true}], "photos": {"count": 0, "groups": []}, "venuePage": {"id": "88396521"}}, "referralId": "e-0-4c3236f33896e21e7529e890-12"}, {"reasons": {"count": 0, "items": [{"summary": "This spot is popular", "type": "general", "reasonName": "globalInteractionReason"}]}, "venue": {"id": "4d051e8128926ea8c31e6fc2", "name": "Dallas BBQ", "location": {"address": "61-35 Junction Blvd", "crossStreet": "btwn Horace Harding & 62nd Dr", "lat": 40.73279938751377, "lng": -73.86377075029355, "labeledLatLngs": [{"label": "display", "lat": 40.73279938751377, "lng": -73.86377075029355}], "distance": 379, "postalCode": "11374", "cc": "US", "city": "Rego Park", "state": "NY", "country": "United States", "formattedAddress": ["61-35 Junction Blvd (btwn Horace Harding & 62nd Dr)", "Rego Park, NY 11374", "United States"]}, "categories": [{"id": "4bf58dd8d48988d1df931735", "name": "BBQ Joint", "pluralName": "BBQ Joints", "shortName": "BBQ", "icon": {"prefix": "https://ss3.4sqi.net/img/categories_v2/food/bbqalt_", "suffix": ".png"}, "primary": true}], "delivery": {"id": "292386", "url": "https://www.seamless.com/menu/dallas-bbq-6135-junction-blvd-rego-park/292386?affiliate=1131&utm_source=foursquare-affiliate-network&utm_medium=affiliate&utm_campaign=1131&utm_content=292386", "provider": {"name": "seamless", "icon": {"prefix": "https://fastly.4sqi.net/img/general/cap/", "sizes": [40, 50], "name": "/delivery_provider_seamless_20180129.png"}}}, "photos": {"count": 0, "groups": []}}, "referralId": "e-0-4d051e8128926ea8c31e6fc2-13"}, {"reasons": {"count": 0, "items": [{"summary": "This spot is popular", "type": "general", "reasonName": "globalInteractionReason"}]}, "venue": {"id": "4bae9c77f964a5208cc63be3", "name": "T.J. Maxx", "location": {"address": "6101 Junction Blvd.", "lat": 40.7336242, "lng": -73.8641036, "labeledLatLngs": [{"label": "display", "lat": 40.7336242, "lng": -73.8641036}], "distance": 303, "postalCode": "11374", "cc": "US", "city": "Rego Park", "state": "NY", "country": "United States", "formattedAddress": ["6101 Junction Blvd.", "Rego Park, NY 11374", "United States"]}, "categories": [{"id": "4bf58dd8d48988d1f6941735", "name": "Department Store", "pluralName": "Department Stores", "shortName": "Department Store", "icon": {"prefix": "https://ss3.4sqi.net/img/categories_v2/shops/departmentstore_", "suffix": ".png"}, "primary": true}], "photos": {"count": 0, "groups": []}}, "referralId": "e-0-4bae9c77f964a5208cc63be3-14"}, {"reasons": {"count": 0, "items": [{"summary": "This spot is popular", "type": "general", "reasonName": "globalInteractionReason"}]}, "venue": {"id": "590bc8e38134880da56f658c", "name": "Gong Cha", "location": {"address": "Junction Blvd", "lat": 40.73316353702662, "lng": -73.86279961597211, "labeledLatLngs": [{"label": "display", "lat": 40.73316353702662, "lng": -73.86279961597211}], "distance": 324, "postalCode": "11374", "cc": "US", "city": "New York", "state": "NY", "country": "United States", "formattedAddress": ["Junction Blvd", "New York, NY 11374", "United States"]}, "categories": [{"id": "52e81612bcbc57f1066b7a0c", "name": "Bubble Tea Shop", "pluralName": "Bubble Tea Shops", "shortName": "Bubble Tea", "icon": {"prefix": "https://ss3.4sqi.net/img/categories_v2/food/bubble_", "suffix": ".png"}, "primary": true}], "photos": {"count": 0, "groups": []}}, "referralId": "e-0-590bc8e38134880da56f658c-15"}, {"reasons": {"count": 0, "items": [{"summary": "This spot is popular", "type": "general", "reasonName": "globalInteractionReason"}]}, "venue": {"id": "4ced8601b80da0932c722200", "name": "Mandee", "location": {"address": "6135 Junction Blvd Ste A", "lat": 40.73309968438706, "lng": -73.86332287038138, "labeledLatLngs": [{"label": "display", "lat": 40.73309968438706, "lng": -73.86332287038138}], "distance": 337, "postalCode": "11374", "cc": "US", "city": "Rego Park", "state": "NY", "country": "United States", "formattedAddress": ["6135 Junction Blvd Ste A", "Rego Park, NY 11374", "United States"]}, "categories": [{"id": "4bf58dd8d48988d108951735", "name": "Women's Store", "pluralName": "Women's Stores", "shortName": "Women's Store", "icon": {"prefix": "https://ss3.4sqi.net/img/categories_v2/shops/apparel_women_", "suffix": ".png"}, "primary": true}], "photos": {"count": 0, "groups": []}}, "referralId": "e-0-4ced8601b80da0932c722200-16"}, {"reasons": {"count": 0, "items": [{"summary": "This spot is popular", "type": "general", "reasonName": "globalInteractionReason"}]}, "venue": {"id": "54059452498ed907859777ea", "name": "LongHorn Steakhouse", "location": {"address": "92-30 59th Ave", "lat": 40.7343726355465, "lng": -73.86777877807617, "labeledLatLngs": [{"label": "display", "lat": 40.7343726355465, "lng": -73.86777877807617}], "distance": 481, "postalCode": "11373", "cc": "US", "city": "Elmhurst", "state": "NY", "country": "United States", "formattedAddress": ["92-30 59th Ave", "Elmhurst, NY 11373", "United States"]}, "categories": [{"id": "4bf58dd8d48988d1cc941735", "name": "Steakhouse", "pluralName": "Steakhouses", "shortName": "Steakhouse", "icon": {"prefix": "https://ss3.4sqi.net/img/categories_v2/food/steakhouse_", "suffix": ".png"}, "primary": true}], "photos": {"count": 0, "groups": []}}, "referralId": "e-0-54059452498ed907859777ea-17"}, {"reasons": {"count": 0, "items": [{"summary": "This spot is popular", "type": "general", "reasonName": "globalInteractionReason"}]}, "venue": {"id": "4debd1f7fa76cc1b8b091cfe", "name": "SEPHORA inside JCPenney", "location": {"address": "92-59 59th Ave", "lat": 40.734995051818736, "lng": -73.86778773434122, "labeledLatLngs": [{"label": "display", "lat": 40.734995051818736, "lng": -73.86778773434122}], "distance": 459, "postalCode": "11373", "cc": "US", "city": "Elmhurst", "state": "NY", "country": "United States", "formattedAddress": ["92-59 59th Ave", "Elmhurst, NY 11373", "United States"]}, "categories": [{"id": "4bf58dd8d48988d10c951735", "name": "Cosmetics Shop", "pluralName": "Cosmetics Shops", "shortName": "Cosmetics", "icon": {"prefix": "https://ss3.4sqi.net/img/categories_v2/shops/beauty_cosmetic_", "suffix": ".png"}, "primary": true}], "photos": {"count": 0, "groups": []}}, "referralId": "e-0-4debd1f7fa76cc1b8b091cfe-18"}, {"reasons": {"count": 0, "items": [{"summary": "This spot is popular", "type": "general", "reasonName": "globalInteractionReason"}]}, "venue": {"id": "4ba56256f964a520ac0139e3", "name": "JCPenney", "location": {"address": "92-59 59th Ave", "crossStreet": "at 94th St", "lat": 40.7349792, "lng": -73.8678085, "labeledLatLngs": [{"label": "display", "lat": 40.7349792, "lng": -73.8678085}], "distance": 462, "postalCode": "11373", "cc": "US", "city": "Elmhurst", "state": "NY", "country": "United States", "formattedAddress": ["92-59 59th Ave (at 94th St)", "Elmhurst, NY 11373", "United States"]}, "categories": [{"id": "4bf58dd8d48988d1f6941735", "name": "Department Store", "pluralName": "Department Stores", "shortName": "Department Store", "icon": {"prefix": "https://ss3.4sqi.net/img/categories_v2/shops/departmentstore_", "suffix": ".png"}, "primary": true}], "photos": {"count": 0, "groups": []}}, "referralId": "e-0-4ba56256f964a520ac0139e3-19"}, {"reasons": {"count": 0, "items": [{"summary": "This spot is popular", "type": "general", "reasonName": "globalInteractionReason"}]}, "venue": {"id": "4c1db337eac020a168ba48c2", "name": "Chase Bank", "location": {"address": "5702 99th St", "lat": 40.7380247, "lng": -73.8602381, "labeledLatLngs": [{"label": "display", "lat": 40.7380247, "lng": -73.8602381}], "distance": 290, "postalCode": "11368", "cc": "US", "city": "Corona", "state": "NY", "country": "United States", "formattedAddress": ["5702 99th St", "Corona, NY 11368", "United States"]}, "categories": [{"id": "4bf58dd8d48988d10a951735", "name": "Bank", "pluralName": "Banks", "shortName": "Bank", "icon": {"prefix": "https://ss3.4sqi.net/img/categories_v2/shops/financial_", "suffix": ".png"}, "primary": true}], "photos": {"count": 0, "groups": []}}, "referralId": "e-0-4c1db337eac020a168ba48c2-20"}, {"reasons": {"count": 0, "items": [{"summary": "This spot is popular", "type": "general", "reasonName": "globalInteractionReason"}]}, "venue": {"id": "4c9b66909c66370403cd60fd", "name": "Rite Aid", "location": {"address": "57-16 99th St", "lat": 40.7376792, "lng": -73.8598631, "labeledLatLngs": [{"label": "display", "lat": 40.7376792, "lng": -73.8598631}], "distance": 286, "postalCode": "11368", "cc": "US", "city": "Flushing", "state": "NY", "country": "United States", "formattedAddress": ["57-16 99th St", "Flushing, NY 11368", "United States"]}, "categories": [{"id": "4bf58dd8d48988d10f951735", "name": "Pharmacy", "pluralName": "Pharmacies", "shortName": "Pharmacy", "icon": {"prefix": "https://ss3.4sqi.net/img/categories_v2/shops/pharmacy_", "suffix": ".png"}, "primary": true}], "photos": {"count": 0, "groups": []}}, "referralId": "e-0-4c9b66909c66370403cd60fd-21"}, {"reasons": {"count": 0, "items": [{"summary": "This spot is popular", "type": "general", "reasonName": "globalInteractionReason"}]}, "venue": {"id": "4ca7c31ca6e08cfa85408894", "name": "Best Taste Bakery", "location": {"address": "54-01 Junction Blvd", "lat": 40.738306, "lng": -73.865005, "labeledLatLngs": [{"label": "display", "lat": 40.738306, "lng": -73.865005}], "distance": 324, "postalCode": "11373", "cc": "US", "city": "Elmhurst", "state": "NY", "country": "United States", "formattedAddress": ["54-01 Junction Blvd", "Elmhurst, NY 11373", "United States"]}, "categories": [{"id": "4bf58dd8d48988d16a941735", "name": "Bakery", "pluralName": "Bakeries", "shortName": "Bakery", "icon": {"prefix": "https://ss3.4sqi.net/img/categories_v2/food/bakery_", "suffix": ".png"}, "primary": true}], "photos": {"count": 0, "groups": []}}, "referralId": "e-0-4ca7c31ca6e08cfa85408894-22"}, {"reasons": {"count": 0, "items": [{"summary": "This spot is popular", "type": "general", "reasonName": "globalInteractionReason"}]}, "venue": {"id": "4d23361a5c4ca1cd7a0eb83d", "name": "Foresthill Spa", "location": {"address": "Calloway", "lat": 40.73788106729842, "lng": -73.85761653041881, "labeledLatLngs": [{"label": "display", "lat": 40.73788106729842, "lng": -73.85761653041881}], "distance": 460, "postalCode": "11432", "cc": "US", "city": "Foresthill", "state": "NY", "country": "United States", "formattedAddress": ["Calloway", "Foresthill, NY 11432", "United States"]}, "categories": [{"id": "4bf58dd8d48988d1ed941735", "name": "Spa", "pluralName": "Spas", "shortName": "Spa", "icon": {"prefix": "https://ss3.4sqi.net/img/categories_v2/shops/spa_", "suffix": ".png"}, "primary": true}], "photos": {"count": 0, "groups": []}}, "referralId": "e-0-4d23361a5c4ca1cd7a0eb83d-23"}]