[{"reasons": {"count": 0, "items": [{"summary": "This spot is popular", "type": "general", "reasonName": "globalInteractionReason"}]}, "venue": {"id": "40be6a00f964a520c4001fe3", "name": "Di Fara Pizza", "location": {"address": "1424 Avenue J", "crossStreet": "at E 15th St", "lat": 40.625134711225336, "lng": -73.96147853933067, "labeledLatLngs": [{"label": "display", "lat": 40.625134711225336, "lng": -73.96147853933067}], "distance": 332, "postalCode": "11230", "cc": "US", "city": "Brooklyn", "state": "NY", "country": "United States", "formattedAddress": ["1424 Avenue J (at E 15th St)", "Brooklyn, NY 11230", "United States"]}, "categories": [{"id": "4bf58dd8d48988d1ca941735", "name": "Pizza Place", "pluralName": "Pizza Places", "shortName": "Pizza", "icon": {"prefix": "https://ss3.4sqi.net/img/categories_v2/food/pizza_", "suffix": ".png"}, "primary": true}], "delivery": {"id": "1035645", "url": "https://www.seamless.com/menu/di-fara-pizza-1424-avenue-j-brooklyn/1035645?affiliate=1131&utm_source=foursquare-affiliate-network&utm_medium=affiliate&utm_campaign=1131&utm_content=1035645", "provider": {"name": "seamless", "icon": {"prefix": "https://fastly.4sqi.net/img/general/cap/", "sizes": [40, 50], "name": "/delivery_provider_seamless_20180129.png"}}}, "photos": {"count": 0, "groups": []}, "venuePage": {"id": "95765712"}}, "referralId": "e-0-40be6a00f964a520c4001fe3-0"}, {"reasons": {"count": 0, "items": [{"summary": "This spot is popular", "type": "general", "reasonName": "globalInteractionReason"}]}, "venue": {"id": "4c4f411c8b5520a10e003304", "name": "Walgreens", "location": {"address": "1409 Avenue J", "lat": 40.6252437, "lng": -73.9620025, "labeledLatLngs": [{"label": "display", "lat": 40.6252437, "lng": -73.9620025}, {"label": "entrance", "lat": 40.625227, "lng": -73.961982}], "distance": 374, "postalCode": "11230", "cc": "US", "city": "Brooklyn", "state": "NY", "country": "United States", "formattedAddress": ["1409 Avenue J", "Brooklyn, NY 11230", "United States"]}, "categories": [{"id": "4bf58dd8d48988d10f951735", "name": "Pharmacy", "pluralName": "Pharmacies", "shortName": "Pharmacy", "icon": {"prefix": "https://ss3.4sqi.net/img/categories_v2/shops/pharmacy_", "suffix": ".png"}, "primary": true}], "photos": {"count": 0, "groups": []}}, "referralId": "e-0-4c4f411c8b5520a10e003304-1"}, {"reasons": {"count": 0, "items": [{"summary": "This spot is popular", "type": "general", "reasonName": "globalInteractionReason"}]}, "venue": {"id": "4bd714c429eb9c742e2196e1", "name": "Benny's", "location": {"address": "1418 Avenue J", "lat": 40.62510660783823, "lng": -73.96165841617525, "labeledLatLngs": [{"label": "display", "lat": 40.62510660783823, "lng": -73.96165841617525}, {"label": "entrance", "lat": 40.625028, "lng": -73.961727}], "distance": 347, "postalCode": "11230", "cc": "US", "city": "Brooklyn", "state": "NY", "country": "United States", "formattedAddress": ["1418 Avenue J", "Brooklyn, NY 11230", "United States"]}, "categories": [{"id": "4bf58dd8d48988d1ca941735", "name": "Pizza Place", "pluralName": "Pizza Places", "shortName": "Pizza", "icon": {"prefix": "https://ss3.4sqi.net/img/categories_v2/food/pizza_", "suffix": ".png"}, "primary": true}], "photos": {"count": 0, "groups": []}}, "referralId": "e-0-4bd714c429eb9c742e2196e1-2"}, {"reasons": {"count": 0, "items": [{"summary": "This spot is popular", "type": "general", "reasonName": "globalInteractionReason"}]}, "venue": {"id": "4ba695aef964a520706039e3", "name": "Isaac's Bakery", "location": {"address": "1419 Avenue J", "lat": 40.625402, "lng": -73.961649, "labeledLatLngs": [{"label": "display", "lat": 40.625402, "lng": -73.961649}, {"label": "entrance", "lat": 40.625265, "lng": -73.961624}], "distance": 343, "postalCode": "11230", "cc": "US", "city": "Brooklyn", "state": "NY", "country": "United States", "formattedAddress": ["1419 Avenue J", "Brooklyn, NY 11230", "United States"]}, "categories": [{"id": "4bf58dd8d48988d16a941735", "name": "Bakery", "pluralName": "Bakeries", "shortName": "Bakery", "icon": {"prefix": "https://ss3.4sqi.net/img/categories_v2/food/bakery_", "suffix": ".png"}, "primary": true}], "photos": {"count": 0, "groups": []}}, "referralId": "e-0-4ba695aef964a520706039e3-3"}, {"reasons": {"count": 0, "items": [{"summary": "This spot is popular", "type": "general", "reasonName": "globalInteractionReason"}]}, "venue": {"id": "4f91bd947beb818efa883c51", "name": "Baskin-Robbins", "location": {"address": "1410 Avenue J", "lat": 40.62493960439699, "lng": -73.96196389969822, "labeledLatLngs": [{"label": "display", "lat": 40.62493960439699, "lng": -73.96196389969822}], "distance": 376, "postalCode": "11230", "cc": "US", "city": "Brooklyn", "state": "NY", "country": "United States", "formattedAddress": ["1410 Avenue J", "Brooklyn, NY 11230", "United States"]}, "categories": [{"id": "4bf58dd8d48988d1c9941735", "name": "Ice Cream Shop", "pluralName": "Ice Cream Shops", "shortName": "Ice Cream", "icon": {"prefix": "https://ss3.4sqi.net/img/categories_v2/food/icecream_", "suffix": ".png"}, "primary": true}], "photos": {"count": 0, "groups": []}}, "referralId": "e-0-4f91bd947beb818efa883c51-4"}, {"reasons": {"count": 0, "items": [{"summary": "This spot is popular", "type": "general", "reasonName": "globalInteractionReason"}]}, "venue": {"id": "4baec97df964a520fed73be3", "name": "Pizza Time", "location": {"address": "1324 Avenue J", "crossStreet": "at E 14th St", "lat": 40.62505248036124, "lng": -73.96234178915628, "labeledLatLngs": [{"label": "display", "lat": 40.62505248036124, "lng": -73.96234178915628}, {"label": "entrance", "lat": 40.624953, "lng": -73.962429}], "distance": 405, "postalCode": "11230", "cc": "US", "city": "Brooklyn", "state": "NY", "country": "United States", "formattedAddress": ["1324 Avenue J (at E 14th St)", "Brooklyn, NY 11230", "United States"]}, "categories": [{"id": "4bf58dd8d48988d1ca941735", "name": "Pizza Place", "pluralName": "Pizza Places", "shortName": "Pizza", "icon": {"prefix": "https://ss3.4sqi.net/img/categories_v2/food/pizza_", "suffix": ".png"}, "primary": true}], "photos": {"count": 0, "groups": []}}, "referralId": "e-0-4baec97df964a520fed73be3-5"}, {"reasons": {"count": 0, "items": [{"summary": "This spot is popular", "type": "general", "reasonName": "globalInteractionReason"}]}, "venue": {"id": "521f3f4311d253611d52ff9c", "name": "7-Eleven", "location": {"address": "1523 Avenue J", "crossStreet": "Ave J And  E 16th st", "lat": 40.6254852, "lng": -73.9606792, "labeledLatLngs": [{"label": "display", "lat": 40.6254852, "lng": -73.9606792}], "distance": 260, "postalCode": "11230", "cc": "US", "city": "Brooklyn", "state": "NY", "country": "United States", "formattedAddress": ["1523 Avenue J (Ave J And  E 16th st)", "Brooklyn, NY 11230", "United States"]}, "categories": [{"id": "4d954b0ea243a5684a65b473", "name": "Convenience Store", "pluralName": "Convenience Stores", "shortName": "Convenience Store", "icon": {"prefix": "https://ss3.4sqi.net/img/categories_v2/shops/conveniencestore_", "suffix": ".png"}, "primary": true}], "photos": {"count": 0, "groups": []}}, "referralId": "e-0-521f3f4311d253611d52ff9c-6"}, {"reasons": {"count": 0, "items": [{"summary": "This spot is popular", "type": "general", "reasonName": "globalInteractionReason"}]}, "venue": {"id": "4bc8de87fb84c9b69aeb193e", "name": "GameStop", "location": {"address": "1317 Avenue J", "lat": 40.625291, "lng": -73.962651, "labeledLatLngs": [{"label": "display", "lat": 40.625291, "lng": -73.962651}, {"label": "entrance", "lat": 40.625156, "lng": -73.962624}], "distance": 428, "postalCode": "11230", "cc": "US", "city": "Brooklyn", "state": "NY", "country": "United States", "formattedAddress": ["1317 Avenue J", "Brooklyn, NY 11230", "United States"]}, "categories": [{"id": "4bf58dd8d48988d10b951735", "name": "Video Game Store", "pluralName": "Video Game Stores", "shortName": "Video Games", "icon": {"prefix": "https://ss3.4sqi.net/img/categories_v2/shops/videogames_", "suffix": ".png"}, "primary": true}], "photos": {"count": 0, "groups": []}}, "referralId": "e-0-4bc8de87fb84c9b69aeb193e-7"}, {"reasons": {"count": 0, "items": [{"summary": "This spot is popular", "type": "general", "reasonName": "globalInteractionReason"}]}, "venue": {"id": "4c6b6c0f2d9976b0e6870b3a", "name": "Jerusalem II Pizza", "location": {"address": "1312 Avenue J", "crossStreet": "btw E 13th & E 14th St", "lat": 40.62491260375377, "lng": -73.96280733285991, "labeledLatLngs": [{"label": "display", "lat": 40.62491260375377, "lng": -73.96280733285991}, {"label": "entrance", "lat": 40.624911, "lng": -73.962812}], "distance": 446, "postalCode": "11230", "cc": "US", "city": "Brooklyn", "state": "NY", "country": "United States", "formattedAddress": ["1312 Avenue J (btw E 13th & E 14th St)", "Brooklyn, NY 11230", "United States"]}, "categories": [{"id": "4bf58dd8d48988d1ca941735", "name": "Pizza Place", "pluralName": "Pizza Places", "shortName": "Pizza", "icon": {"prefix": "https://ss3.4sqi.net/img/categories_v2/food/pizza_", "suffix": ".png"}, "primary": true}], "photos": {"count": 0, "groups": []}, "venuePage": {"id": "90490188"}}, "referralId": "e-0-4c6b6c0f2d9976b0e6870b3a-8"}, {"reasons": {"count": 0, "items": [{"summary": "This spot is popular", "type": "general", "reasonName": "globalInteractionReason"}]}, "venue": {"id": "4b55f3b5f964a5205ff827e3", "name": "Oh! Nuts Flatbush", "location": {"address": "1503 Avenue J", "crossStreet": "East 15st", "lat": 40.6252236206684, "lng": -73.96125497759228, "labeledLatLngs": [{"label": "display", "lat": 40.6252236206684, "lng": -73.96125497759228}], "distance": 311, "postalCode": "11230", "cc": "US", "city": "Brooklyn", "state": "NY", "country": "United States", "formattedAddress": ["1503 Avenue J (East 15st)", "Brooklyn, NY 11230", "United States"]}, "categories": [{"id": "4bf58dd8d48988d117951735", "name": "Candy Store", "pluralName": "Candy Stores", "shortName": "Candy Store", "icon": {"prefix": "https://ss3.4sqi.net/img/categories_v2/shops/candystore_", "suffix": ".png"}, "primary": true}], "photos": {"count": 0, "groups": []}}, "referralId": "e-0-4b55f3b5f964a5205ff827e3-9"}, {"reasons": {"count": 0, "items": [{"summary": "This spot is popular", "type": "general", "reasonName": "globalInteractionReason"}]}, "venue": {"id": "4c162b2f82a3c9b65bd4fff8", "name": "Bagel Hole", "location": {"address": "Ave J", "crossStreet": "E 15", "lat": 40.62531, "lng": -73.96154, "labeledLatLngs": [{"label": "display", "lat": 40.62531, "lng": -73.96154}], "distance": 334, "postalCode": "11215", "cc": "US", "city": "Brooklyn", "state": "NY", "country": "United States", "formattedAddress": ["Ave J (E 15)", "Brooklyn, NY 11215", "United States"]}, "categories": [{"id": "4bf58dd8d48988d179941735", "name": "Bagel Shop", "pluralName": "Bagel Shops", "shortName": "Bagels", "icon": {"prefix": "https://ss3.4sqi.net/img/categories_v2/food/bagels_", "suffix": ".png"}, "primary": true}], "photos": {"count": 0, "groups": []}}, "referralId": "e-0-4c162b2f82a3c9b65bd4fff8-10"}, {"reasons": {"count": 0, "items": [{"summary": "This spot is popular", "type": "general", "reasonName": "globalInteractionReason"}]}, "venue": {"id": "4ccc4a0fee23a143a2bf1da8", "name": "Midwood High School Field", "location": {"address": "E 17th St", "crossStreet": "Ave L", "lat": 40.62178621471226, "lng": -73.95946812724738, "labeledLatLngs": [{"label": "display", "lat": 40.62178621471226, "lng": -73.95946812724738}], "distance": 452, "cc": "US", "city": "Brooklyn", "state": "NY", "country": "United States", "formattedAddress": ["E 17th St (Ave L)", "Brooklyn, NY", "United States"]}, "categories": [{"id": "4bf58dd8d48988d15f941735", "name": "Field", "pluralName": "Fields", "shortName": "Field", "icon": {"prefix": "https://ss3.4sqi.net/img/categories_v2/parks_outdoors/field_", "suffix": ".png"}, "primary": true}], "photos": {"count": 0, "groups": []}}, "referralId": "e-0-4ccc4a0fee23a143a2bf1da8-11"}]