[{"reasons": {"count": 0, "items": [{"summary": "This spot is popular", "type": "general", "reasonName": "globalInteractionReason"}]}, "venue": {"id": "4bae54e7f964a520d1a33be3", "name": "Louis Armstrong House Museum", "location": {"address": "34-56 107th St", "crossStreet": "btwn 34th & 37th Ave", "lat": 40.75462065974465, "lng": -73.86137158678545, "labeledLatLngs": [{"label": "display", "lat": 40.75462065974465, "lng": -73.86137158678545}], "distance": 330, "postalCode": "11368", "cc": "US", "city": "Corona", "state": "NY", "country": "United States", "formattedAddress": ["34-56 107th St (btwn 34th & 37th Ave)", "Corona, NY 11368", "United States"]}, "categories": [{"id": "4bf58dd8d48988d181941735", "name": "Museum", "pluralName": "Museums", "shortName": "Museum", "icon": {"prefix": "https://ss3.4sqi.net/img/categories_v2/arts_entertainment/museum_", "suffix": ".png"}, "primary": true}], "photos": {"count": 0, "groups": []}}, "referralId": "e-0-4bae54e7f964a520d1a33be3-0"}, {"reasons": {"count": 0, "items": [{"summary": "This spot is popular", "type": "general", "reasonName": "globalInteractionReason"}]}, "venue": {"id": "4bf759d05ec320a13efa86d3", "name": "Los Amigos Chimichurry", "location": {"address": "108 Roosevelt Avenue", "lat": 40.75119479190749, "lng": -73.85692482355701, "labeledLatLngs": [{"label": "display", "lat": 40.75119479190749, "lng": -73.85692482355701}], "distance": 324, "postalCode": "11368", "cc": "US", "city": "Corona", "state": "NY", "country": "United States", "formattedAddress": ["108 Roosevelt Avenue", "Corona, NY 11368", "United States"]}, "categories": [{"id": "4bf58dd8d48988d1cd941735", "name": "South American Restaurant", "pluralName": "South American Restaurants", "shortName": "South American", "icon": {"prefix": "https://ss3.4sqi.net/img/categories_v2/food/argentinian_", "suffix": ".png"}, "primary": true}], "photos": {"count": 0, "groups": []}}, "referralId": "e-0-4bf759d05ec320a13efa86d3-1"}, {"reasons": {"count": 0, "items": [{"summary": "This spot is popular", "type": "general", "reasonName": "globalInteractionReason"}]}, "venue": {"id": "4d408328915a37040b38167f", "name": "Louis Armstrong Recreation Center/ELMCOR", "location": {"address": "39-16 108th St", "crossStreet": "Northern Blvd.", "lat": 40.75732397445696, "lng": -73.86107325323997, "labeledLatLngs": [{"label": "display", "lat": 40.75732397445696, "lng": -73.86107325323997}], "distance": 470, "postalCode": "11368", "cc": "US", "city": "Corona", "state": "NY", "country": "United States", "formattedAddress": ["39-16 108th St (Northern Blvd.)", "Corona, NY 11368", "United States"]}, "categories": [{"id": "4bf58dd8d48988d175941735", "name": "Gym / Fitness Center", "pluralName": "Gyms or Fitness Centers", "shortName": "Gym / Fitness", "icon": {"prefix": "https://ss3.4sqi.net/img/categories_v2/building/gym_", "suffix": ".png"}, "primary": true}], "photos": {"count": 0, "groups": []}}, "referralId": "e-0-4d408328915a37040b38167f-2"}, {"reasons": {"count": 0, "items": [{"summary": "This spot is popular", "type": "general", "reasonName": "globalInteractionReason"}]}, "venue": {"id": "4e24b65988776c2682f5d66d", "name": "Taste of Dolly's Pizza & Pasta Restaurant", "location": {"address": "40-07 111th St", "lat": 40.75128467004448, "lng": -73.8556192270517, "labeledLatLngs": [{"label": "display", "lat": 40.75128467004448, "lng": -73.8556192270517}], "distance": 349, "postalCode": "11368", "cc": "US", "city": "Corona", "state": "NY", "country": "United States", "formattedAddress": ["40-07 111th St", "Corona, NY 11368", "United States"]}, "categories": [{"id": "4bf58dd8d48988d1ca941735", "name": "Pizza Place", "pluralName": "Pizza Places", "shortName": "Pizza", "icon": {"prefix": "https://ss3.4sqi.net/img/categories_v2/food/pizza_", "suffix": ".png"}, "primary": true}], "photos": {"count": 0, "groups": []}}, "referralId": "e-0-4e24b65988776c2682f5d66d-3"}, {"reasons": {"count": 0, "items": [{"summary": "This spot is popular", "type": "general", "reasonName": "globalInteractionReason"}]}, "venue": {"id": "4fe22a8ce4b079e1961d356b", "name": "King Empanadas", "location": {"address": "37-55", "crossStreet": "108th Street", "lat": 40.75251260909173, "lng": -73.85968470769245, "labeledLatLngs": [{"label": "display", "lat": 40.75251260909173, "lng": -73.85968470769245}], "distance": 251, "postalCode": "11368", "cc": "US", "city": "Corona", "state": "NY", "country": "United States", "formattedAddress": ["37-55 (108th Street)", "Corona, NY 11368", "United States"]}, "categories": [{"id": "4bf58dd8d48988d144941735", "name": "Caribbean Restaurant", "pluralName": "Caribbean Restaurants", "shortName": "Caribbean", "icon": {"prefix": "https://ss3.4sqi.net/img/categories_v2/food/caribbean_", "suffix": ".png"}, "primary": true}], "photos": {"count": 0, "groups": []}}, "referralId": "e-0-4fe22a8ce4b079e1961d356b-4"}, {"reasons": {"count": 0, "items": [{"summary": "This spot is popular", "type": "general", "reasonName": "globalInteractionReason"}]}, "venue": {"id": "59a5c9f4dd70c5723c680227", "name": "Blink Fitness", "location": {"address": "108-14 Roosevelt Ave", "lat": 40.750747613703076, "lng": -73.85804550906369, "labeledLatLngs": [{"label": "display", "lat": 40.750747613703076, "lng": -73.85804550906369}], "distance": 372, "postalCode": "11368", "cc": "US", "city": "Corona", "state": "NY", "country": "United States", "formattedAddress": ["108-14 Roosevelt Ave", "Corona, NY 11368", "United States"]}, "categories": [{"id": "4bf58dd8d48988d176941735", "name": "Gym", "pluralName": "Gyms", "shortName": "Gym", "icon": {"prefix": "https://ss3.4sqi.net/img/categories_v2/building/gym_", "suffix": ".png"}, "primary": true}], "photos": {"count": 0, "groups": []}}, "referralId": "e-0-59a5c9f4dd70c5723c680227-5"}, {"reasons": {"count": 0, "items": [{"summary": "This spot is popular", "type": "general", "reasonName": "globalInteractionReason"}]}, "venue": {"id": "55c12c91498e9b0600141ceb", "name": "Best Western Plus Laguardia Airport Hotel Queens", "location": {"address": "112-26 Roosevelt Ave", "lat": 40.75205238411236, "lng": -73.85347723960876, "labeledLatLngs": [{"label": "display", "lat": 40.75205238411236, "lng": -73.85347723960876}], "distance": 408, "postalCode": "11368", "cc": "US", "city": "Corona", "state": "NY", "country": "United States", "formattedAddress": ["112-26 Roosevelt Ave", "Corona, NY 11368", "United States"]}, "categories": [{"id": "4bf58dd8d48988d1fa931735", "name": "Hotel", "pluralName": "Hotels", "shortName": "Hotel", "icon": {"prefix": "https://ss3.4sqi.net/img/categories_v2/travel/hotel_", "suffix": ".png"}, "primary": true}], "photos": {"count": 0, "groups": []}}, "referralId": "e-0-55c12c91498e9b0600141ceb-6"}, {"reasons": {"count": 0, "items": [{"summary": "This spot is popular", "type": "general", "reasonName": "globalInteractionReason"}]}, "venue": {"id": "4c57902d2308be9a8f9b596c", "name": "Lovera Grocery/Chimi Spot", "location": {"address": "37-27 108th St", "lat": 40.75315302886777, "lng": -73.85996567542888, "labeledLatLngs": [{"label": "display", "lat": 40.75315302886777, "lng": -73.85996567542888}], "distance": 230, "postalCode": "11368", "cc": "US", "city": "Corona", "state": "NY", "country": "United States", "formattedAddress": ["37-27 108th St", "Corona, NY 11368", "United States"]}, "categories": [{"id": "4bf58dd8d48988d146941735", "name": "Deli / Bodega", "pluralName": "Delis / Bodegas", "shortName": "Deli / Bodega", "icon": {"prefix": "https://ss3.4sqi.net/img/categories_v2/food/deli_", "suffix": ".png"}, "primary": true}], "photos": {"count": 0, "groups": []}}, "referralId": "e-0-4c57902d2308be9a8f9b596c-7"}, {"reasons": {"count": 0, "items": [{"summary": "This spot is popular", "type": "general", "reasonName": "globalInteractionReason"}]}, "venue": {"id": "4b505e09f964a5207d2127e3", "name": "Timmy's Deli", "location": {"address": "11102 Roosevelt Ave", "lat": 40.75118749758505, "lng": -73.85554335106734, "labeledLatLngs": [{"label": "display", "lat": 40.75118749758505, "lng": -73.85554335106734}], "distance": 361, "postalCode": "11368", "cc": "US", "city": "Corona", "state": "NY", "country": "United States", "formattedAddress": ["11102 Roosevelt Ave", "Corona, NY 11368", "United States"]}, "categories": [{"id": "4bf58dd8d48988d146941735", "name": "Deli / Bodega", "pluralName": "Delis / Bodegas", "shortName": "Deli / Bodega", "icon": {"prefix": "https://ss3.4sqi.net/img/categories_v2/food/deli_", "suffix": ".png"}, "primary": true}], "photos": {"count": 0, "groups": []}}, "referralId": "e-0-4b505e09f964a5207d2127e3-8"}, {"reasons": {"count": 0, "items": [{"summary": "This spot is popular", "type": "general", "reasonName": "globalInteractionReason"}]}, "venue": {"id": "4bd1c94c046076b076737271", "name": "Los Tres Potrillos", "location": {"address": "111-16 Roosevelt Ave", "lat": 40.75171913778217, "lng": -73.85520402280633, "labeledLatLngs": [{"label": "display", "lat": 40.75171913778217, "lng": -73.85520402280633}], "distance": 326, "postalCode": "11368", "cc": "US", "city": "Corona", "state": "NY", "country": "United States", "formattedAddress": ["111-16 Roosevelt Ave", "Corona, NY 11368", "United States"]}, "categories": [{"id": "4bf58dd8d48988d1c1941735", "name": "Mexican Restaurant", "pluralName": "Mexican Restaurants", "shortName": "Mexican", "icon": {"prefix": "https://ss3.4sqi.net/img/categories_v2/food/mexican_", "suffix": ".png"}, "primary": true}], "delivery": {"id": "285027", "url": "https://www.seamless.com/menu/los-tres-potrillos-11116-roosevelt-ave-corona/285027?affiliate=1131&utm_source=foursquare-affiliate-network&utm_medium=affiliate&utm_campaign=1131&utm_content=285027", "provider": {"name": "seamless", "icon": {"prefix": "https://fastly.4sqi.net/img/general/cap/", "sizes": [40, 50], "name": "/delivery_provider_seamless_20180129.png"}}}, "photos": {"count": 0, "groups": []}}, "referralId": "e-0-4bd1c94c046076b076737271-9"}, {"reasons": {"count": 0, "items": [{"summary": "This spot is popular", "type": "general", "reasonName": "globalInteractionReason"}]}, "venue": {"id": "4b5498eef964a520d3c127e3", "name": "The Pine Restaurant", "location": {"address": "37-10 114th St", "crossStreet": "at 37th Ave", "lat": 40.75466135707651, "lng": -73.85392465242302, "labeledLatLngs": [{"label": "display", "lat": 40.75466135707651, "lng": -73.85392465242302}], "distance": 310, "postalCode": "11368", "cc": "US", "neighborhood": "North Corona", "city": "Corona", "state": "NY", "country": "United States", "formattedAddress": ["37-10 114th St (at 37th Ave)", "Corona, NY 11368", "United States"]}, "categories": [{"id": "4bf58dd8d48988d1d5941735", "name": "Hotel Bar", "pluralName": "Hotel Bars", "shortName": "Hotel Bar", "icon": {"prefix": "https://ss3.4sqi.net/img/categories_v2/travel/hotel_bar_", "suffix": ".png"}, "primary": true}], "photos": {"count": 0, "groups": []}}, "referralId": "e-0-4b5498eef964a520d3c127e3-10"}, {"reasons": {"count": 0, "items": [{"summary": "This spot is popular", "type": "general", "reasonName": "globalInteractionReason"}]}, "venue": {"id": "4c5ada90f346c92869fb4fca", "name": "McDonald's", "location": {"address": "33-09 98th St", "lat": 40.75683153885075, "lng": -73.85937383431204, "labeledLatLngs": [{"label": "display", "lat": 40.75683153885075, "lng": -73.85937383431204}], "distance": 344, "postalCode": "11368", "cc": "US", "city": "Corona", "state": "NY", "country": "United States", "formattedAddress": ["33-09 98th St", "Corona, NY 11368", "United States"]}, "categories": [{"id": "4bf58dd8d48988d16e941735", "name": "Fast Food Restaurant", "pluralName": "Fast Food Restaurants", "shortName": "Fast Food", "icon": {"prefix": "https://ss3.4sqi.net/img/categories_v2/food/fastfood_", "suffix": ".png"}, "primary": true}], "photos": {"count": 0, "groups": []}}, "referralId": "e-0-4c5ada90f346c92869fb4fca-11"}, {"reasons": {"count": 0, "items": [{"summary": "This spot is popular", "type": "general", "reasonName": "globalInteractionReason"}]}, "venue": {"id": "4c34ecb4452620a17cf2250f", "name": "111 Happy Tails Dog Grooming", "location": {"address": "111-25 Roosevelt Ave", "lat": 40.751677755555434, "lng": -73.85635309961873, "labeledLatLngs": [{"label": "display", "lat": 40.751677755555434, "lng": -73.85635309961873}], "distance": 283, "postalCode": "11368", "cc": "US", "city": "Corona", "state": "NY", "country": "United States", "formattedAddress": ["111-25 Roosevelt Ave", "Corona, NY 11368", "United States"]}, "categories": [{"id": "4bf58dd8d48988d100951735", "name": "Pet Store", "pluralName": "Pet Stores", "shortName": "Pet Store", "icon": {"prefix": "https://ss3.4sqi.net/img/categories_v2/shops/pet_store_", "suffix": ".png"}, "primary": true}], "photos": {"count": 0, "groups": []}}, "referralId": "e-0-4c34ecb4452620a17cf2250f-12"}, {"reasons": {"count": 0, "items": [{"summary": "This spot is popular", "type": "general", "reasonName": "globalInteractionReason"}]}, "venue": {"id": "4c4884bc0f5aa593c9818176", "name": "The Cellphone Store (Tmobile Dealer)", "location": {"address": "1336 41rd", "lat": 40.75729294413392, "lng": -73.85746147343922, "labeledLatLngs": [{"label": "display", "lat": 40.75729294413392, "lng": -73.85746147343922}], "distance": 358, "postalCode": "11355", "cc": "US", "city": "Flushing", "state": "NY", "country": "United States", "formattedAddress": ["1336 41rd", "Flushing, NY 11355", "United States"]}, "categories": [{"id": "4f04afc02fb6e1c99f3db0bc", "name": "Mobile Phone Shop", "pluralName": "Mobile Phone Shops", "shortName": "Mobile Phones", "icon": {"prefix": "https://ss3.4sqi.net/img/categories_v2/shops/mobilephoneshop_", "suffix": ".png"}, "primary": true}], "photos": {"count": 0, "groups": []}}, "referralId": "e-0-4c4884bc0f5aa593c9818176-13"}, {"reasons": {"count": 0, "items": [{"summary": "This spot is popular", "type": "general", "reasonName": "globalInteractionReason"}]}, "venue": {"id": "4bbd2863a0a0c9b66c5a1b0f", "name": "El Fogon Costeno", "location": {"address": "10912 Northern Blvd", "lat": 40.75777004156037, "lng": -73.85988884203466, "labeledLatLngs": [{"label": "display", "lat": 40.75777004156037, "lng": -73.85988884203466}], "distance": 457, "postalCode": "11368", "cc": "US", "city": "Corona", "state": "NY", "country": "United States", "formattedAddress": ["10912 Northern Blvd", "Corona, NY 11368", "United States"]}, "categories": [{"id": "4bf58dd8d48988d1be941735", "name": "Latin American Restaurant", "pluralName": "Latin American Restaurants", "shortName": "Latin American", "icon": {"prefix": "https://ss3.4sqi.net/img/categories_v2/food/latinamerican_", "suffix": ".png"}, "primary": true}], "photos": {"count": 0, "groups": []}}, "referralId": "e-0-4bbd2863a0a0c9b66c5a1b0f-14"}, {"reasons": {"count": 0, "items": [{"summary": "This spot is popular", "type": "general", "reasonName": "globalInteractionReason"}]}, "venue": {"id": "4daf8e1781548efb15ae8517", "name": "Bodega", "location": {"address": "111-02 Northern Blvd", "lat": 40.757731, "lng": -73.85834100000001, "labeledLatLngs": [{"label": "display", "lat": 40.757731, "lng": -73.85834100000001}, {"label": "entrance", "lat": 40.757806, "lng": -73.858381}], "distance": 413, "postalCode": "11368", "cc": "US", "city": "New York", "state": "NY", "country": "United States", "formattedAddress": ["111-02 Northern Blvd", "New York, NY 11368", "United States"]}, "categories": [{"id": "4bf58dd8d48988d146941735", "name": "Deli / Bodega", "pluralName": "Delis / Bodegas", "shortName": "Deli / Bodega", "icon": {"prefix": "https://ss3.4sqi.net/img/categories_v2/food/deli_", "suffix": ".png"}, "primary": true}], "photos": {"count": 0, "groups": []}}, "referralId": "e-0-4daf8e1781548efb15ae8517-15"}, {"reasons": {"count": 0, "items": [{"summary": "This spot is popular", "type": "general", "reasonName": "globalInteractionReason"}]}, "venue": {"id": "538130b0498e60dfd7b09f94", "name": "Taste of Dolly's", "location": {"address": "40-07 111th St", "crossStreet": "Roosevelt Avenue", "lat": 40.757850646972656, "lng": -73.85653686523438, "labeledLatLngs": [{"label": "display", "lat": 40.757850646972656, "lng": -73.85653686523438}], "distance": 428, "postalCode": "11368", "cc": "US", "city": "Corona", "state": "NY", "country": "United States", "formattedAddress": ["40-07 111th St (Roosevelt Avenue)", "Corona, NY 11368", "United States"]}, "categories": [{"id": "4bf58dd8d48988d1ca941735", "name": "Pizza Place", "pluralName": "Pizza Places", "shortName": "Pizza", "icon": {"prefix": "https://ss3.4sqi.net/img/categories_v2/food/pizza_", "suffix": ".png"}, "primary": true}], "photos": {"count": 0, "groups": []}}, "referralId": "e-0-538130b0498e60dfd7b09f94-16"}, {"reasons": {"count": 0, "items": [{"summary": "This spot is popular", "type": "general", "reasonName": "globalInteractionReason"}]}, "venue": {"id": "59811b0a340a586fccedf3e1", "name": "NEPUS CRAFTS INC", "location": {"address": "111-67  41ST AVE, Apt Floor 2", "lat": 40.7517514, "lng": -73.8532611, "labeledLatLngs": [{"label": "display", "lat": 40.7517514, "lng": -73.8532611}], "distance": 442, "postalCode": "11368", "cc": "US", "city": "Corona", "state": "NY", "country": "United States", "formattedAddress": ["111-67  41ST AVE, Apt Floor 2", "Corona, NY 11368", "United States"]}, "categories": [{"id": "4bf58dd8d48988d111951735", "name": "Jewelry Store", "pluralName": "Jewelry Stores", "shortName": "Jewelry", "icon": {"prefix": "https://ss3.4sqi.net/img/categories_v2/shops/jewelry_", "suffix": ".png"}, "primary": true}], "photos": {"count": 0, "groups": []}}, "referralId": "e-0-59811b0a340a586fccedf3e1-17"}, {"reasons": {"count": 0, "items": [{"summary": "This spot is popular", "type": "general", "reasonName": "globalInteractionReason"}]}, "venue": {"id": "523f920611d26ef616737c7c", "name": "mi casita bakery & restaurant", "location": {"address": "109-08 Northern Blvd", "lat": 40.75776161011041, "lng": -73.85989068541006, "labeledLatLngs": [{"label": "display", "lat": 40.75776161011041, "lng": -73.85989068541006}], "distance": 456, "postalCode": "11368", "cc": "US", "city": "Corona", "state": "NY", "country": "United States", "formattedAddress": ["109-08 Northern Blvd", "Corona, NY 11368", "United States"]}, "categories": [{"id": "4bf58dd8d48988d16a941735", "name": "Bakery", "pluralName": "Bakeries", "shortName": "Bakery", "icon": {"prefix": "https://ss3.4sqi.net/img/categories_v2/food/bakery_", "suffix": ".png"}, "primary": true}], "photos": {"count": 0, "groups": []}}, "referralId": "e-0-523f920611d26ef616737c7c-18"}, {"reasons": {"count": 0, "items": [{"summary": "This spot is popular", "type": "general", "reasonName": "globalInteractionReason"}]}, "venue": {"id": "5276758311d2997861444884", "name": "SpringHill Suites Fitness Center", "location": {"address": "112-15 Northern Blvd", "lat": 40.75823432751781, "lng": -73.85754761622074, "labeledLatLngs": [{"label": "display", "lat": 40.75823432751781, "lng": -73.85754761622074}], "distance": 463, "postalCode": "11368", "cc": "US", "city": "Corona", "state": "NY", "country": "United States", "formattedAddress": ["112-15 Northern Blvd", "Corona, NY 11368", "United States"]}, "categories": [{"id": "4bf58dd8d48988d175941735", "name": "Gym / Fitness Center", "pluralName": "Gyms or Fitness Centers", "shortName": "Gym / Fitness", "icon": {"prefix": "https://ss3.4sqi.net/img/categories_v2/building/gym_", "suffix": ".png"}, "primary": true}], "photos": {"count": 0, "groups": []}}, "referralId": "e-0-5276758311d2997861444884-19"}, {"reasons": {"count": 0, "items": [{"summary": "This spot is popular", "type": "general", "reasonName": "globalInteractionReason"}]}, "venue": {"id": "56ef1448cd10e515df086d15", "name": "111 Deli Stop Corp", "location": {"lat": 40.758071, "lng": -73.859084, "labeledLatLngs": [{"label": "display", "lat": 40.758071, "lng": -73.859084}], "distance": 464, "cc": "US", "city": "Queens", "state": "NY", "country": "United States", "formattedAddress": ["Queens, NY", "United States"]}, "categories": [{"id": "4bf58dd8d48988d146941735", "name": "Deli / Bodega", "pluralName": "Delis / Bodegas", "shortName": "Deli / Bodega", "icon": {"prefix": "https://ss3.4sqi.net/img/categories_v2/food/deli_", "suffix": ".png"}, "primary": true}], "photos": {"count": 0, "groups": []}}, "referralId": "e-0-56ef1448cd10e515df086d15-20"}, {"reasons": {"count": 0, "items": [{"summary": "This spot is popular", "type": "general", "reasonName": "globalInteractionReason"}]}, "venue": {"id": "4c83c433dc018cfac038db6c", "name": "Beky Bakery", "location": {"address": "37-78 103rd St", "lat": 40.751381751606, "lng": -73.85313131436446, "labeledLatLngs": [{"label": "display", "lat": 40.751381751606, "lng": -73.85313131436446}], "distance": 475, "postalCode": "11368", "cc": "US", "city": "Corona", "state": "NY", "country": "United States", "formattedAddress": ["37-78 103rd St", "Corona, NY 11368", "United States"]}, "categories": [{"id": "4bf58dd8d48988d16a941735", "name": "Bakery", "pluralName": "Bakeries", "shortName": "Bakery", "icon": {"prefix": "https://ss3.4sqi.net/img/categories_v2/food/bakery_", "suffix": ".png"}, "primary": true}], "photos": {"count": 0, "groups": []}}, "referralId": "e-0-4c83c433dc018cfac038db6c-21"}]