[{"reasons": {"count": 0, "items": [{"summary": "This spot is popular", "type": "general", "reasonName": "globalInteractionReason"}]}, "venue": {"id": "4ba54182f964a52071f238e3", "name": "Staples", "location": {"address": "1880 Coney Island Avenue", "lat": 40.6119467, "lng": -73.9629501, "labeledLatLngs": [{"label": "display", "lat": 40.6119467, "lng": -73.9629501}], "distance": 474, "postalCode": "11230", "cc": "US", "city": "Brooklyn", "state": "NY", "country": "United States", "formattedAddress": ["1880 Coney Island Avenue", "Brooklyn, NY 11230", "United States"]}, "categories": [{"id": "4bf58dd8d48988d121951735", "name": "Paper / Office Supplies Store", "pluralName": "Paper / Office Supplies Stores", "shortName": "Office Supplies", "icon": {"prefix": "https://ss3.4sqi.net/img/categories_v2/shops/papergoods_", "suffix": ".png"}, "primary": true}], "photos": {"count": 0, "groups": []}}, "referralId": "e-0-4ba54182f964a52071f238e3-0"}, {"reasons": {"count": 0, "items": [{"summary": "This spot is popular", "type": "general", "reasonName": "globalInteractionReason"}]}, "venue": {"id": "50199599011cecae1f8b8968", "name": "Moldova Restaurant Brooklyn", "location": {"address": "1827 Coney Island Ave", "crossStreet": "Coney Island Ave and Ave O", "lat": 40.61294186114433, "lng": -73.96286899619373, "labeledLatLngs": [{"label": "display", "lat": 40.61294186114433, "lng": -73.96286899619373}, {"label": "entrance", "lat": 40.612926, "lng": -73.962746}], "distance": 464, "postalCode": "11230", "cc": "US", "city": "Brooklyn", "state": "NY", "country": "United States", "formattedAddress": ["1827 Coney Island Ave (Coney Island Ave and Ave O)", "Brooklyn, NY 11230", "United States"]}, "categories": [{"id": "4bf58dd8d48988d1cc941735", "name": "Steakhouse", "pluralName": "Steakhouses", "shortName": "Steakhouse", "icon": {"prefix": "https://ss3.4sqi.net/img/categories_v2/food/steakhouse_", "suffix": ".png"}, "primary": true}], "photos": {"count": 0, "groups": []}}, "referralId": "e-0-50199599011cecae1f8b8968-1"}, {"reasons": {"count": 0, "items": [{"summary": "This spot is popular", "type": "general", "reasonName": "globalInteractionReason"}]}, "venue": {"id": "4be0b1bbcb81c9b61abd668b", "name": "Oh! Bagel", "location": {"address": "1755 Coney Island Ave", "crossStreet": "Ave N", "lat": 40.614620194064045, "lng": -73.96320566611656, "labeledLatLngs": [{"label": "display", "lat": 40.614620194064045, "lng": -73.96320566611656}], "distance": 469, "postalCode": "11230", "cc": "US", "city": "Brooklyn", "state": "NY", "country": "United States", "formattedAddress": ["1755 Coney Island Ave (Ave N)", "Brooklyn, NY 11230", "United States"]}, "categories": [{"id": "4bf58dd8d48988d179941735", "name": "Bagel Shop", "pluralName": "Bagel Shops", "shortName": "Bagels", "icon": {"prefix": "https://ss3.4sqi.net/img/categories_v2/food/bagels_", "suffix": ".png"}, "primary": true}], "photos": {"count": 0, "groups": []}}, "referralId": "e-0-4be0b1bbcb81c9b61abd668b-2"}, {"reasons": {"count": 0, "items": [{"summary": "This spot is popular", "type": "general", "reasonName": "globalInteractionReason"}]}, "venue": {"id": "4e910d629a52db7dba84fcb8", "name": "Russian Night Club Taous", "location": {"address": "1814 Coney Island ave (between Avenue N & Avenue O) Neighborhoods: Ocean Parkway, Midwood", "lat": 40.61314765780938, "lng": -73.96333100591771, "labeledLatLngs": [{"label": "display", "lat": 40.61314765780938, "lng": -73.96333100591771}], "distance": 425, "postalCode": "11230", "cc": "US", "city": "Brooklyn", "state": "NY", "country": "United States", "formattedAddress": ["1814 Coney Island ave (between Avenue N & Avenue O) Neighborhoods: Ocean Parkway, Midwood", "Brooklyn, NY 11230", "United States"]}, "categories": [{"id": "4bf58dd8d48988d1f1931735", "name": "General Entertainment", "pluralName": "General Entertainment", "shortName": "Entertainment", "icon": {"prefix": "https://ss3.4sqi.net/img/categories_v2/arts_entertainment/default_", "suffix": ".png"}, "primary": true}], "photos": {"count": 0, "groups": []}}, "referralId": "e-0-4e910d629a52db7dba84fcb8-3"}, {"reasons": {"count": 0, "items": [{"summary": "This spot is popular", "type": "general", "reasonName": "globalInteractionReason"}]}, "venue": {"id": "5713c023498e6653dfa1855d", "name": "Dunkin", "location": {"address": "1775 Coney Island Ave", "crossStreet": "Avenue N", "lat": 40.61436636178479, "lng": -73.96287380369449, "labeledLatLngs": [{"label": "display", "lat": 40.61436636178479, "lng": -73.96287380369449}], "distance": 486, "postalCode": "11230", "cc": "US", "city": "Brooklyn", "state": "NY", "country": "United States", "formattedAddress": ["1775 Coney Island Ave (Avenue N)", "Brooklyn, NY 11230", "United States"]}, "categories": [{"id": "4bf58dd8d48988d148941735", "name": "Donut Shop", "pluralName": "Donut Shops", "shortName": "Donuts", "icon": {"prefix": "https://ss3.4sqi.net/img/categories_v2/food/donuts_", "suffix": ".png"}, "primary": true}], "photos": {"count": 0, "groups": []}}, "referralId": "e-0-5713c023498e6653dfa1855d-4"}, {"reasons": {"count": 0, "items": [{"summary": "This spot is popular", "type": "general", "reasonName": "globalInteractionReason"}]}, "venue": {"id": "4dab6c73fa8cc764974ce304", "name": "Pomegrante", "location": {"address": "1507 Coney Island Ave", "lat": 40.614242187381365, "lng": -73.96523084802386, "labeledLatLngs": [{"label": "display", "lat": 40.614242187381365, "lng": -73.96523084802386}], "distance": 295, "postalCode": "11230", "cc": "US", "city": "Brooklyn", "state": "NY", "country": "United States", "formattedAddress": ["1507 Coney Island Ave", "Brooklyn, NY 11230", "United States"]}, "categories": [{"id": "4bf58dd8d48988d118951735", "name": "Grocery Store", "pluralName": "Grocery Stores", "shortName": "Grocery Store", "icon": {"prefix": "https://ss3.4sqi.net/img/categories_v2/shops/food_grocery_", "suffix": ".png"}, "primary": true}], "photos": {"count": 0, "groups": []}}, "referralId": "e-0-4dab6c73fa8cc764974ce304-5"}, {"reasons": {"count": 0, "items": [{"summary": "This spot is popular", "type": "general", "reasonName": "globalInteractionReason"}]}, "venue": {"id": "4e054958b61c60b045375381", "name": "Colonel David Marcus Playground", "location": {"lat": 40.61020127610596, "lng": -73.9686576336712, "labeledLatLngs": [{"label": "display", "lat": 40.61020127610596, "lng": -73.9686576336712}], "distance": 319, "postalCode": "11223", "cc": "US", "city": "Brooklyn", "state": "NY", "country": "United States", "formattedAddress": ["Brooklyn, NY 11223", "United States"]}, "categories": [{"id": "4bf58dd8d48988d1e7941735", "name": "Playground", "pluralName": "Playgrounds", "shortName": "Playground", "icon": {"prefix": "https://ss3.4sqi.net/img/categories_v2/parks_outdoors/playground_", "suffix": ".png"}, "primary": true}], "photos": {"count": 0, "groups": []}}, "referralId": "e-0-4e054958b61c60b045375381-6"}, {"reasons": {"count": 0, "items": [{"summary": "This spot is popular", "type": "general", "reasonName": "globalInteractionReason"}]}, "venue": {"id": "4b4a5b6af964a520158526e3", "name": "FYBO Gym", "location": {"address": "Ave N", "crossStreet": "E. 51st St.", "lat": 40.61515685154206, "lng": -73.97190597555279, "labeledLatLngs": [{"label": "display", "lat": 40.61515685154206, "lng": -73.97190597555279}], "distance": 379, "postalCode": "11230", "cc": "US", "city": "Brooklyn", "state": "NY", "country": "United States", "formattedAddress": ["Ave N (E. 51st St.)", "Brooklyn, NY 11230", "United States"]}, "categories": [{"id": "4bf58dd8d48988d176941735", "name": "Gym", "pluralName": "Gyms", "shortName": "Gym", "icon": {"prefix": "https://ss3.4sqi.net/img/categories_v2/building/gym_", "suffix": ".png"}, "primary": true}], "photos": {"count": 0, "groups": []}}, "referralId": "e-0-4b4a5b6af964a520158526e3-7"}, {"reasons": {"count": 0, "items": [{"summary": "This spot is popular", "type": "general", "reasonName": "globalInteractionReason"}]}, "venue": {"id": "4e73883952b145ffbf9c5409", "name": "MTA B9 Bus stop", "location": {"address": "Avenue N", "crossStreet": "East 5th", "lat": 40.61525841126051, "lng": -73.9718863288735, "labeledLatLngs": [{"label": "display", "lat": 40.61525841126051, "lng": -73.9718863288735}], "distance": 385, "postalCode": "11223", "cc": "US", "city": "Brooklyn", "state": "NY", "country": "United States", "formattedAddress": ["Avenue N (East 5th)", "Brooklyn, NY 11223", "United States"]}, "categories": [{"id": "4bf58dd8d48988d1fe931735", "name": "Bus Station", "pluralName": "Bus Stations", "shortName": "Bus Station", "icon": {"prefix": "https://ss3.4sqi.net/img/categories_v2/travel/busstation_", "suffix": ".png"}, "primary": true}], "photos": {"count": 0, "groups": []}}, "referralId": "e-0-4e73883952b145ffbf9c5409-8"}, {"reasons": {"count": 0, "items": [{"summary": "This spot is popular", "type": "general", "reasonName": "globalInteractionReason"}]}, "venue": {"id": "54e3601f498e149f1c35b03f", "name": "Cakes and Crumbs", "location": {"address": "1496 E 2nd St", "lat": 40.613135, "lng": -73.972962, "labeledLatLngs": [{"label": "display", "lat": 40.613135, "lng": -73.972962}, {"label": "entrance", "lat": 40.613168, "lng": -73.972872}], "distance": 388, "postalCode": "11230", "cc": "US", "city": "Brooklyn", "state": "NY", "country": "United States", "formattedAddress": ["1496 E 2nd St", "Brooklyn, NY 11230", "United States"]}, "categories": [{"id": "4bf58dd8d48988d1d0941735", "name": "Dessert Shop", "pluralName": "Dessert Shops", "shortName": "Desserts", "icon": {"prefix": "https://ss3.4sqi.net/img/categories_v2/food/dessert_", "suffix": ".png"}, "primary": true}], "photos": {"count": 0, "groups": []}, "venuePage": {"id": "120266492"}}, "referralId": "e-0-54e3601f498e149f1c35b03f-9"}, {"reasons": {"count": 0, "items": [{"summary": "This spot is popular", "type": "general", "reasonName": "globalInteractionReason"}]}, "venue": {"id": "4edff3149911bd13a89d1ddd", "name": "Boogie Man", "location": {"address": "At", "crossStreet": "Gg", "lat": 40.61527547678351, "lng": -73.97191745450665, "labeledLatLngs": [{"label": "display", "lat": 40.61527547678351, "lng": -73.97191745450665}], "distance": 388, "postalCode": "11230", "cc": "US", "city": "Ghjgyy", "state": "NY", "country": "United States", "formattedAddress": ["At (Gg)", "Ghjgyy, NY 11230", "United States"]}, "categories": [{"id": "4bf58dd8d48988d11c941735", "name": "Sake Bar", "pluralName": "Sake Bars", "shortName": "Sake Bar", "icon": {"prefix": "https://ss3.4sqi.net/img/categories_v2/nightlife/sake_", "suffix": ".png"}, "primary": true}], "photos": {"count": 0, "groups": []}}, "referralId": "e-0-4edff3149911bd13a89d1ddd-10"}, {"reasons": {"count": 0, "items": [{"summary": "This spot is popular", "type": "general", "reasonName": "globalInteractionReason"}]}, "venue": {"id": "4f3558dfe4b0aee3b3f81083", "name": "The Pond", "location": {"address": "295 Avenue O", "crossStreet": "McDonald Ave", "lat": 40.611547, "lng": -73.973092, "labeledLatLngs": [{"label": "display", "lat": 40.611547, "lng": -73.973092}], "distance": 433, "postalCode": "11230", "cc": "US", "city": "Brooklyn", "state": "NY", "country": "United States", "formattedAddress": ["295 Avenue O (McDonald Ave)", "Brooklyn, NY 11230", "United States"]}, "categories": [{"id": "4bf58dd8d48988d16a941735", "name": "Bakery", "pluralName": "Bakeries", "shortName": "Bakery", "icon": {"prefix": "https://ss3.4sqi.net/img/categories_v2/food/bakery_", "suffix": ".png"}, "primary": true}], "photos": {"count": 0, "groups": []}}, "referralId": "e-0-4f3558dfe4b0aee3b3f81083-11"}, {"reasons": {"count": 0, "items": [{"summary": "This spot is popular", "type": "general", "reasonName": "globalInteractionReason"}]}, "venue": {"id": "4bc1e7bd461576b03f767c32", "name": "Kitchen Caboodles", "location": {"address": "492 Avenue P", "lat": 40.608999, "lng": -73.969261, "labeledLatLngs": [{"label": "display", "lat": 40.608999, "lng": -73.969261}, {"label": "entrance", "lat": 40.609086, "lng": -73.969276}], "distance": 458, "postalCode": "11223", "cc": "US", "city": "Brooklyn", "state": "NY", "country": "United States", "formattedAddress": ["492 Avenue P", "Brooklyn, NY 11223", "United States"]}, "categories": [{"id": "4bf58dd8d48988d1f9941735", "name": "Food & Drink Shop", "pluralName": "Food & Drink Shops", "shortName": "Food & Drink", "icon": {"prefix": "https://ss3.4sqi.net/img/categories_v2/shops/foodanddrink_", "suffix": ".png"}, "primary": true}], "photos": {"count": 0, "groups": []}}, "referralId": "e-0-4bc1e7bd461576b03f767c32-12"}, {"reasons": {"count": 0, "items": [{"summary": "This spot is popular", "type": "general", "reasonName": "globalInteractionReason"}]}, "venue": {"id": "50c89e6de4b0fae23cd2e518", "name": "Dear Drugs", "location": {"address": "490 Avenue P", "crossStreet": "East 5th And East 4th", "lat": 40.608989, "lng": -73.969323, "labeledLatLngs": [{"label": "display", "lat": 40.608989, "lng": -73.969323}, {"label": "entrance", "lat": 40.609079, "lng": -73.969342}], "distance": 460, "postalCode": "11223", "cc": "US", "city": "Brooklyn", "state": "NY", "country": "United States", "formattedAddress": ["490 Avenue P (East 5th And East 4th)", "Brooklyn, NY 11223", "United States"]}, "categories": [{"id": "4bf58dd8d48988d10f951735", "name": "Pharmacy", "pluralName": "Pharmacies", "shortName": "Pharmacy", "icon": {"prefix": "https://ss3.4sqi.net/img/categories_v2/shops/pharmacy_", "suffix": ".png"}, "primary": true}], "photos": {"count": 0, "groups": []}}, "referralId": "e-0-50c89e6de4b0fae23cd2e518-13"}, {"reasons": {"count": 0, "items": [{"summary": "This spot is popular", "type": "general", "reasonName": "globalInteractionReason"}]}, "venue": {"id": "4d88d33a6daeb60c50b842e0", "name": "Schnapps Kosher Wine & Whiskey Shop", "location": {"address": "404 Avenue M", "crossStreet": "btwn e 4st and e 4th st", "lat": 40.616609000000004, "lng": -73.971163, "labeledLatLngs": [{"label": "display", "lat": 40.616609000000004, "lng": -73.971163}, {"label": "entrance", "lat": 40.61667, "lng": -73.971174}], "distance": 460, "postalCode": "11230", "cc": "US", "city": "Brooklyn", "state": "NY", "country": "United States", "formattedAddress": ["404 Avenue M (btwn e 4st and e 4th st)", "Brooklyn, NY 11230", "United States"]}, "categories": [{"id": "4bf58dd8d48988d186941735", "name": "Liquor Store", "pluralName": "Liquor Stores", "shortName": "Liquor Store", "icon": {"prefix": "https://ss3.4sqi.net/img/categories_v2/shops/food_liquor_", "suffix": ".png"}, "primary": true}], "photos": {"count": 0, "groups": []}, "venuePage": {"id": "47107875"}}, "referralId": "e-0-4d88d33a6daeb60c50b842e0-14"}, {"reasons": {"count": 0, "items": [{"summary": "This spot is popular", "type": "general", "reasonName": "globalInteractionReason"}]}, "venue": {"id": "4d939621b803b60ca8463947", "name": "La Piccola", "location": {"address": "1591 McDonald Ave", "crossStreet": "Ave N", "lat": 40.614253999999995, "lng": -73.973706, "labeledLatLngs": [{"label": "display", "lat": 40.614253999999995, "lng": -73.973706}, {"label": "entrance", "lat": 40.614242, "lng": -73.973842}], "distance": 470, "postalCode": "11230", "cc": "US", "city": "Brooklyn", "state": "NY", "country": "United States", "formattedAddress": ["1591 McDonald Ave (Ave N)", "Brooklyn, NY 11230", "United States"]}, "categories": [{"id": "4bf58dd8d48988d146941735", "name": "Deli / Bodega", "pluralName": "Delis / Bodegas", "shortName": "Deli / Bodega", "icon": {"prefix": "https://ss3.4sqi.net/img/categories_v2/food/deli_", "suffix": ".png"}, "primary": true}], "photos": {"count": 0, "groups": []}}, "referralId": "e-0-4d939621b803b60ca8463947-15"}, {"reasons": {"count": 0, "items": [{"summary": "This spot is popular", "type": "general", "reasonName": "globalInteractionReason"}]}, "venue": {"id": "5235cb9c11d2d885f19ab018", "name": "Pizza Boss", "location": {"address": "410 Avenue M", "lat": 40.616811, "lng": -73.971095, "labeledLatLngs": [{"label": "display", "lat": 40.616811, "lng": -73.971095}, {"label": "entrance", "lat": 40.616686, "lng": -73.971032}], "distance": 476, "postalCode": "11230", "cc": "US", "city": "Brooklyn", "state": "NY", "country": "United States", "formattedAddress": ["410 Avenue M", "Brooklyn, NY 11230", "United States"]}, "categories": [{"id": "4bf58dd8d48988d1ca941735", "name": "Pizza Place", "pluralName": "Pizza Places", "shortName": "Pizza", "icon": {"prefix": "https://ss3.4sqi.net/img/categories_v2/food/pizza_", "suffix": ".png"}, "primary": true}], "photos": {"count": 0, "groups": []}}, "referralId": "e-0-5235cb9c11d2d885f19ab018-16"}, {"reasons": {"count": 0, "items": [{"summary": "This spot is popular", "type": "general", "reasonName": "globalInteractionReason"}]}, "venue": {"id": "5207d05d11d2e16e2a077347", "name": "King Solomon Express", "location": {"address": "1787 Coney Island Ave", "lat": 40.61385, "lng": -73.96282, "labeledLatLngs": [{"label": "display", "lat": 40.61385, "lng": -73.96282}, {"label": "entrance", "lat": 40.613783, "lng": -73.962911}], "distance": 476, "postalCode": "11230", "cc": "US", "city": "Brooklyn", "state": "NY", "country": "United States", "formattedAddress": ["1787 Coney Island Ave", "Brooklyn, NY 11230", "United States"]}, "categories": [{"id": "4bf58dd8d48988d1c4941735", "name": "Restaurant", "pluralName": "Restaurants", "shortName": "Restaurant", "icon": {"prefix": "https://ss3.4sqi.net/img/categories_v2/food/default_", "suffix": ".png"}, "primary": true}], "photos": {"count": 0, "groups": []}}, "referralId": "e-0-5207d05d11d2e16e2a077347-17"}, {"reasons": {"count": 0, "items": [{"summary": "This spot is popular", "type": "general", "reasonName": "globalInteractionReason"}]}, "venue": {"id": "4d8108009d78a35d457c4d0f", "name": "Schnapps Kosher Wine", "location": {"address": "404 Avenue M", "crossStreet": "btwn E4 and E5 ST", "lat": 40.61685749357917, "lng": -73.97113114458583, "labeledLatLngs": [{"label": "display", "lat": 40.61685749357917, "lng": -73.97113114458583}], "distance": 483, "postalCode": "11230", "cc": "US", "city": "Brooklyn", "state": "NY", "country": "United States", "formattedAddress": ["404 Avenue M (btwn E4 and E5 ST)", "Brooklyn, NY 11230", "United States"]}, "categories": [{"id": "4bf58dd8d48988d186941735", "name": "Liquor Store", "pluralName": "Liquor Stores", "shortName": "Liquor Store", "icon": {"prefix": "https://ss3.4sqi.net/img/categories_v2/shops/food_liquor_", "suffix": ".png"}, "primary": true}], "photos": {"count": 0, "groups": []}}, "referralId": "e-0-4d8108009d78a35d457c4d0f-18"}, {"reasons": {"count": 0, "items": [{"summary": "This spot is popular", "type": "general", "reasonName": "globalInteractionReason"}]}, "venue": {"id": "53a2c08a498e0b656291a348", "name": "Concrete Fitness", "location": {"address": "447 Avenue P", "crossStreet": "east 2nd & 3rd", "lat": 40.609239, "lng": -73.971455, "labeledLatLngs": [{"label": "display", "lat": 40.609239, "lng": -73.971455}, {"label": "entrance", "lat": 40.609144, "lng": -73.971299}], "distance": 499, "postalCode": "11223", "cc": "US", "city": "Brooklyn", "state": "NY", "country": "United States", "formattedAddress": ["447 Avenue P (east 2nd & 3rd)", "Brooklyn, NY 11223", "United States"]}, "categories": [{"id": "4bf58dd8d48988d175941735", "name": "Gym / Fitness Center", "pluralName": "Gyms or Fitness Centers", "shortName": "Gym / Fitness", "icon": {"prefix": "https://ss3.4sqi.net/img/categories_v2/building/gym_", "suffix": ".png"}, "primary": true}], "photos": {"count": 0, "groups": []}}, "referralId": "e-0-53a2c08a498e0b656291a348-19"}]