[{"reasons": {"count": 0, "items": [{"summary": "This spot is popular", "type": "general", "reasonName": "globalInteractionReason"}]}, "venue": {"id": "4b4360fdf964a5202cdf25e3", "name": "Dr Andrew J Bartilucci Center", "location": {"address": "175-05 Horace Harding Expy", "crossStreet": "at St John's University", "lat": 40.73950336211134, "lng": -73.79443508906793, "labeledLatLngs": [{"label": "display", "lat": 40.73950336211134, "lng": -73.79443508906793}], "distance": 1180, "postalCode": "11365", "cc": "US", "city": "Fresh Meadows", "state": "NY", "country": "United States", "formattedAddress": ["175-05 Horace Harding Expy (at St John's University)", "Fresh Meadows, NY 11365", "United States"]}, "categories": [{"id": "4bf58dd8d48988d1ae941735", "name": "University", "pluralName": "Universities", "shortName": "University", "icon": {"prefix": "https://ss3.4sqi.net/img/categories_v2/education/default_", "suffix": ".png"}, "primary": true}], "photos": {"count": 0, "groups": []}}, "referralId": "e-0-4b4360fdf964a5202cdf25e3-0"}, {"reasons": {"count": 0, "items": [{"summary": "This spot is popular", "type": "general", "reasonName": "globalInteractionReason"}]}, "venue": {"id": "4cab149036fa6dcb288bd578", "name": "St John's University - POC 8", "location": {"address": "17505 Horace Harding Expy", "crossStreet": "at 175th St.", "lat": 40.73931457541059, "lng": -73.79433742944224, "labeledLatLngs": [{"label": "display", "lat": 40.73931457541059, "lng": -73.79433742944224}], "distance": 1202, "postalCode": "11365", "cc": "US", "city": "New York", "state": "NY", "country": "United States", "formattedAddress": ["17505 Horace Harding Expy (at 175th St.)", "New York, NY 11365", "United States"]}, "categories": [{"id": "4bf58dd8d48988d1a0941735", "name": "College Classroom", "pluralName": "College Classrooms", "shortName": "Classroom", "icon": {"prefix": "https://ss3.4sqi.net/img/categories_v2/education/classroom_", "suffix": ".png"}, "primary": true}], "photos": {"count": 0, "groups": []}}, "referralId": "e-0-4cab149036fa6dcb288bd578-1"}, {"reasons": {"count": 0, "items": [{"summary": "This spot is popular", "type": "general", "reasonName": "globalInteractionReason"}]}, "venue": {"id": "56f6adb8498e3de5b9f7c5d3", "name": "Sigma Workshops", "location": {"address": "19217 47th Ave", "lat": 40.752086, "lng": -73.78869, "labeledLatLngs": [{"label": "display", "lat": 40.752086, "lng": -73.78869}], "distance": 795, "postalCode": "11358", "cc": "US", "city": "Flushing", "state": "NY", "country": "United States", "formattedAddress": ["19217 47th Ave", "Flushing, NY 11358", "United States"]}, "categories": [{"id": "4bf58dd8d48988d1ab941735", "name": "Student Center", "pluralName": "Student Centers", "shortName": "Student Center", "icon": {"prefix": "https://ss3.4sqi.net/img/categories_v2/education/studentcenter_", "suffix": ".png"}, "primary": true}], "photos": {"count": 0, "groups": []}}, "referralId": "e-0-56f6adb8498e3de5b9f7c5d3-2"}, {"reasons": {"count": 0, "items": [{"summary": "This spot is popular", "type": "general", "reasonName": "globalInteractionReason"}]}, "venue": {"id": "4bfbc0d8ab180f47aa2eb4ce", "name": "P.S. 163", "location": {"address": "159th St and 59th Ave", "lat": 40.740532, "lng": -73.808823, "labeledLatLngs": [{"label": "display", "lat": 40.740532, "lng": -73.808823}], "distance": 1400, "postalCode": "11365", "cc": "US", "city": "Queens", "state": "NY", "country": "United States", "formattedAddress": ["159th St and 59th Ave", "Queens, NY 11365", "United States"]}, "categories": [{"id": "4bf58dd8d48988d1a8941735", "name": "General College & University", "pluralName": "General Colleges & Universities", "shortName": "Education", "icon": {"prefix": "https://ss3.4sqi.net/img/categories_v2/education/other_", "suffix": ".png"}, "primary": true}], "photos": {"count": 0, "groups": []}}, "referralId": "e-0-4bfbc0d8ab180f47aa2eb4ce-3"}, {"reasons": {"count": 0, "items": [{"summary": "This spot is popular", "type": "general", "reasonName": "globalInteractionReason"}]}, "venue": {"id": "4c97a49072dd224b9858b691", "name": "PS 32", "location": {"address": "34-98 171st St", "lat": 40.76563199236089, "lng": -73.79437764223509, "labeledLatLngs": [{"label": "display", "lat": 40.76563199236089, "lng": -73.79437764223509}], "distance": 1780, "postalCode": "11358", "cc": "US", "city": "Flushing", "state": "NY", "country": "United States", "formattedAddress": ["34-98 171st St", "Flushing, NY 11358", "United States"]}, "categories": [{"id": "4bf58dd8d48988d1a8941735", "name": "General College & University", "pluralName": "General Colleges & Universities", "shortName": "Education", "icon": {"prefix": "https://ss3.4sqi.net/img/categories_v2/education/other_", "suffix": ".png"}, "primary": true}], "photos": {"count": 0, "groups": []}}, "referralId": "e-0-4c97a49072dd224b9858b691-4"}, {"reasons": {"count": 0, "items": [{"summary": "This spot is popular", "type": "general", "reasonName": "globalInteractionReason"}]}, "venue": {"id": "56daa55f498e714bdf5ea871", "name": "Rainbow Child Learning", "location": {"address": "133-20 Avery Ave, Flushing, NY  Zip Code:- 11355", "lat": 40.752036129031076, "lng": -73.79821300506592, "labeledLatLngs": [{"label": "display", "lat": 40.752036129031076, "lng": -73.79821300506592}], "distance": 251, "postalCode": "10007", "cc": "US", "city": "New York", "state": "NY", "country": "United States", "formattedAddress": ["133-20 Avery Ave, Flushing, NY  Zip Code:- 11355", "New York, NY 10007", "United States"]}, "categories": [{"id": "4bf58dd8d48988d1ad941735", "name": "Trade School", "pluralName": "Trade Schools", "shortName": "Trade School", "icon": {"prefix": "https://ss3.4sqi.net/img/categories_v2/education/tradeschool_", "suffix": ".png"}, "primary": true}], "photos": {"count": 0, "groups": []}}, "referralId": "e-0-56daa55f498e714bdf5ea871-5"}, {"reasons": {"count": 0, "items": [{"summary": "This spot is popular", "type": "general", "reasonName": "globalInteractionReason"}]}, "venue": {"id": "4e9477ebbe7b8f72203945cd", "name": "PH-154", "location": {"address": "65-30 Kissena Blvd", "lat": 40.7408992, "lng": -73.8179139, "labeledLatLngs": [{"label": "display", "lat": 40.7408992, "lng": -73.8179139}], "distance": 1978, "postalCode": "11367", "cc": "US", "city": "Flushing", "state": "NY", "country": "United States", "formattedAddress": ["65-30 Kissena Blvd", "Flushing, NY 11367", "United States"]}, "categories": [{"id": "4bf58dd8d48988d1a0941735", "name": "College Classroom", "pluralName": "College Classrooms", "shortName": "Classroom", "icon": {"prefix": "https://ss3.4sqi.net/img/categories_v2/education/classroom_", "suffix": ".png"}, "primary": true}], "photos": {"count": 0, "groups": []}}, "referralId": "e-0-4e9477ebbe7b8f72203945cd-6"}, {"reasons": {"count": 0, "items": [{"summary": "This spot is popular", "type": "general", "reasonName": "globalInteractionReason"}]}, "venue": {"id": "4c766ba2c219224b181ca528", "name": "Kissena Hall", "location": {"address": "Queens College", "lat": 40.7373123860469, "lng": -73.81445623590542, "labeledLatLngs": [{"label": "display", "lat": 40.7373123860469, "lng": -73.81445623590542}], "distance": 1988, "postalCode": "11367", "cc": "US", "city": "Flushing", "state": "NY", "country": "United States", "formattedAddress": ["Queens College", "Flushing, NY 11367", "United States"]}, "categories": [{"id": "4bf58dd8d48988d1a0941735", "name": "College Classroom", "pluralName": "College Classrooms", "shortName": "Classroom", "icon": {"prefix": "https://ss3.4sqi.net/img/categories_v2/education/classroom_", "suffix": ".png"}, "primary": true}], "photos": {"count": 0, "groups": []}}, "referralId": "e-0-4c766ba2c219224b181ca528-7"}, {"reasons": {"count": 0, "items": [{"summary": "This spot is popular", "type": "general", "reasonName": "globalInteractionReason"}]}, "venue": {"id": "4ce2d70bdb125481858b49ce", "name": "Kuei Luck Enrichment Center", "location": {"address": "195-05 69th Ave", "crossStreet": "Corner of 195 Ln.", "lat": 40.7370401520093, "lng": -73.78743219806707, "labeledLatLngs": [{"label": "display", "lat": 40.7370401520093, "lng": -73.78743219806707}], "distance": 1662, "postalCode": "11365", "cc": "US", "city": "Fresh Meadows", "state": "NY", "country": "United States", "formattedAddress": ["195-05 69th Ave (Corner of 195 Ln.)", "Fresh Meadows, NY 11365", "United States"]}, "categories": [{"id": "4bf58dd8d48988d1ab941735", "name": "Student Center", "pluralName": "Student Centers", "shortName": "Student Center", "icon": {"prefix": "https://ss3.4sqi.net/img/categories_v2/education/studentcenter_", "suffix": ".png"}, "primary": true}], "photos": {"count": 0, "groups": []}}, "referralId": "e-0-4ce2d70bdb125481858b49ce-8"}, {"reasons": {"count": 0, "items": [{"summary": "This spot is popular", "type": "general", "reasonName": "globalInteractionReason"}]}, "venue": {"id": "4c1a186798f4a5932b0101f6", "name": "Flushing Christian School", "location": {"address": "41-54 Murray St", "lat": 40.76131545558527, "lng": -73.81232322578181, "labeledLatLngs": [{"label": "display", "lat": 40.76131545558527, "lng": -73.81232322578181}], "distance": 1780, "postalCode": "11355", "cc": "US", "city": "Flushing", "state": "NY", "country": "United States", "formattedAddress": ["41-54 Murray St", "Flushing, NY 11355", "United States"]}, "categories": [{"id": "4bf58dd8d48988d1ab941735", "name": "Student Center", "pluralName": "Student Centers", "shortName": "Student Center", "icon": {"prefix": "https://ss3.4sqi.net/img/categories_v2/education/studentcenter_", "suffix": ".png"}, "primary": true}], "photos": {"count": 0, "groups": []}}, "referralId": "e-0-4c1a186798f4a5932b0101f6-9"}, {"reasons": {"count": 0, "items": [{"summary": "This spot is popular", "type": "general", "reasonName": "globalInteractionReason"}]}, "venue": {"id": "4d81ba4fbede5481ed4104d1", "name": "Jack And Jill Nusery School", "location": {"address": "6805 Fresh Meadow Ln", "crossStreet": "68th ave", "lat": 40.73359718544029, "lng": -73.79424017524468, "labeledLatLngs": [{"label": "display", "lat": 40.73359718544029, "lng": -73.79424017524468}], "distance": 1828, "postalCode": "11365", "cc": "US", "city": "Fresh Meadows", "state": "NY", "country": "United States", "formattedAddress": ["6805 Fresh Meadow Ln (68th ave)", "Fresh Meadows, NY 11365", "United States"]}, "categories": [{"id": "4bf58dd8d48988d1ab941735", "name": "Student Center", "pluralName": "Student Centers", "shortName": "Student Center", "icon": {"prefix": "https://ss3.4sqi.net/img/categories_v2/education/studentcenter_", "suffix": ".png"}, "primary": true}], "photos": {"count": 0, "groups": []}}, "referralId": "e-0-4d81ba4fbede5481ed4104d1-10"}, {"reasons": {"count": 0, "items": [{"summary": "This spot is popular", "type": "general", "reasonName": "globalInteractionReason"}]}, "venue": {"id": "4cab2c3276d3a093e4ae296b", "name": "PS 179", "location": {"address": "196-25 Peck Ave", "crossStreet": "Horace Harding Expressway", "lat": 40.741583445846516, "lng": -73.77859637025448, "labeledLatLngs": [{"label": "display", "lat": 40.741583445846516, "lng": -73.77859637025448}], "distance": 1849, "postalCode": "11365", "cc": "US", "city": "Fresh Meadows", "state": "NY", "country": "United States", "formattedAddress": ["196-25 Peck Ave (Horace Harding Expressway)", "Fresh Meadows, NY 11365", "United States"]}, "categories": [{"id": "4bf58dd8d48988d13b941735", "name": "School", "pluralName": "Schools", "shortName": "School", "icon": {"prefix": "https://ss3.4sqi.net/img/categories_v2/building/school_", "suffix": ".png"}, "primary": true}], "photos": {"count": 0, "groups": []}}, "referralId": "e-0-4cab2c3276d3a093e4ae296b-11"}, {"reasons": {"count": 0, "items": [{"summary": "This spot is popular", "type": "general", "reasonName": "globalInteractionReason"}]}, "venue": {"id": "4ddab25cc65bee535aff87e9", "name": "NYHQ EMT Class/Refresher", "location": {"address": "163-15 46th Ave", "lat": 40.753869711835634, "lng": -73.80335638094934, "labeledLatLngs": [{"label": "display", "lat": 40.753869711835634, "lng": -73.80335638094934}], "distance": 660, "postalCode": "11358", "cc": "US", "city": "Flushing", "state": "NY", "country": "United States", "formattedAddress": ["163-15 46th Ave", "Flushing, NY 11358", "United States"]}, "categories": [{"id": "4bf58dd8d48988d1b3941735", "name": "Medical School", "pluralName": "Medical Schools", "shortName": "Medical School", "icon": {"prefix": "https://ss3.4sqi.net/img/categories_v2/building/medical_", "suffix": ".png"}, "primary": true}], "photos": {"count": 0, "groups": []}}, "referralId": "e-0-4ddab25cc65bee535aff87e9-12"}, {"reasons": {"count": 0, "items": [{"summary": "This spot is popular", "type": "general", "reasonName": "globalInteractionReason"}]}, "venue": {"id": "4dca8fda7d8bc0c0b87fdf1e", "name": "St John's University - Poc 9", "location": {"address": "175-05 Horace Harding Expwy", "lat": 40.739526, "lng": -73.794423, "labeledLatLngs": [{"label": "display", "lat": 40.739526, "lng": -73.794423}], "distance": 1177, "cc": "US", "city": "Queens", "state": "NY", "country": "United States", "formattedAddress": ["175-05 Horace Harding Expwy", "Queens, NY", "United States"]}, "categories": [{"id": "4bf58dd8d48988d1b3941735", "name": "Medical School", "pluralName": "Medical Schools", "shortName": "Medical School", "icon": {"prefix": "https://ss3.4sqi.net/img/categories_v2/building/medical_", "suffix": ".png"}, "primary": true}], "photos": {"count": 0, "groups": []}}, "referralId": "e-0-4dca8fda7d8bc0c0b87fdf1e-13"}, {"reasons": {"count": 0, "items": [{"summary": "This spot is popular", "type": "general", "reasonName": "globalInteractionReason"}]}, "venue": {"id": "4cae1a97628cb1f722813115", "name": "St. Johns University, Emergency Medical Services Institute", "location": {"address": "175-05 Horace Harding Expy", "lat": 40.73945884258043, "lng": -73.79399074525288, "labeledLatLngs": [{"label": "display", "lat": 40.73945884258043, "lng": -73.79399074525288}], "distance": 1194, "postalCode": "11365", "cc": "US", "city": "Fresh Meadows", "state": "NY", "country": "United States", "formattedAddress": ["175-05 Horace Harding Expy", "Fresh Meadows, NY 11365", "United States"]}, "categories": [{"id": "4bf58dd8d48988d1b3941735", "name": "Medical School", "pluralName": "Medical Schools", "shortName": "Medical School", "icon": {"prefix": "https://ss3.4sqi.net/img/categories_v2/building/medical_", "suffix": ".png"}, "primary": true}], "photos": {"count": 0, "groups": []}}, "referralId": "e-0-4cae1a97628cb1f722813115-14"}, {"reasons": {"count": 0, "items": [{"summary": "This spot is popular", "type": "general", "reasonName": "globalInteractionReason"}]}, "venue": {"id": "4cf933767b44224b1c86d305", "name": "Goldstein Theatre", "location": {"address": "6530 Kissena Blvd", "crossStreet": "in Queens College", "lat": 40.73785696407813, "lng": -73.81534150067613, "labeledLatLngs": [{"label": "display", "lat": 40.73785696407813, "lng": -73.81534150067613}], "distance": 2001, "postalCode": "11367", "cc": "US", "city": "Flushing", "state": "NY", "country": "United States", "formattedAddress": ["6530 Kissena Blvd (in Queens College)", "Flushing, NY 11367", "United States"]}, "categories": [{"id": "4bf58dd8d48988d199941735", "name": "College Arts Building", "pluralName": "College Arts Buildings", "shortName": "Arts", "icon": {"prefix": "https://ss3.4sqi.net/img/categories_v2/arts_entertainment/default_", "suffix": ".png"}, "primary": true}], "photos": {"count": 0, "groups": []}}, "referralId": "e-0-4cf933767b44224b1c86d305-15"}, {"reasons": {"count": 0, "items": [{"summary": "This spot is popular", "type": "general", "reasonName": "globalInteractionReason"}]}, "venue": {"id": "5a38cbd7838e597257ec9a23", "name": "New York Cancer & Blood Specialists", "location": {"address": "158-06 Northern Blvd", "lat": 40.76318819999999, "lng": -73.8070777, "labeledLatLngs": [{"label": "display", "lat": 40.76318819999999, "lng": -73.8070777}], "distance": 1687, "postalCode": "11358", "cc": "US", "city": "Flushing", "state": "NY", "country": "United States", "formattedAddress": ["158-06 Northern Blvd", "Flushing, NY 11358", "United States"]}, "categories": [{"id": "4bf58dd8d48988d1b3941735", "name": "Medical School", "pluralName": "Medical Schools", "shortName": "Medical School", "icon": {"prefix": "https://ss3.4sqi.net/img/categories_v2/building/medical_", "suffix": ".png"}, "primary": true}], "photos": {"count": 0, "groups": []}, "venuePage": {"id": "471545633"}}, "referralId": "e-0-5a38cbd7838e597257ec9a23-16"}, {"reasons": {"count": 0, "items": [{"summary": "This spot is popular", "type": "general", "reasonName": "globalInteractionReason"}]}, "venue": {"id": "4f0689bd8231be29240496fc", "name": "The Wizarding School of AP BIO", "location": {"address": "69-18 181st St, Fresh Meadows, NY 11365", "lat": 40.73300110673548, "lng": -73.7902586611352, "labeledLatLngs": [{"label": "display", "lat": 40.73300110673548, "lng": -73.7902586611352}], "distance": 1973, "postalCode": "11365", "cc": "US", "city": "Fresh Meadows", "state": "NY", "country": "United States", "formattedAddress": ["69-18 181st St, Fresh Meadows, NY 11365", "Fresh Meadows, NY 11365", "United States"]}, "categories": [{"id": "4bf58dd8d48988d1b3941735", "name": "Medical School", "pluralName": "Medical Schools", "shortName": "Medical School", "icon": {"prefix": "https://ss3.4sqi.net/img/categories_v2/building/medical_", "suffix": ".png"}, "primary": true}], "photos": {"count": 0, "groups": []}}, "referralId": "e-0-4f0689bd8231be29240496fc-17"}, {"reasons": {"count": 0, "items": [{"summary": "This spot is popular", "type": "general", "reasonName": "globalInteractionReason"}]}, "venue": {"id": "5942e1759411f241f57a072f", "name": "CS Care Group", "location": {"address": "154-05 Northern Blvd", "lat": 40.7648597, "lng": -73.81054719999997, "labeledLatLngs": [{"label": "display", "lat": 40.7648597, "lng": -73.81054719999997}], "distance": 1996, "postalCode": "11354", "cc": "US", "city": "Flushing", "state": "NY", "country": "United States", "formattedAddress": ["154-05 Northern Blvd", "Flushing, NY 11354", "United States"]}, "categories": [{"id": "4bf58dd8d48988d19a941735", "name": "College Communications Building", "pluralName": "College Communications Buildings", "shortName": "Communications", "icon": {"prefix": "https://ss3.4sqi.net/img/categories_v2/education/collegeacademicbuildings_communications_", "suffix": ".png"}, "primary": true}], "photos": {"count": 0, "groups": []}, "venuePage": {"id": "433481532"}}, "referralId": "e-0-5942e1759411f241f57a072f-18"}, {"reasons": {"count": 0, "items": [{"summary": "This spot is popular", "type": "general", "reasonName": "globalInteractionReason"}]}, "venue": {"id": "4cbca47e4495721e49b95b7a", "name": "Campus Drugs", "location": {"address": "59-04 Kissena Blvd", "crossStreet": "59th st", "lat": 40.74062743333333, "lng": -73.81492, "labeledLatLngs": [{"label": "display", "lat": 40.74062743333333, "lng": -73.81492}], "distance": 1781, "postalCode": "11355", "cc": "US", "city": "Flushing", "state": "NY", "country": "United States", "formattedAddress": ["59-04 Kissena Blvd (59th st)", "Flushing, NY 11355", "United States"]}, "categories": [{"id": "4bf58dd8d48988d1a1941735", "name": "College Cafeteria", "pluralName": "College Cafeterias", "shortName": "Cafeteria", "icon": {"prefix": "https://ss3.4sqi.net/img/categories_v2/education/cafeteria_", "suffix": ".png"}, "primary": true}], "photos": {"count": 0, "groups": []}}, "referralId": "e-0-4cbca47e4495721e49b95b7a-19"}, {"reasons": {"count": 0, "items": [{"summary": "This spot is popular", "type": "general", "reasonName": "globalInteractionReason"}]}, "venue": {"id": "4f176905a17c202e10471fd1", "name": "Kupferberg Center for the Arts", "location": {"address": "65-30 Kissena Blvd", "crossStreet": "L.I.E.", "lat": 40.73841297394456, "lng": -73.81544351577759, "labeledLatLngs": [{"label": "display", "lat": 40.73841297394456, "lng": -73.81544351577759}], "distance": 1967, "postalCode": "11367", "cc": "US", "city": "Flushing", "state": "NY", "country": "United States", "formattedAddress": ["65-30 Kissena Blvd (L.I.E.)", "Flushing, NY 11367", "United States"]}, "categories": [{"id": "4bf58dd8d48988d1ac941735", "name": "College Theater", "pluralName": "College Theaters", "shortName": "Theater", "icon": {"prefix": "https://ss3.4sqi.net/img/categories_v2/arts_entertainment/performingarts_theater_", "suffix": ".png"}, "primary": true}], "photos": {"count": 0, "groups": []}}, "referralId": "e-0-4f176905a17c202e10471fd1-20"}]