[{"reasons": {"count": 0, "items": [{"summary": "This spot is popular", "type": "general", "reasonName": "globalInteractionReason"}]}, "venue": {"id": "4dee59e152b13dda25f627df", "name": "Rockaway Beach  - 120th Street", "location": {"address": "Beach 120th St", "crossStreet": "at Rockaway Beach Blvd", "lat": 40.57832218338113, "lng": -73.84038723028452, "labeledLatLngs": [{"label": "display", "lat": 40.57832218338113, "lng": -73.84038723028452}], "distance": 244, "postalCode": "11694", "cc": "US", "city": "Rockaway", "state": "NY", "country": "United States", "formattedAddress": ["Beach 120th St (at Rockaway Beach Blvd)", "Rockaway, NY 11694", "United States"]}, "categories": [{"id": "4bf58dd8d48988d1e2941735", "name": "Beach", "pluralName": "Beaches", "shortName": "Beach", "icon": {"prefix": "https://ss3.4sqi.net/img/categories_v2/parks_outdoors/beach_", "suffix": ".png"}, "primary": true}], "photos": {"count": 0, "groups": []}}, "referralId": "e-0-4dee59e152b13dda25f627df-0"}, {"reasons": {"count": 0, "items": [{"summary": "This spot is popular", "type": "general", "reasonName": "globalInteractionReason"}]}, "venue": {"id": "4c707a36df6b8cfae192b84d", "name": "Belle Harbor Steak & Seafood", "location": {"address": "268 Beach 116th St", "lat": 40.58120188605485, "lng": -73.83784623154668, "labeledLatLngs": [{"label": "display", "lat": 40.58120188605485, "lng": -73.83784623154668}], "distance": 326, "postalCode": "11694", "cc": "US", "city": "Belle Harbor", "state": "NY", "country": "United States", "formattedAddress": ["268 Beach 116th St", "Belle Harbor, NY 11694", "United States"]}, "categories": [{"id": "4bf58dd8d48988d1cc941735", "name": "Steakhouse", "pluralName": "Steakhouses", "shortName": "Steakhouse", "icon": {"prefix": "https://ss3.4sqi.net/img/categories_v2/food/steakhouse_", "suffix": ".png"}, "primary": true}], "photos": {"count": 0, "groups": []}}, "referralId": "e-0-4c707a36df6b8cfae192b84d-1"}, {"reasons": {"count": 0, "items": [{"summary": "This spot is popular", "type": "general", "reasonName": "globalInteractionReason"}]}, "venue": {"id": "4f71ce9de4b0a89fa4b084de", "name": "Cuisine By Claudette", "location": {"address": "143 Beach 116th St", "lat": 40.57886817253805, "lng": -73.83686820073987, "labeledLatLngs": [{"label": "display", "lat": 40.57886817253805, "lng": -73.83686820073987}, {"label": "entrance", "lat": 40.578836, "lng": -73.836833}], "distance": 427, "postalCode": "11694", "cc": "US", "neighborhood": "Rockaway Beach", "city": "Rockaway Park", "state": "NY", "country": "United States", "formattedAddress": ["143 Beach 116th St", "Rockaway Park, NY 11694", "United States"]}, "categories": [{"id": "4bf58dd8d48988d10c941735", "name": "French Restaurant", "pluralName": "French Restaurants", "shortName": "French", "icon": {"prefix": "https://ss3.4sqi.net/img/categories_v2/food/french_", "suffix": ".png"}, "primary": true}], "photos": {"count": 0, "groups": []}, "venuePage": {"id": "94604626"}}, "referralId": "e-0-4f71ce9de4b0a89fa4b084de-2"}, {"reasons": {"count": 0, "items": [{"summary": "This spot is popular", "type": "general", "reasonName": "globalInteractionReason"}]}, "venue": {"id": "4beeeedd3686c9b60d36256e", "name": "The Beach at 118th Street", "location": {"address": "118th Street", "lat": 40.57734564451533, "lng": -73.83815879751982, "labeledLatLngs": [{"label": "display", "lat": 40.57734564451533, "lng": -73.83815879751982}], "distance": 439, "postalCode": "11694", "cc": "US", "city": "Rockaway Park", "state": "NY", "country": "United States", "formattedAddress": ["118th Street", "Rockaway Park, NY 11694", "United States"]}, "categories": [{"id": "4bf58dd8d48988d1e2941735", "name": "Beach", "pluralName": "Beaches", "shortName": "Beach", "icon": {"prefix": "https://ss3.4sqi.net/img/categories_v2/parks_outdoors/beach_", "suffix": ".png"}, "primary": true}], "photos": {"count": 0, "groups": []}}, "referralId": "e-0-4beeeedd3686c9b60d36256e-3"}, {"reasons": {"count": 0, "items": [{"summary": "This spot is popular", "type": "general", "reasonName": "globalInteractionReason"}]}, "venue": {"id": "4c964d4282b56dcb7a4de0aa", "name": "The Beach at 122nd Street", "location": {"address": "Beach 122nd Street", "lat": 40.57725070501285, "lng": -73.84250651542241, "labeledLatLngs": [{"label": "display", "lat": 40.57725070501285, "lng": -73.84250651542241}], "distance": 353, "postalCode": "11694", "cc": "US", "city": "Rockaway Beach", "state": "NY", "country": "United States", "formattedAddress": ["Beach 122nd Street", "Rockaway Beach, NY 11694", "United States"]}, "categories": [{"id": "4bf58dd8d48988d1e2941735", "name": "Beach", "pluralName": "Beaches", "shortName": "Beach", "icon": {"prefix": "https://ss3.4sqi.net/img/categories_v2/parks_outdoors/beach_", "suffix": ".png"}, "primary": true}], "photos": {"count": 0, "groups": []}}, "referralId": "e-0-4c964d4282b56dcb7a4de0aa-4"}, {"reasons": {"count": 0, "items": [{"summary": "This spot is popular", "type": "general", "reasonName": "globalInteractionReason"}]}, "venue": {"id": "4bfc38263cebd13af5a897d8", "name": "Duane Reade", "location": {"address": "11602 Beach Channel Dr", "lat": 40.5822362, "lng": -73.8385126, "labeledLatLngs": [{"label": "display", "lat": 40.5822362, "lng": -73.8385126}], "distance": 331, "postalCode": "11694", "cc": "US", "city": "Far Rockaway", "state": "NY", "country": "United States", "formattedAddress": ["11602 Beach Channel Dr", "Far Rockaway, NY 11694", "United States"]}, "categories": [{"id": "4bf58dd8d48988d10f951735", "name": "Pharmacy", "pluralName": "Pharmacies", "shortName": "Pharmacy", "icon": {"prefix": "https://ss3.4sqi.net/img/categories_v2/shops/pharmacy_", "suffix": ".png"}, "primary": true}], "photos": {"count": 0, "groups": []}}, "referralId": "e-0-4bfc38263cebd13af5a897d8-5"}, {"reasons": {"count": 0, "items": [{"summary": "This spot is popular", "type": "general", "reasonName": "globalInteractionReason"}]}, "venue": {"id": "4c88e751105237040f17c4f1", "name": "Rockaway Bagels", "location": {"address": "11408 Beach Channel Dr", "lat": 40.582290850881414, "lng": -73.83715406300448, "labeledLatLngs": [{"label": "display", "lat": 40.582290850881414, "lng": -73.83715406300448}, {"label": "entrance", "lat": 40.582189, "lng": -73.83731}], "distance": 429, "postalCode": "11694", "cc": "US", "city": "Rockaway Park", "state": "NY", "country": "United States", "formattedAddress": ["11408 Beach Channel Dr", "Rockaway Park, NY 11694", "United States"]}, "categories": [{"id": "4bf58dd8d48988d179941735", "name": "Bagel Shop", "pluralName": "Bagel Shops", "shortName": "Bagels", "icon": {"prefix": "https://ss3.4sqi.net/img/categories_v2/food/bagels_", "suffix": ".png"}, "primary": true}], "photos": {"count": 0, "groups": []}}, "referralId": "e-0-4c88e751105237040f17c4f1-6"}, {"reasons": {"count": 0, "items": [{"summary": "This spot is popular", "type": "general", "reasonName": "globalInteractionReason"}]}, "venue": {"id": "4be5d4c2bcef2d7fdb6404e5", "name": "Last Stop Gourmet Shop", "location": {"address": "222 Beach 116th St", "lat": 40.58038962697081, "lng": -73.8374587228447, "labeledLatLngs": [{"label": "display", "lat": 40.58038962697081, "lng": -73.8374587228447}], "distance": 344, "postalCode": "11694", "cc": "US", "city": "Rockaway Park", "state": "NY", "country": "United States", "formattedAddress": ["222 Beach 116th St", "Rockaway Park, NY 11694", "United States"]}, "categories": [{"id": "4bf58dd8d48988d147941735", "name": "Diner", "pluralName": "Diners", "shortName": "Diner", "icon": {"prefix": "https://ss3.4sqi.net/img/categories_v2/food/diner_", "suffix": ".png"}, "primary": true}], "photos": {"count": 0, "groups": []}, "venuePage": {"id": "85862565"}}, "referralId": "e-0-4be5d4c2bcef2d7fdb6404e5-7"}, {"reasons": {"count": 0, "items": [{"summary": "This spot is popular", "type": "general", "reasonName": "globalInteractionReason"}]}, "venue": {"id": "4c4b60c7c668e21ec867f9f9", "name": "Ciro's Italian Restaurant", "location": {"address": "171 Beach 116th St", "lat": 40.579270684356544, "lng": -73.83695416979937, "labeledLatLngs": [{"label": "display", "lat": 40.579270684356544, "lng": -73.83695416979937}], "distance": 405, "postalCode": "11694", "cc": "US", "city": "Rockaway Park", "state": "NY", "country": "United States", "formattedAddress": ["171 Beach 116th St", "Rockaway Park, NY 11694", "United States"]}, "categories": [{"id": "4bf58dd8d48988d1ca941735", "name": "Pizza Place", "pluralName": "Pizza Places", "shortName": "Pizza", "icon": {"prefix": "https://ss3.4sqi.net/img/categories_v2/food/pizza_", "suffix": ".png"}, "primary": true}], "photos": {"count": 0, "groups": []}}, "referralId": "e-0-4c4b60c7c668e21ec867f9f9-8"}, {"reasons": {"count": 0, "items": [{"summary": "This spot is popular", "type": "general", "reasonName": "globalInteractionReason"}]}, "venue": {"id": "4c30b99a3896e21efaeee590", "name": "Carvel Ice Cream", "location": {"address": "189 Beach 116th St", "lat": 40.579316999999996, "lng": -73.837293, "labeledLatLngs": [{"label": "display", "lat": 40.579316999999996, "lng": -73.837293}, {"label": "entrance", "lat": 40.579416, "lng": -73.837166}], "distance": 376, "postalCode": "11694", "cc": "US", "city": "Rockaway Park", "state": "NY", "country": "United States", "formattedAddress": ["189 Beach 116th St", "Rockaway Park, NY 11694", "United States"]}, "categories": [{"id": "4bf58dd8d48988d1c9941735", "name": "Ice Cream Shop", "pluralName": "Ice Cream Shops", "shortName": "Ice Cream", "icon": {"prefix": "https://ss3.4sqi.net/img/categories_v2/food/icecream_", "suffix": ".png"}, "primary": true}], "delivery": {"id": "307613", "url": "https://www.seamless.com/menu/carvel-189-beach-116th-st-queens/307613?affiliate=1131&utm_source=foursquare-affiliate-network&utm_medium=affiliate&utm_campaign=1131&utm_content=307613", "provider": {"name": "seamless", "icon": {"prefix": "https://fastly.4sqi.net/img/general/cap/", "sizes": [40, 50], "name": "/delivery_provider_seamless_20180129.png"}}}, "photos": {"count": 0, "groups": []}}, "referralId": "e-0-4c30b99a3896e21efaeee590-9"}, {"reasons": {"count": 0, "items": [{"summary": "This spot is popular", "type": "general", "reasonName": "globalInteractionReason"}]}, "venue": {"id": "4b91e22af964a52071dd33e3", "name": "Pickles & Pies Food Market & Deli", "location": {"address": "202 Beach 116th St", "crossStreet": "at Rockaway Beach Blvd.", "lat": 40.57991538953956, "lng": -73.83718206630222, "labeledLatLngs": [{"label": "display", "lat": 40.57991538953956, "lng": -73.83718206630222}, {"label": "entrance", "lat": 40.579989, "lng": -73.837101}], "distance": 370, "postalCode": "11694", "cc": "US", "city": "Rockaway Park", "state": "NY", "country": "United States", "formattedAddress": ["202 Beach 116th St (at Rockaway Beach Blvd.)", "Rockaway Park, NY 11694", "United States"]}, "categories": [{"id": "4bf58dd8d48988d146941735", "name": "Deli / Bodega", "pluralName": "Delis / Bodegas", "shortName": "Deli / Bodega", "icon": {"prefix": "https://ss3.4sqi.net/img/categories_v2/food/deli_", "suffix": ".png"}, "primary": true}], "delivery": {"id": "511258", "url": "https://www.seamless.com/menu/pickles--pies-202-beach-116th-st-rockaway-park/511258?affiliate=1131&utm_source=foursquare-affiliate-network&utm_medium=affiliate&utm_campaign=1131&utm_content=511258", "provider": {"name": "seamless", "icon": {"prefix": "https://fastly.4sqi.net/img/general/cap/", "sizes": [40, 50], "name": "/delivery_provider_seamless_20180129.png"}}}, "photos": {"count": 0, "groups": []}}, "referralId": "e-0-4b91e22af964a52071dd33e3-10"}, {"reasons": {"count": 0, "items": [{"summary": "This spot is popular", "type": "general", "reasonName": "globalInteractionReason"}]}, "venue": {"id": "4c9cdd270e9bb1f7ebc0d75f", "name": "Chase Bank", "location": {"address": "257 Beach 116th St", "lat": 40.580728, "lng": -73.838091, "labeledLatLngs": [{"label": "display", "lat": 40.580728, "lng": -73.838091}], "distance": 294, "postalCode": "11694", "cc": "US", "city": "Rockaway Park", "state": "NY", "country": "United States", "formattedAddress": ["257 Beach 116th St", "Rockaway Park, NY 11694", "United States"]}, "categories": [{"id": "4bf58dd8d48988d10a951735", "name": "Bank", "pluralName": "Banks", "shortName": "Bank", "icon": {"prefix": "https://ss3.4sqi.net/img/categories_v2/shops/financial_", "suffix": ".png"}, "primary": true}], "photos": {"count": 0, "groups": []}}, "referralId": "e-0-4c9cdd270e9bb1f7ebc0d75f-11"}, {"reasons": {"count": 0, "items": [{"summary": "This spot is popular", "type": "general", "reasonName": "globalInteractionReason"}]}, "venue": {"id": "4bf0467fc8d920a103ab9430", "name": "The Wharf", "location": {"address": "416 Beach 116th St", "crossStreet": "at Beach Channel Drive", "lat": 40.58268040538696, "lng": -73.8384397722833, "labeledLatLngs": [{"label": "display", "lat": 40.58268040538696, "lng": -73.8384397722833}], "distance": 368, "postalCode": "11694", "cc": "US", "city": "Rockaway Park", "state": "NY", "country": "United States", "formattedAddress": ["416 Beach 116th St (at Beach Channel Drive)", "Rockaway Park, NY 11694", "United States"]}, "categories": [{"id": "4bf58dd8d48988d1ce941735", "name": "Seafood Restaurant", "pluralName": "Seafood Restaurants", "shortName": "Seafood", "icon": {"prefix": "https://ss3.4sqi.net/img/categories_v2/food/seafood_", "suffix": ".png"}, "primary": true}], "photos": {"count": 0, "groups": []}}, "referralId": "e-0-4bf0467fc8d920a103ab9430-12"}, {"reasons": {"count": 0, "items": [{"summary": "This spot is popular", "type": "general", "reasonName": "globalInteractionReason"}]}, "venue": {"id": "4e4ddda5bd4101d0d79d1374", "name": "SUBWAY", "location": {"address": "11505 Beach Channel Dr", "lat": 40.58178621934508, "lng": -73.83703882825732, "labeledLatLngs": [{"label": "display", "lat": 40.58178621934508, "lng": -73.83703882825732}], "distance": 412, "postalCode": "11694", "cc": "US", "city": "Rockaway Park", "state": "NY", "country": "United States", "formattedAddress": ["11505 Beach Channel Dr", "Rockaway Park, NY 11694", "United States"]}, "categories": [{"id": "4bf58dd8d48988d1c5941735", "name": "Sandwich Place", "pluralName": "Sandwich Places", "shortName": "Sandwiches", "icon": {"prefix": "https://ss3.4sqi.net/img/categories_v2/food/deli_", "suffix": ".png"}, "primary": true}], "photos": {"count": 0, "groups": []}}, "referralId": "e-0-4e4ddda5bd4101d0d79d1374-13"}, {"reasons": {"count": 0, "items": [{"summary": "This spot is popular", "type": "general", "reasonName": "globalInteractionReason"}]}, "venue": {"id": "5b4b8752f0b490002cca36e1", "name": "Dunkin' / Baskin-Robbins", "location": {"address": "Beach Channel Drive", "lat": 40.582447, "lng": -73.836542, "labeledLatLngs": [{"label": "display", "lat": 40.582447, "lng": -73.836542}], "distance": 482, "postalCode": "11694", "cc": "US", "city": "New York", "state": "NY", "country": "United States", "formattedAddress": ["Beach Channel Drive", "New York, NY 11694", "United States"]}, "categories": [{"id": "4bf58dd8d48988d148941735", "name": "Donut Shop", "pluralName": "Donut Shops", "shortName": "Donuts", "icon": {"prefix": "https://ss3.4sqi.net/img/categories_v2/food/donuts_", "suffix": ".png"}, "primary": true}], "photos": {"count": 0, "groups": []}}, "referralId": "e-0-5b4b8752f0b490002cca36e1-14"}, {"reasons": {"count": 0, "items": [{"summary": "This spot is popular", "type": "general", "reasonName": "globalInteractionReason"}]}, "venue": {"id": "5132b250e4b0ed893875b984", "name": "Painico Cafe", "location": {"address": "B116th", "lat": 40.580484999999996, "lng": -73.83792199999999, "labeledLatLngs": [{"label": "display", "lat": 40.580484999999996, "lng": -73.83792199999999}], "distance": 305, "postalCode": "11694", "cc": "US", "neighborhood": "Seaside", "city": "Rockaway Park", "state": "NY", "country": "United States", "formattedAddress": ["B116th", "Rockaway Park, NY 11694", "United States"]}, "categories": [{"id": "4bf58dd8d48988d1c0941735", "name": "Mediterranean Restaurant", "pluralName": "Mediterranean Restaurants", "shortName": "Mediterranean", "icon": {"prefix": "https://ss3.4sqi.net/img/categories_v2/food/mediterranean_", "suffix": ".png"}, "primary": true}], "photos": {"count": 0, "groups": []}}, "referralId": "e-0-5132b250e4b0ed893875b984-15"}, {"reasons": {"count": 0, "items": [{"summary": "This spot is popular", "type": "general", "reasonName": "globalInteractionReason"}]}, "venue": {"id": "4bed7060bac3c9b68942fee9", "name": "Slices n Ices", "location": {"address": "208 Beach 116th St", "crossStreet": "Beach Channel Drive", "lat": 40.58010713519273, "lng": -73.83716784306104, "labeledLatLngs": [{"label": "display", "lat": 40.58010713519273, "lng": -73.83716784306104}, {"label": "entrance", "lat": 40.580138, "lng": -73.837184}], "distance": 370, "postalCode": "11694", "cc": "US", "city": "Rockaway Park", "state": "NY", "country": "United States", "formattedAddress": ["208 Beach 116th St (Beach Channel Drive)", "Rockaway Park, NY 11694", "United States"]}, "categories": [{"id": "4bf58dd8d48988d1ca941735", "name": "Pizza Place", "pluralName": "Pizza Places", "shortName": "Pizza", "icon": {"prefix": "https://ss3.4sqi.net/img/categories_v2/food/pizza_", "suffix": ".png"}, "primary": true}], "photos": {"count": 0, "groups": []}}, "referralId": "e-0-4bed7060bac3c9b68942fee9-16"}, {"reasons": {"count": 0, "items": [{"summary": "This spot is popular", "type": "general", "reasonName": "globalInteractionReason"}]}, "venue": {"id": "4c607ef5de6920a1ba1a9664", "name": "Roger's", "location": {"address": "203 Beach 116th St", "crossStreet": "Beach 116th St and Rockaway Beach Blvd", "lat": 40.579896088799345, "lng": -73.83734881896324, "labeledLatLngs": [{"label": "display", "lat": 40.579896088799345, "lng": -73.83734881896324}], "distance": 357, "postalCode": "11694", "cc": "US", "city": "Rockaway Park", "state": "NY", "country": "United States", "formattedAddress": ["203 Beach 116th St (Beach 116th St and Rockaway Beach Blvd)", "Rockaway Park, NY 11694", "United States"]}, "categories": [{"id": "4bf58dd8d48988d116941735", "name": "Bar", "pluralName": "Bars", "shortName": "Bar", "icon": {"prefix": "https://ss3.4sqi.net/img/categories_v2/nightlife/pub_", "suffix": ".png"}, "primary": true}], "photos": {"count": 0, "groups": []}}, "referralId": "e-0-4c607ef5de6920a1ba1a9664-17"}, {"reasons": {"count": 0, "items": [{"summary": "This spot is popular", "type": "general", "reasonName": "globalInteractionReason"}]}, "venue": {"id": "4bb892efcf2fc9b64ca09f02", "name": "Rockaway Beach Surf Shop", "location": {"address": "177 Beach 116th St Ste 5", "lat": 40.57933592777925, "lng": -73.83698517918845, "labeledLatLngs": [{"label": "display", "lat": 40.57933592777925, "lng": -73.83698517918845}], "distance": 400, "postalCode": "11694", "cc": "US", "city": "Rockaway Beach", "state": "NY", "country": "United States", "formattedAddress": ["177 Beach 116th St Ste 5", "Rockaway Beach, NY 11694", "United States"]}, "categories": [{"id": "4bf58dd8d48988d1f1941735", "name": "Board Shop", "pluralName": "Board Shops", "shortName": "Board Shop", "icon": {"prefix": "https://ss3.4sqi.net/img/categories_v2/parks_outdoors/surfspot_", "suffix": ".png"}, "primary": true}], "photos": {"count": 0, "groups": []}}, "referralId": "e-0-4bb892efcf2fc9b64ca09f02-18"}, {"reasons": {"count": 0, "items": [{"summary": "This spot is popular", "type": "general", "reasonName": "globalInteractionReason"}]}, "venue": {"id": "4c1d2142fcf8c9b6393eab0b", "name": "Dunkin' / Baskin-Robbins", "location": {"address": "269 Beach 116th St", "lat": 40.58119532516285, "lng": -73.83814873381453, "labeledLatLngs": [{"label": "display", "lat": 40.58119532516285, "lng": -73.83814873381453}], "distance": 301, "postalCode": "11694", "cc": "US", "city": "Far Rockaway", "state": "NY", "country": "United States", "formattedAddress": ["269 Beach 116th St", "Far Rockaway, NY 11694", "United States"]}, "categories": [{"id": "4bf58dd8d48988d148941735", "name": "Donut Shop", "pluralName": "Donut Shops", "shortName": "Donuts", "icon": {"prefix": "https://ss3.4sqi.net/img/categories_v2/food/donuts_", "suffix": ".png"}, "primary": true}], "photos": {"count": 0, "groups": []}}, "referralId": "e-0-4c1d2142fcf8c9b6393eab0b-19"}, {"reasons": {"count": 0, "items": [{"summary": "This spot is popular", "type": "general", "reasonName": "globalInteractionReason"}]}, "venue": {"id": "4de6dcb9ae60db140a881061", "name": "Kerry Hills Pub", "location": {"address": "115-10 Rockaway Beach Blvd", "crossStreet": "@ 115 Street", "lat": 40.580149, "lng": -73.83675799999999, "labeledLatLngs": [{"label": "display", "lat": 40.580149, "lng": -73.83675799999999}, {"label": "entrance", "lat": 40.580038, "lng": -73.836694}], "distance": 404, "postalCode": "11694", "cc": "US", "city": "Rockaway Park", "state": "NY", "country": "United States", "formattedAddress": ["115-10 Rockaway Beach Blvd (@ 115 Street)", "Rockaway Park, NY 11694", "United States"]}, "categories": [{"id": "4bf58dd8d48988d116941735", "name": "Bar", "pluralName": "Bars", "shortName": "Bar", "icon": {"prefix": "https://ss3.4sqi.net/img/categories_v2/nightlife/pub_", "suffix": ".png"}, "primary": true}], "photos": {"count": 0, "groups": []}, "venuePage": {"id": "59916580"}}, "referralId": "e-0-4de6dcb9ae60db140a881061-20"}, {"reasons": {"count": 0, "items": [{"summary": "This spot is popular", "type": "general", "reasonName": "globalInteractionReason"}]}, "venue": {"id": "4eb2f4f4e5fa7306e7b06446", "name": "Belle Harbor Manor", "location": {"lat": 40.57771342580439, "lng": -73.84494205600946, "labeledLatLngs": [{"label": "display", "lat": 40.57771342580439, "lng": -73.84494205600946}], "distance": 410, "postalCode": "11694", "cc": "US", "city": "Rockaway Park", "state": "NY", "country": "United States", "formattedAddress": ["Rockaway Park, NY 11694", "United States"]}, "categories": [{"id": "4bf58dd8d48988d123951735", "name": "Smoke Shop", "pluralName": "Smoke Shops", "shortName": "Smoke Shop", "icon": {"prefix": "https://ss3.4sqi.net/img/categories_v2/shops/tobacco_", "suffix": ".png"}, "primary": true}], "photos": {"count": 0, "groups": []}}, "referralId": "e-0-4eb2f4f4e5fa7306e7b06446-21"}, {"reasons": {"count": 0, "items": [{"summary": "This spot is popular", "type": "general", "reasonName": "globalInteractionReason"}]}, "venue": {"id": "4c2e0cce3a4d0f4769d8e486", "name": "Rockaway Crown", "location": {"address": "11509 Rockaway Beach Blvd", "crossStreet": "at Beach 116th St", "lat": 40.579782, "lng": -73.836504, "labeledLatLngs": [{"label": "display", "lat": 40.579782, "lng": -73.836504}, {"label": "entrance", "lat": 40.579914, "lng": -73.836606}], "distance": 429, "postalCode": "11694", "cc": "US", "city": "Rockaway Park", "state": "NY", "country": "United States", "formattedAddress": ["11509 Rockaway Beach Blvd (at Beach 116th St)", "Rockaway Park, NY 11694", "United States"]}, "categories": [{"id": "4bf58dd8d48988d145941735", "name": "Chinese Restaurant", "pluralName": "Chinese Restaurants", "shortName": "Chinese", "icon": {"prefix": "https://ss3.4sqi.net/img/categories_v2/food/asian_", "suffix": ".png"}, "primary": true}], "photos": {"count": 0, "groups": []}}, "referralId": "e-0-4c2e0cce3a4d0f4769d8e486-22"}, {"reasons": {"count": 0, "items": [{"summary": "This spot is popular", "type": "general", "reasonName": "globalInteractionReason"}]}, "venue": {"id": "4e5d7c05b99302aac426b1de", "name": "Beach 126th Street Boardwalk", "location": {"lat": 40.57778950016526, "lng": -73.8462721628156, "labeledLatLngs": [{"label": "display", "lat": 40.57778950016526, "lng": -73.8462721628156}], "distance": 491, "postalCode": "11694", "cc": "US", "city": "Queens", "state": "NY", "country": "United States", "formattedAddress": ["Queens, NY 11694", "United States"]}, "categories": [{"id": "4bf58dd8d48988d1e2941735", "name": "Beach", "pluralName": "Beaches", "shortName": "Beach", "icon": {"prefix": "https://ss3.4sqi.net/img/categories_v2/parks_outdoors/beach_", "suffix": ".png"}, "primary": true}], "photos": {"count": 0, "groups": []}}, "referralId": "e-0-4e5d7c05b99302aac426b1de-23"}, {"reasons": {"count": 0, "items": [{"summary": "This spot is popular", "type": "general", "reasonName": "globalInteractionReason"}]}, "venue": {"id": "4dbb7779cda109aa6c832c15", "name": "Beach 126th St", "location": {"address": "126", "lat": 40.577648893674585, "lng": -73.84614785072976, "labeledLatLngs": [{"label": "display", "lat": 40.577648893674585, "lng": -73.84614785072976}], "distance": 492, "postalCode": "11694", "cc": "US", "city": "Rockaway Park", "state": "NY", "country": "United States", "formattedAddress": ["126", "Rockaway Park, NY 11694", "United States"]}, "categories": [{"id": "4bf58dd8d48988d1e2941735", "name": "Beach", "pluralName": "Beaches", "shortName": "Beach", "icon": {"prefix": "https://ss3.4sqi.net/img/categories_v2/parks_outdoors/beach_", "suffix": ".png"}, "primary": true}], "photos": {"count": 0, "groups": []}}, "referralId": "e-0-4dbb7779cda109aa6c832c15-24"}]