[{"reasons": {"count": 0, "items": [{"summary": "This spot is popular", "type": "general", "reasonName": "globalInteractionReason"}]}, "venue": {"id": "5a1d83059746171f3af39409", "name": "The Nourish Spot", "location": {"address": "10705 Guy R Brewer Blvd", "lat": 40.6979658080215, "lng": -73.7922672429966, "labeledLatLngs": [{"label": "display", "lat": 40.6979658080215, "lng": -73.7922672429966}], "distance": 194, "postalCode": "11433", "cc": "US", "city": "Jamaica", "state": "NY", "country": "United States", "formattedAddress": ["10705 Guy R Brewer Blvd", "Jamaica, NY 11433", "United States"]}, "categories": [{"id": "4bf58dd8d48988d1d3941735", "name": "Vegetarian / Vegan Restaurant", "pluralName": "Vegetarian / Vegan Restaurants", "shortName": "Vegetarian / Vegan", "icon": {"prefix": "https://ss3.4sqi.net/img/categories_v2/food/vegetarian_", "suffix": ".png"}, "primary": true}], "delivery": {"id": "1021290", "url": "https://www.seamless.com/menu/the-nourish-spot-10705-guy-r-brewer-blvd-jamaica/1021290?affiliate=1131&utm_source=foursquare-affiliate-network&utm_medium=affiliate&utm_campaign=1131&utm_content=1021290", "provider": {"name": "seamless", "icon": {"prefix": "https://fastly.4sqi.net/img/general/cap/", "sizes": [40, 50], "name": "/delivery_provider_seamless_20180129.png"}}}, "photos": {"count": 0, "groups": []}}, "referralId": "e-0-5a1d83059746171f3af39409-0"}, {"reasons": {"count": 0, "items": [{"summary": "This spot is popular", "type": "general", "reasonName": "globalInteractionReason"}]}, "venue": {"id": "5130c73e72da35b105337efe", "name": "Anita's Roti Shop", "location": {"address": "106-13 Guy R Brewer Blvd", "crossStreet": "Guy R Brewer Blvd and South Road", "lat": 40.699234926963385, "lng": -73.79295587539673, "labeledLatLngs": [{"label": "display", "lat": 40.699234926963385, "lng": -73.79295587539673}], "distance": 335, "postalCode": "11433", "cc": "US", "city": "Jamaica", "state": "NY", "country": "United States", "formattedAddress": ["106-13 Guy R Brewer Blvd (Guy R Brewer Blvd and South Road)", "Jamaica, NY 11433", "United States"]}, "categories": [{"id": "4bf58dd8d48988d144941735", "name": "Caribbean Restaurant", "pluralName": "Caribbean Restaurants", "shortName": "Caribbean", "icon": {"prefix": "https://ss3.4sqi.net/img/categories_v2/food/caribbean_", "suffix": ".png"}, "primary": true}], "photos": {"count": 0, "groups": []}, "venuePage": {"id": "59759470"}}, "referralId": "e-0-5130c73e72da35b105337efe-1"}, {"reasons": {"count": 0, "items": [{"summary": "This spot is popular", "type": "general", "reasonName": "globalInteractionReason"}]}, "venue": {"id": "51083b2645b05b19576952ce", "name": "Fine Fare Supermarkets", "location": {"address": "108-30 Merrick Blvd", "lat": 40.69731047696419, "lng": -73.78583262433102, "labeledLatLngs": [{"label": "display", "lat": 40.69731047696419, "lng": -73.78583262433102}], "distance": 390, "postalCode": "11433", "cc": "US", "city": "Jamaica", "state": "NY", "country": "United States", "formattedAddress": ["108-30 Merrick Blvd", "Jamaica, NY 11433", "United States"]}, "categories": [{"id": "52f2ab2ebcbc57f1066b8b46", "name": "Supermarket", "pluralName": "Supermarkets", "shortName": "Supermarket", "icon": {"prefix": "https://ss3.4sqi.net/img/categories_v2/shops/food_grocery_", "suffix": ".png"}, "primary": true}], "photos": {"count": 0, "groups": []}}, "referralId": "e-0-51083b2645b05b19576952ce-2"}, {"reasons": {"count": 0, "items": [{"summary": "This spot is popular", "type": "general", "reasonName": "globalInteractionReason"}]}, "venue": {"id": "4c7edb752042b1f74644c1ad", "name": "Subway", "location": {"address": "165-10 liberty ave", "crossStreet": "165st", "lat": 40.69989410679558, "lng": -73.7886271304332, "labeledLatLngs": [{"label": "display", "lat": 40.69989410679558, "lng": -73.7886271304332}], "distance": 365, "postalCode": "11433", "cc": "US", "city": "Jamaica", "state": "NY", "country": "United States", "formattedAddress": ["165-10 liberty ave (165st)", "Jamaica, NY 11433", "United States"]}, "categories": [{"id": "4bf58dd8d48988d1c5941735", "name": "Sandwich Place", "pluralName": "Sandwich Places", "shortName": "Sandwiches", "icon": {"prefix": "https://ss3.4sqi.net/img/categories_v2/food/deli_", "suffix": ".png"}, "primary": true}], "photos": {"count": 0, "groups": []}}, "referralId": "e-0-4c7edb752042b1f74644c1ad-3"}, {"reasons": {"count": 0, "items": [{"summary": "This spot is popular", "type": "general", "reasonName": "globalInteractionReason"}]}, "venue": {"id": "4c9f62248afca0938c750916", "name": "Bravo Supermarkets", "location": {"address": "108-54 Guy R Brewer Blvd", "lat": 40.69508012809152, "lng": -73.79052202758294, "labeledLatLngs": [{"label": "display", "lat": 40.69508012809152, "lng": -73.79052202758294}], "distance": 203, "postalCode": "11433", "cc": "US", "city": "Jamaica", "state": "NY", "country": "United States", "formattedAddress": ["108-54 Guy R Brewer Blvd", "Jamaica, NY 11433", "United States"]}, "categories": [{"id": "4bf58dd8d48988d118951735", "name": "Grocery Store", "pluralName": "Grocery Stores", "shortName": "Grocery Store", "icon": {"prefix": "https://ss3.4sqi.net/img/categories_v2/shops/food_grocery_", "suffix": ".png"}, "primary": true}], "photos": {"count": 0, "groups": []}}, "referralId": "e-0-4c9f62248afca0938c750916-4"}, {"reasons": {"count": 0, "items": [{"summary": "This spot is popular", "type": "general", "reasonName": "globalInteractionReason"}]}, "venue": {"id": "4d82419c2fb7370411ea8811", "name": "Apple Garden Chinese Food", "location": {"address": "108-55 Guy R Brewer Blvd", "lat": 40.695150427937335, "lng": -73.79020695790238, "labeledLatLngs": [{"label": "display", "lat": 40.695150427937335, "lng": -73.79020695790238}], "distance": 196, "postalCode": "11433", "cc": "US", "city": "Jamaica", "state": "NY", "country": "United States", "formattedAddress": ["108-55 Guy R Brewer Blvd", "Jamaica, NY 11433", "United States"]}, "categories": [{"id": "4bf58dd8d48988d145941735", "name": "Chinese Restaurant", "pluralName": "Chinese Restaurants", "shortName": "Chinese", "icon": {"prefix": "https://ss3.4sqi.net/img/categories_v2/food/asian_", "suffix": ".png"}, "primary": true}], "photos": {"count": 0, "groups": []}}, "referralId": "e-0-4d82419c2fb7370411ea8811-5"}, {"reasons": {"count": 0, "items": [{"summary": "This spot is popular", "type": "general", "reasonName": "globalInteractionReason"}]}, "venue": {"id": "4e74c63162e126351618e1c9", "name": "Money Gram", "location": {"address": "108-10 Guy R Brewer Blvd", "lat": 40.696078220423445, "lng": -73.79089633323694, "labeledLatLngs": [{"label": "display", "lat": 40.696078220423445, "lng": -73.79089633323694}], "distance": 100, "postalCode": "11433", "cc": "US", "city": "Jamaica", "state": "NY", "country": "United States", "formattedAddress": ["108-10 Guy R Brewer Blvd", "Jamaica, NY 11433", "United States"]}, "categories": [{"id": "4d4b7105d754a06378d81259", "name": "Shop & Service", "pluralName": "Shops & Services", "shortName": "Shops", "icon": {"prefix": "https://ss3.4sqi.net/img/categories_v2/shops/default_", "suffix": ".png"}, "primary": true}], "photos": {"count": 0, "groups": []}}, "referralId": "e-0-4e74c63162e126351618e1c9-6"}, {"reasons": {"count": 0, "items": [{"summary": "This spot is popular", "type": "general", "reasonName": "globalInteractionReason"}]}, "venue": {"id": "4e5fe602d22d509a3883d056", "name": "MTA - Bus Stop", "location": {"address": "105th Ave & Merrick Blvd.", "lat": 40.6998348570268, "lng": -73.78870755831596, "labeledLatLngs": [{"label": "display", "lat": 40.6998348570268, "lng": -73.78870755831596}], "distance": 356, "postalCode": "11433", "cc": "US", "city": "Jamaica", "state": "NY", "country": "United States", "formattedAddress": ["105th Ave & Merrick Blvd.", "Jamaica, NY 11433", "United States"]}, "categories": [{"id": "4bf58dd8d48988d1fe931735", "name": "Bus Station", "pluralName": "Bus Stations", "shortName": "Bus Station", "icon": {"prefix": "https://ss3.4sqi.net/img/categories_v2/travel/busstation_", "suffix": ".png"}, "primary": true}], "photos": {"count": 0, "groups": []}}, "referralId": "e-0-4e5fe602d22d509a3883d056-7"}, {"reasons": {"count": 0, "items": [{"summary": "This spot is popular", "type": "general", "reasonName": "globalInteractionReason"}]}, "venue": {"id": "4c1e31d5fcf8c9b61ad6ac0b", "name": "Wonder Bread", "location": {"lat": 40.70057060984784, "lng": -73.78886841398413, "labeledLatLngs": [{"label": "display", "lat": 40.70057060984784, "lng": -73.78886841398413}], "distance": 428, "postalCode": "11433", "cc": "US", "city": "Jamaica", "state": "NY", "country": "United States", "formattedAddress": ["Jamaica, NY 11433", "United States"]}, "categories": [{"id": "4bf58dd8d48988d16a941735", "name": "Bakery", "pluralName": "Bakeries", "shortName": "Bakery", "icon": {"prefix": "https://ss3.4sqi.net/img/categories_v2/food/bakery_", "suffix": ".png"}, "primary": true}], "photos": {"count": 0, "groups": []}}, "referralId": "e-0-4c1e31d5fcf8c9b61ad6ac0b-8"}, {"reasons": {"count": 0, "items": [{"summary": "This spot is popular", "type": "general", "reasonName": "globalInteractionReason"}]}, "venue": {"id": "4cf63c9cd3a8a1cd4bfccf43", "name": "NYCT Buses -Jamaica Depot", "location": {"address": "Merrick Blvd", "crossStreet": "South Rd", "lat": 40.700799711291936, "lng": -73.78963247663522, "labeledLatLngs": [{"label": "display", "lat": 40.700799711291936, "lng": -73.78963247663522}], "distance": 438, "postalCode": "11433", "cc": "US", "city": "Jamaica", "state": "NY", "country": "United States", "formattedAddress": ["Merrick Blvd (South Rd)", "Jamaica, NY 11433", "United States"]}, "categories": [{"id": "4bf58dd8d48988d12b951735", "name": "Bus Line", "pluralName": "Bus Lines", "shortName": "Bus", "icon": {"prefix": "https://ss3.4sqi.net/img/categories_v2/travel/busstation_", "suffix": ".png"}, "primary": true}], "photos": {"count": 0, "groups": []}}, "referralId": "e-0-4cf63c9cd3a8a1cd4bfccf43-9"}, {"reasons": {"count": 0, "items": [{"summary": "This spot is popular", "type": "general", "reasonName": "globalInteractionReason"}]}, "venue": {"id": "4e511cedd164978659e0ff2d", "name": "J & C Deli & Grocery", "location": {"address": "110-02 Guy R Brewer Blvd", "crossStreet": "at 110th Ave.", "lat": 40.693182873625396, "lng": -73.78839159144701, "labeledLatLngs": [{"label": "display", "lat": 40.693182873625396, "lng": -73.78839159144701}], "distance": 449, "postalCode": "11433", "cc": "US", "city": "Jamaica", "state": "NY", "country": "United States", "formattedAddress": ["110-02 Guy R Brewer Blvd (at 110th Ave.)", "Jamaica, NY 11433", "United States"]}, "categories": [{"id": "4bf58dd8d48988d146941735", "name": "Deli / Bodega", "pluralName": "Delis / Bodegas", "shortName": "Deli / Bodega", "icon": {"prefix": "https://ss3.4sqi.net/img/categories_v2/food/deli_", "suffix": ".png"}, "primary": true}], "photos": {"count": 0, "groups": []}}, "referralId": "e-0-4e511cedd164978659e0ff2d-10"}]