[{"reasons": {"count": 0, "items": [{"summary": "This spot is popular", "type": "general", "reasonName": "globalInteractionReason"}]}, "venue": {"id": "55135426498e9dee8f19cc5f", "name": "L'Industrie Pizzeria", "location": {"address": "254 S 2nd St", "crossStreet": "Havemeyer", "lat": 40.7116752206617, "lng": -73.95769662100513, "labeledLatLngs": [{"label": "display", "lat": 40.7116752206617, "lng": -73.95769662100513}], "distance": 94, "postalCode": "11211", "cc": "US", "city": "Brooklyn", "state": "NY", "country": "United States", "formattedAddress": ["254 S 2nd St (Havemeyer)", "Brooklyn, NY 11211", "United States"]}, "categories": [{"id": "4bf58dd8d48988d1ca941735", "name": "Pizza Place", "pluralName": "Pizza Places", "shortName": "Pizza", "icon": {"prefix": "https://ss3.4sqi.net/img/categories_v2/food/pizza_", "suffix": ".png"}, "primary": true}], "photos": {"count": 0, "groups": []}}, "referralId": "e-0-55135426498e9dee8f19cc5f-0"}, {"reasons": {"count": 0, "items": [{"summary": "This spot is popular", "type": "general", "reasonName": "globalInteractionReason"}]}, "venue": {"id": "50a978f5e4b09f72f3a657a4", "name": "Xixa", "location": {"address": "241 S 4th St", "crossStreet": "Driggs Ave & Roebling", "lat": 40.71041009500999, "lng": -73.95853132009505, "labeledLatLngs": [{"label": "display", "lat": 40.71041009500999, "lng": -73.95853132009505}, {"label": "entrance", "lat": 40.710387, "lng": -73.958546}], "distance": 67, "postalCode": "11211", "cc": "US", "city": "Brooklyn", "state": "NY", "country": "United States", "formattedAddress": ["241 S 4th St (Driggs Ave & Roebling)", "Brooklyn, NY 11211", "United States"]}, "categories": [{"id": "4bf58dd8d48988d1be941735", "name": "Latin American Restaurant", "pluralName": "Latin American Restaurants", "shortName": "Latin American", "icon": {"prefix": "https://ss3.4sqi.net/img/categories_v2/food/latinamerican_", "suffix": ".png"}, "primary": true}], "delivery": {"id": "2185775", "url": "https://www.seamless.com/menu/xixa-241-s-4th-st-brooklyn/2185775?affiliate=1131&utm_source=foursquare-affiliate-network&utm_medium=affiliate&utm_campaign=1131&utm_content=2185775", "provider": {"name": "seamless", "icon": {"prefix": "https://fastly.4sqi.net/img/general/cap/", "sizes": [40, 50], "name": "/delivery_provider_seamless_20180129.png"}}}, "photos": {"count": 0, "groups": []}, "venuePage": {"id": "80023904"}}, "referralId": "e-0-50a978f5e4b09f72f3a657a4-1"}, {"reasons": {"count": 0, "items": [{"summary": "This spot is popular", "type": "general", "reasonName": "globalInteractionReason"}]}, "venue": {"id": "4bb92b3f7421a593b492c240", "name": "Traif", "location": {"address": "229 S 4th St", "crossStreet": "btwn Roebling & Havemeyer St", "lat": 40.71055701088711, "lng": -73.95889510558487, "labeledLatLngs": [{"label": "display", "lat": 40.71055701088711, "lng": -73.95889510558487}], "distance": 82, "postalCode": "11211", "cc": "US", "city": "Brooklyn", "state": "NY", "country": "United States", "formattedAddress": ["229 S 4th St (btwn Roebling & Havemeyer St)", "Brooklyn, NY 11211", "United States"]}, "categories": [{"id": "4bf58dd8d48988d1db931735", "name": "Tapas Restaurant", "pluralName": "Tapas Restaurants", "shortName": "Tapas", "icon": {"prefix": "https://ss3.4sqi.net/img/categories_v2/food/tapas_", "suffix": ".png"}, "primary": true}], "delivery": {"id": "2187402", "url": "https://www.seamless.com/menu/traif-229-s-4th-st-brooklyn/2187402?affiliate=1131&utm_source=foursquare-affiliate-network&utm_medium=affiliate&utm_campaign=1131&utm_content=2187402", "provider": {"name": "seamless", "icon": {"prefix": "https://fastly.4sqi.net/img/general/cap/", "sizes": [40, 50], "name": "/delivery_provider_seamless_20180129.png"}}}, "photos": {"count": 0, "groups": []}, "venuePage": {"id": "71040888"}}, "referralId": "e-0-4bb92b3f7421a593b492c240-2"}, {"reasons": {"count": 0, "items": [{"summary": "This spot is popular", "type": "general", "reasonName": "globalInteractionReason"}]}, "venue": {"id": "54df7b38498eee7bd051f0bc", "name": "East River Pilates", "location": {"address": "235 S 1st St", "crossStreet": "at Roebling street", "lat": 40.71289117042526, "lng": -73.95850006447007, "labeledLatLngs": [{"label": "display", "lat": 40.71289117042526, "lng": -73.95850006447007}], "distance": 229, "postalCode": "11211", "cc": "US", "city": "Brooklyn", "state": "NY", "country": "United States", "formattedAddress": ["235 S 1st St (at Roebling street)", "Brooklyn, NY 11211", "United States"]}, "categories": [{"id": "5744ccdfe4b0c0459246b4b2", "name": "Pilates Studio", "pluralName": "Pilates Studios", "shortName": "Pilates Studio", "icon": {"prefix": "https://ss3.4sqi.net/img/categories_v2/shops/gym_yogastudio_", "suffix": ".png"}, "primary": true}], "photos": {"count": 0, "groups": []}}, "referralId": "e-0-54df7b38498eee7bd051f0bc-3"}, {"reasons": {"count": 0, "items": [{"summary": "This spot is popular", "type": "general", "reasonName": "globalInteractionReason"}]}, "venue": {"id": "570139a9498e16178005c729", "name": "Emmy Squared", "location": {"address": "364 Grand St", "crossStreet": "at Marcy Ave", "lat": 40.712166, "lng": -73.955705, "labeledLatLngs": [{"label": "display", "lat": 40.712166, "lng": -73.955705}, {"label": "entrance", "lat": 40.712241, "lng": -73.955659}], "distance": 242, "postalCode": "11211", "cc": "US", "city": "Brooklyn", "state": "NY", "country": "United States", "formattedAddress": ["364 Grand St (at Marcy Ave)", "Brooklyn, NY 11211", "United States"]}, "categories": [{"id": "4bf58dd8d48988d1ca941735", "name": "Pizza Place", "pluralName": "Pizza Places", "shortName": "Pizza", "icon": {"prefix": "https://ss3.4sqi.net/img/categories_v2/food/pizza_", "suffix": ".png"}, "primary": true}], "photos": {"count": 0, "groups": []}, "venuePage": {"id": "204838597"}}, "referralId": "e-0-570139a9498e16178005c729-4"}, {"reasons": {"count": 0, "items": [{"summary": "This spot is popular", "type": "general", "reasonName": "globalInteractionReason"}]}, "venue": {"id": "4e4ea8b5aeb70f12849528ed", "name": "St. Mazie", "location": {"address": "345 Grand St", "crossStreet": "btwn Marcy Ave & Havemeyer St", "lat": 40.712446182313414, "lng": -73.95595408442468, "labeledLatLngs": [{"label": "display", "lat": 40.712446182313414, "lng": -73.95595408442468}], "distance": 246, "postalCode": "11211", "cc": "US", "city": "Brooklyn", "state": "NY", "country": "United States", "formattedAddress": ["345 Grand St (btwn Marcy Ave & Havemeyer St)", "Brooklyn, NY 11211", "United States"]}, "categories": [{"id": "4bf58dd8d48988d11e941735", "name": "Cocktail Bar", "pluralName": "Cocktail Bars", "shortName": "Cocktail", "icon": {"prefix": "https://ss3.4sqi.net/img/categories_v2/nightlife/cocktails_", "suffix": ".png"}, "primary": true}], "photos": {"count": 0, "groups": []}, "venuePage": {"id": "61891324"}}, "referralId": "e-0-4e4ea8b5aeb70f12849528ed-5"}, {"reasons": {"count": 0, "items": [{"summary": "This spot is popular", "type": "general", "reasonName": "globalInteractionReason"}]}, "venue": {"id": "554f66e8498e387866311421", "name": "The Four Horsemen", "location": {"address": "295 Grand St", "crossStreet": "btwn Havemeyer & Roebling St", "lat": 40.71297062908573, "lng": -73.9573489459191, "labeledLatLngs": [{"label": "display", "lat": 40.71297062908573, "lng": -73.9573489459191}], "distance": 241, "postalCode": "11211", "cc": "US", "city": "Brooklyn", "state": "NY", "country": "United States", "formattedAddress": ["295 Grand St (btwn Havemeyer & Roebling St)", "Brooklyn, NY 11211", "United States"]}, "categories": [{"id": "4bf58dd8d48988d123941735", "name": "Wine Bar", "pluralName": "Wine Bars", "shortName": "Wine Bar", "icon": {"prefix": "https://ss3.4sqi.net/img/categories_v2/food/winery_", "suffix": ".png"}, "primary": true}], "photos": {"count": 0, "groups": []}}, "referralId": "e-0-554f66e8498e387866311421-6"}, {"reasons": {"count": 0, "items": [{"summary": "This spot is popular", "type": "general", "reasonName": "globalInteractionReason"}]}, "venue": {"id": "5db9b79a76758b0008c18821", "name": "Leo", "location": {"address": "123 Havemeyer St", "crossStreet": "Grand St", "lat": 40.712529, "lng": -73.9567, "labeledLatLngs": [{"label": "display", "lat": 40.712529, "lng": -73.9567}], "distance": 215, "postalCode": "11211", "cc": "US", "city": "Brooklyn", "state": "NY", "country": "United States", "formattedAddress": ["123 Havemeyer St (Grand St)", "Brooklyn, NY 11211", "United States"]}, "categories": [{"id": "4bf58dd8d48988d1ca941735", "name": "Pizza Place", "pluralName": "Pizza Places", "shortName": "Pizza", "icon": {"prefix": "https://ss3.4sqi.net/img/categories_v2/food/pizza_", "suffix": ".png"}, "primary": true}], "photos": {"count": 0, "groups": []}}, "referralId": "e-0-5db9b79a76758b0008c18821-7"}, {"reasons": {"count": 0, "items": [{"summary": "This spot is popular", "type": "general", "reasonName": "globalInteractionReason"}]}, "venue": {"id": "4d9764eb942ba093f86e6b8c", "name": "Twenty Sided Store", "location": {"address": "362 Grand St", "crossStreet": "at Marcy Ave", "lat": 40.712268329253185, "lng": -73.9554761947898, "labeledLatLngs": [{"label": "display", "lat": 40.712268329253185, "lng": -73.9554761947898}], "distance": 264, "postalCode": "11211", "cc": "US", "city": "Brooklyn", "state": "NY", "country": "United States", "formattedAddress": ["362 Grand St (at Marcy Ave)", "Brooklyn, NY 11211", "United States"]}, "categories": [{"id": "4bf58dd8d48988d1f3941735", "name": "Toy / Game Store", "pluralName": "Toy / Game Stores", "shortName": "Toys & Games", "icon": {"prefix": "https://ss3.4sqi.net/img/categories_v2/shops/toys_", "suffix": ".png"}, "primary": true}], "photos": {"count": 0, "groups": []}}, "referralId": "e-0-4d9764eb942ba093f86e6b8c-8"}, {"reasons": {"count": 0, "items": [{"summary": "This spot is popular", "type": "general", "reasonName": "globalInteractionReason"}]}, "venue": {"id": "423e0e80f964a52048201fe3", "name": "Bozu", "location": {"address": "296 Grand St", "crossStreet": "btwn Roebling & Havemeyer St", "lat": 40.71297626571757, "lng": -73.95747790354523, "labeledLatLngs": [{"label": "display", "lat": 40.71297626571757, "lng": -73.95747790354523}, {"label": "entrance", "lat": 40.712908, "lng": -73.957483}], "distance": 239, "postalCode": "11211", "cc": "US", "city": "Brooklyn", "state": "NY", "country": "United States", "formattedAddress": ["296 Grand St (btwn Roebling & Havemeyer St)", "Brooklyn, NY 11211", "United States"]}, "categories": [{"id": "4bf58dd8d48988d1d2941735", "name": "Sushi Restaurant", "pluralName": "Sushi Restaurants", "shortName": "Sushi", "icon": {"prefix": "https://ss3.4sqi.net/img/categories_v2/food/sushi_", "suffix": ".png"}, "primary": true}], "photos": {"count": 0, "groups": []}}, "referralId": "e-0-423e0e80f964a52048201fe3-9"}, {"reasons": {"count": 0, "items": [{"summary": "This spot is popular", "type": "general", "reasonName": "globalInteractionReason"}]}, "venue": {"id": "4b525a4ef964a520d17827e3", "name": "Tabar\u00e9", "location": {"address": "221 S 1st St", "crossStreet": "btw Driggs & Roebling", "lat": 40.71306928884032, "lng": -73.95903127129245, "labeledLatLngs": [{"label": "display", "lat": 40.71306928884032, "lng": -73.95903127129245}], "distance": 260, "postalCode": "11211", "cc": "US", "city": "Brooklyn", "state": "NY", "country": "United States", "formattedAddress": ["221 S 1st St (btw Driggs & Roebling)", "Brooklyn, NY 11211", "United States"]}, "categories": [{"id": "4bf58dd8d48988d1cd941735", "name": "South American Restaurant", "pluralName": "South American Restaurants", "shortName": "South American", "icon": {"prefix": "https://ss3.4sqi.net/img/categories_v2/food/argentinian_", "suffix": ".png"}, "primary": true}], "photos": {"count": 0, "groups": []}, "venuePage": {"id": "78888804"}}, "referralId": "e-0-4b525a4ef964a520d17827e3-10"}, {"reasons": {"count": 0, "items": [{"summary": "This spot is popular", "type": "general", "reasonName": "globalInteractionReason"}]}, "venue": {"id": "5d839388ebc5f800089cea77", "name": "Daymoves", "location": {"address": "295 Grand St", "crossStreet": "Havemeyer St", "lat": 40.71310397344715, "lng": -73.9572586119175, "labeledLatLngs": [{"label": "display", "lat": 40.71310397344715, "lng": -73.9572586119175}], "distance": 257, "postalCode": "10002", "cc": "US", "neighborhood": "Williamsburg, Brooklyn, NY", "city": "Brooklyn", "state": "NY", "country": "United States", "formattedAddress": ["295 Grand St (Havemeyer St)", "Brooklyn, NY 10002", "United States"]}, "categories": [{"id": "4bf58dd8d48988d1e0931735", "name": "Coffee Shop", "pluralName": "Coffee Shops", "shortName": "Coffee Shop", "icon": {"prefix": "https://ss3.4sqi.net/img/categories_v2/food/coffeeshop_", "suffix": ".png"}, "primary": true}], "photos": {"count": 0, "groups": []}}, "referralId": "e-0-5d839388ebc5f800089cea77-11"}, {"reasons": {"count": 0, "items": [{"summary": "This spot is popular", "type": "general", "reasonName": "globalInteractionReason"}]}, "venue": {"id": "49bb36fcf964a520dc531fe3", "name": "Caracas Arepa Bar", "location": {"address": "291 Grand St", "crossStreet": "btwn Roebling & Havemeyer St", "lat": 40.71307533802476, "lng": -73.9574621701832, "labeledLatLngs": [{"label": "display", "lat": 40.71307533802476, "lng": -73.9574621701832}, {"label": "entrance", "lat": 40.713091, "lng": -73.957475}], "distance": 250, "postalCode": "11211", "cc": "US", "city": "Brooklyn", "state": "NY", "country": "United States", "formattedAddress": ["291 Grand St (btwn Roebling & Havemeyer St)", "Brooklyn, NY 11211", "United States"]}, "categories": [{"id": "4bf58dd8d48988d152941735", "name": "Arepa Restaurant", "pluralName": "Arepa Restaurants", "shortName": "Arepas", "icon": {"prefix": "https://ss3.4sqi.net/img/categories_v2/food/arepas_", "suffix": ".png"}, "primary": true}], "photos": {"count": 0, "groups": []}}, "referralId": "e-0-49bb36fcf964a520dc531fe3-12"}, {"reasons": {"count": 0, "items": [{"summary": "This spot is popular", "type": "general", "reasonName": "globalInteractionReason"}]}, "venue": {"id": "5b86febb3731ee002c98aa4b", "name": "ppl", "location": {"address": "189 Roebling St", "crossStreet": "at S 1st St", "lat": 40.71282137546778, "lng": -73.95844548940659, "labeledLatLngs": [{"label": "display", "lat": 40.71282137546778, "lng": -73.95844548940659}, {"label": "entrance", "lat": 40.712871, "lng": -73.958455}], "distance": 221, "postalCode": "11211", "cc": "US", "neighborhood": "Williamsburg", "city": "Brooklyn", "state": "NY", "country": "United States", "formattedAddress": ["189 Roebling St (at S 1st St)", "Brooklyn, NY 11211", "United States"]}, "categories": [{"id": "4bf58dd8d48988d1e0931735", "name": "Coffee Shop", "pluralName": "Coffee Shops", "shortName": "Coffee Shop", "icon": {"prefix": "https://ss3.4sqi.net/img/categories_v2/food/coffeeshop_", "suffix": ".png"}, "primary": true}], "photos": {"count": 0, "groups": []}}, "referralId": "e-0-5b86febb3731ee002c98aa4b-13"}, {"reasons": {"count": 0, "items": [{"summary": "This spot is popular", "type": "general", "reasonName": "globalInteractionReason"}]}, "venue": {"id": "4b7961b5f964a520bef62ee3", "name": "Doggie Styles", "location": {"address": "235 Roebling St", "crossStreet": "at S 3rd St", "lat": 40.71123246352236, "lng": -73.9594826976129, "labeledLatLngs": [{"label": "display", "lat": 40.71123246352236, "lng": -73.9594826976129}], "distance": 131, "postalCode": "11211", "cc": "US", "city": "Brooklyn", "state": "NY", "country": "United States", "formattedAddress": ["235 Roebling St (at S 3rd St)", "Brooklyn, NY 11211", "United States"]}, "categories": [{"id": "4bf58dd8d48988d100951735", "name": "Pet Store", "pluralName": "Pet Stores", "shortName": "Pet Store", "icon": {"prefix": "https://ss3.4sqi.net/img/categories_v2/shops/pet_store_", "suffix": ".png"}, "primary": true}], "photos": {"count": 0, "groups": []}}, "referralId": "e-0-4b7961b5f964a520bef62ee3-14"}, {"reasons": {"count": 0, "items": [{"summary": "This spot is popular", "type": "general", "reasonName": "globalInteractionReason"}]}, "venue": {"id": "588fc49cf68d8d04baa98763", "name": "Mezcaleria La Milagrosa Agave Bar and Listening Room", "location": {"address": "149 Havemeyer St", "crossStreet": "S2nd", "lat": 40.7117724614975, "lng": -73.95741297908233, "labeledLatLngs": [{"label": "display", "lat": 40.7117724614975, "lng": -73.95741297908233}], "distance": 112, "postalCode": "11211", "cc": "US", "city": "Brooklyn", "state": "NY", "country": "United States", "formattedAddress": ["149 Havemeyer St (S2nd)", "Brooklyn, NY 11211", "United States"]}, "categories": [{"id": "4bf58dd8d48988d116941735", "name": "Bar", "pluralName": "Bars", "shortName": "Bar", "icon": {"prefix": "https://ss3.4sqi.net/img/categories_v2/nightlife/pub_", "suffix": ".png"}, "primary": true}], "photos": {"count": 0, "groups": []}}, "referralId": "e-0-588fc49cf68d8d04baa98763-15"}, {"reasons": {"count": 0, "items": [{"summary": "This spot is popular", "type": "general", "reasonName": "globalInteractionReason"}]}, "venue": {"id": "59a013947564f768b785adfb", "name": "Overthrow Boxing", "location": {"address": "256 Grand St", "lat": 40.71341935159598, "lng": -73.95875922304612, "labeledLatLngs": [{"label": "display", "lat": 40.71341935159598, "lng": -73.95875922304612}], "distance": 291, "postalCode": "11211", "cc": "US", "city": "New York", "state": "NY", "country": "United States", "formattedAddress": ["256 Grand St", "New York, NY 11211", "United States"]}, "categories": [{"id": "52f2ab2ebcbc57f1066b8b47", "name": "Boxing Gym", "pluralName": "Boxing Gyms", "shortName": "Boxing Gym", "icon": {"prefix": "https://ss3.4sqi.net/img/categories_v2/building/gym_", "suffix": ".png"}, "primary": true}], "photos": {"count": 0, "groups": []}}, "referralId": "e-0-59a013947564f768b785adfb-16"}, {"reasons": {"count": 0, "items": [{"summary": "This spot is popular", "type": "general", "reasonName": "globalInteractionReason"}]}, "venue": {"id": "57f6f8ffcd103844642af101", "name": "Sun and Air", "location": {"address": "788 Driggs Ave", "crossStreet": "S. 4th St", "lat": 40.71141191225947, "lng": -73.9614471706906, "labeledLatLngs": [{"label": "display", "lat": 40.71141191225947, "lng": -73.9614471706906}], "distance": 297, "postalCode": "11211", "cc": "US", "neighborhood": "Williamsburg", "city": "Brooklyn", "state": "NY", "country": "United States", "formattedAddress": ["788 Driggs Ave (S. 4th St)", "Brooklyn, NY 11211", "United States"]}, "categories": [{"id": "4bf58dd8d48988d115951735", "name": "Bike Shop", "pluralName": "Bike Shops", "shortName": "Bike Shop", "icon": {"prefix": "https://ss3.4sqi.net/img/categories_v2/shops/bikeshop_", "suffix": ".png"}, "primary": true}], "delivery": {"id": "2191619", "url": "https://www.seamless.com/menu/ai-sushi-141-s-2nd-st-brooklyn/2191619?affiliate=1131&utm_source=foursquare-affiliate-network&utm_medium=affiliate&utm_campaign=1131&utm_content=2191619", "provider": {"name": "seamless", "icon": {"prefix": "https://fastly.4sqi.net/img/general/cap/", "sizes": [40, 50], "name": "/delivery_provider_seamless_20180129.png"}}}, "photos": {"count": 0, "groups": []}}, "referralId": "e-0-57f6f8ffcd103844642af101-17"}, {"reasons": {"count": 0, "items": [{"summary": "This spot is popular", "type": "general", "reasonName": "globalInteractionReason"}]}, "venue": {"id": "3fd66200f964a520dbf01ee3", "name": "Silver Factory", "location": {"address": "270 S 5th St", "crossStreet": "Havemeyer", "lat": 40.709318072033476, "lng": -73.95853614039552, "labeledLatLngs": [{"label": "display", "lat": 40.709318072033476, "lng": -73.95853614039552}, {"label": "entrance", "lat": 40.709335, "lng": -73.95853}], "distance": 177, "postalCode": "11211", "cc": "US", "city": "Brooklyn", "state": "NY", "country": "United States", "formattedAddress": ["270 S 5th St (Havemeyer)", "Brooklyn, NY 11211", "United States"]}, "categories": [{"id": "4bf58dd8d48988d121941735", "name": "Lounge", "pluralName": "Lounges", "shortName": "Lounge", "icon": {"prefix": "https://ss3.4sqi.net/img/categories_v2/nightlife/default_", "suffix": ".png"}, "primary": true}], "photos": {"count": 0, "groups": []}}, "referralId": "e-0-3fd66200f964a520dbf01ee3-18"}, {"reasons": {"count": 0, "items": [{"summary": "This spot is popular", "type": "general", "reasonName": "globalInteractionReason"}]}, "venue": {"id": "4ffe3889e4b01d5de4d4a81a", "name": "Blue Collar", "location": {"address": "160 Havemeyer St", "crossStreet": "S. 2nd St.", "lat": 40.71135771797886, "lng": -73.95771847756468, "labeledLatLngs": [{"label": "display", "lat": 40.71135771797886, "lng": -73.95771847756468}], "distance": 60, "postalCode": "11211", "cc": "US", "city": "Brooklyn", "state": "NY", "country": "United States", "formattedAddress": ["160 Havemeyer St (S. 2nd St.)", "Brooklyn, NY 11211", "United States"]}, "categories": [{"id": "4bf58dd8d48988d16c941735", "name": "Burger Joint", "pluralName": "Burger Joints", "shortName": "Burgers", "icon": {"prefix": "https://ss3.4sqi.net/img/categories_v2/food/burger_", "suffix": ".png"}, "primary": true}], "delivery": {"id": "275590", "url": "https://www.seamless.com/menu/blue-collar-160-havemeyer-st-brooklyn/275590?affiliate=1131&utm_source=foursquare-affiliate-network&utm_medium=affiliate&utm_campaign=1131&utm_content=275590", "provider": {"name": "seamless", "icon": {"prefix": "https://fastly.4sqi.net/img/general/cap/", "sizes": [40, 50], "name": "/delivery_provider_seamless_20180129.png"}}}, "photos": {"count": 0, "groups": []}, "venuePage": {"id": "78978122"}}, "referralId": "e-0-4ffe3889e4b01d5de4d4a81a-19"}, {"reasons": {"count": 0, "items": [{"summary": "This spot is popular", "type": "general", "reasonName": "globalInteractionReason"}]}, "venue": {"id": "563169d2498e609fa36f7bd3", "name": "Have & Meyer Chatteria", "location": {"address": "103 Havermeyer St", "crossStreet": "Hope St", "lat": 40.71330486799995, "lng": -73.95646386109051, "labeledLatLngs": [{"label": "display", "lat": 40.71330486799995, "lng": -73.95646386109051}], "distance": 301, "postalCode": "11211", "cc": "US", "city": "Brooklyn", "state": "NY", "country": "United States", "formattedAddress": ["103 Havermeyer St (Hope St)", "Brooklyn, NY 11211", "United States"]}, "categories": [{"id": "4bf58dd8d48988d123941735", "name": "Wine Bar", "pluralName": "Wine Bars", "shortName": "Wine Bar", "icon": {"prefix": "https://ss3.4sqi.net/img/categories_v2/food/winery_", "suffix": ".png"}, "primary": true}], "delivery": {"id": "350491", "url": "https://www.seamless.com/menu/have--meyer-103-havemeyer-st-brooklyn/350491?affiliate=1131&utm_source=foursquare-affiliate-network&utm_medium=affiliate&utm_campaign=1131&utm_content=350491", "provider": {"name": "seamless", "icon": {"prefix": "https://fastly.4sqi.net/img/general/cap/", "sizes": [40, 50], "name": "/delivery_provider_seamless_20180129.png"}}}, "photos": {"count": 0, "groups": []}}, "referralId": "e-0-563169d2498e609fa36f7bd3-20"}, {"reasons": {"count": 0, "items": [{"summary": "This spot is popular", "type": "general", "reasonName": "globalInteractionReason"}]}, "venue": {"id": "4fb44e61e4b0557240bf1470", "name": "Mr. Pi\u00f1a Fruit and Vegetables", "location": {"address": "219 Havemeyer St", "crossStreet": "at Broadway", "lat": 40.709354501117915, "lng": -73.95927524079457, "labeledLatLngs": [{"label": "display", "lat": 40.709354501117915, "lng": -73.95927524079457}, {"label": "entrance", "lat": 40.709264, "lng": -73.95889}], "distance": 199, "postalCode": "11211", "cc": "US", "neighborhood": "Williamsburg", "city": "Brooklyn", "state": "NY", "country": "United States", "formattedAddress": ["219 Havemeyer St (at Broadway)", "Brooklyn, NY 11211", "United States"]}, "categories": [{"id": "4bf58dd8d48988d118951735", "name": "Grocery Store", "pluralName": "Grocery Stores", "shortName": "Grocery Store", "icon": {"prefix": "https://ss3.4sqi.net/img/categories_v2/shops/food_grocery_", "suffix": ".png"}, "primary": true}], "photos": {"count": 0, "groups": []}}, "referralId": "e-0-4fb44e61e4b0557240bf1470-21"}, {"reasons": {"count": 0, "items": [{"summary": "This spot is popular", "type": "general", "reasonName": "globalInteractionReason"}]}, "venue": {"id": "54a96fb3498ef8abe4184a51", "name": "Laughing Lotus Yoga Center", "location": {"address": "232 Broadway", "crossStreet": "Roebling", "lat": 40.70921643497141, "lng": -73.96036452112918, "labeledLatLngs": [{"label": "display", "lat": 40.70921643497141, "lng": -73.96036452112918}, {"label": "entrance", "lat": 40.709035, "lng": -73.960337}], "distance": 270, "postalCode": "11211", "cc": "US", "city": "Brooklyn", "state": "NY", "country": "United States", "formattedAddress": ["232 Broadway (Roebling)", "Brooklyn, NY 11211", "United States"]}, "categories": [{"id": "4bf58dd8d48988d102941735", "name": "Yoga Studio", "pluralName": "Yoga Studios", "shortName": "Yoga Studio", "icon": {"prefix": "https://ss3.4sqi.net/img/categories_v2/shops/gym_yogastudio_", "suffix": ".png"}, "primary": true}], "photos": {"count": 0, "groups": []}}, "referralId": "e-0-54a96fb3498ef8abe4184a51-22"}, {"reasons": {"count": 0, "items": [{"summary": "This spot is popular", "type": "general", "reasonName": "globalInteractionReason"}]}, "venue": {"id": "4b6dd50af964a520fd932ce3", "name": "Reben Luncheonette", "location": {"address": "229 Havemeyer St", "crossStreet": "at Broadway", "lat": 40.708944364199056, "lng": -73.95919718358644, "labeledLatLngs": [{"label": "display", "lat": 40.708944364199056, "lng": -73.95919718358644}], "distance": 236, "postalCode": "11211", "cc": "US", "city": "Brooklyn", "state": "NY", "country": "United States", "formattedAddress": ["229 Havemeyer St (at Broadway)", "Brooklyn, NY 11211", "United States"]}, "categories": [{"id": "4bf58dd8d48988d143941735", "name": "Breakfast Spot", "pluralName": "Breakfast Spots", "shortName": "Breakfast", "icon": {"prefix": "https://ss3.4sqi.net/img/categories_v2/food/breakfast_", "suffix": ".png"}, "primary": true}], "photos": {"count": 0, "groups": []}}, "referralId": "e-0-4b6dd50af964a520fd932ce3-23"}, {"reasons": {"count": 0, "items": [{"summary": "This spot is popular", "type": "general", "reasonName": "globalInteractionReason"}]}, "venue": {"id": "5149186de4b00b4870f6c55e", "name": "Desnuda Williamsburg", "location": {"address": "221 S 1st St", "crossStreet": "Driggs & Roebling", "lat": 40.71298621266654, "lng": -73.95895763004967, "labeledLatLngs": [{"label": "display", "lat": 40.71298621266654, "lng": -73.95895763004967}], "distance": 249, "postalCode": "11211", "cc": "US", "city": "Brooklyn", "state": "NY", "country": "United States", "formattedAddress": ["221 S 1st St (Driggs & Roebling)", "Brooklyn, NY 11211", "United States"]}, "categories": [{"id": "4bf58dd8d48988d1cd941735", "name": "South American Restaurant", "pluralName": "South American Restaurants", "shortName": "South American", "icon": {"prefix": "https://ss3.4sqi.net/img/categories_v2/food/argentinian_", "suffix": ".png"}, "primary": true}], "photos": {"count": 0, "groups": []}, "venuePage": {"id": "57503241"}}, "referralId": "e-0-5149186de4b00b4870f6c55e-24"}, {"reasons": {"count": 0, "items": [{"summary": "This spot is popular", "type": "general", "reasonName": "globalInteractionReason"}]}, "venue": {"id": "448acb74f964a52048341fe3", "name": "Pies 'n' Thighs", "location": {"address": "166 S 4th St", "crossStreet": "at Driggs Ave", "lat": 40.711247914500696, "lng": -73.96144509176183, "labeledLatLngs": [{"label": "display", "lat": 40.711247914500696, "lng": -73.96144509176183}, {"label": "entrance", "lat": 40.711224, "lng": -73.961339}], "distance": 293, "postalCode": "11211", "cc": "US", "city": "Brooklyn", "state": "NY", "country": "United States", "formattedAddress": ["166 S 4th St (at Driggs Ave)", "Brooklyn, NY 11211", "United States"]}, "categories": [{"id": "4d4ae6fc7a7b7dea34424761", "name": "Fried Chicken Joint", "pluralName": "Fried Chicken Joints", "shortName": "Fried Chicken", "icon": {"prefix": "https://ss3.4sqi.net/img/categories_v2/food/friedchicken_", "suffix": ".png"}, "primary": true}], "photos": {"count": 0, "groups": []}, "venuePage": {"id": "53126899"}}, "referralId": "e-0-448acb74f964a52048341fe3-25"}, {"reasons": {"count": 0, "items": [{"summary": "This spot is popular", "type": "general", "reasonName": "globalInteractionReason"}]}, "venue": {"id": "51c4c6de498edf95246e0072", "name": "Cerveceria Havemeyer", "location": {"address": "149 Havemeyer St", "crossStreet": "btwn S 1st & S 2nd St", "lat": 40.7118199247861, "lng": -73.95739615248144, "labeledLatLngs": [{"label": "display", "lat": 40.7118199247861, "lng": -73.95739615248144}], "distance": 118, "postalCode": "11211", "cc": "US", "city": "Brooklyn", "state": "NY", "country": "United States", "formattedAddress": ["149 Havemeyer St (btwn S 1st & S 2nd St)", "Brooklyn, NY 11211", "United States"]}, "categories": [{"id": "4bf58dd8d48988d1c1941735", "name": "Mexican Restaurant", "pluralName": "Mexican Restaurants", "shortName": "Mexican", "icon": {"prefix": "https://ss3.4sqi.net/img/categories_v2/food/mexican_", "suffix": ".png"}, "primary": true}], "photos": {"count": 0, "groups": []}, "venuePage": {"id": "79261750"}}, "referralId": "e-0-51c4c6de498edf95246e0072-26"}, {"reasons": {"count": 0, "items": [{"summary": "This spot is popular", "type": "general", "reasonName": "globalInteractionReason"}]}, "venue": {"id": "49c3df11f964a52081561fe3", "name": "Walter Sports", "location": {"address": "253 Grand St", "crossStreet": "at Roebling St", "lat": 40.71344351717057, "lng": -73.9585818114249, "labeledLatLngs": [{"label": "display", "lat": 40.71344351717057, "lng": -73.9585818114249}, {"label": "entrance", "lat": 40.71349, "lng": -73.958559}], "distance": 291, "postalCode": "11211", "cc": "US", "city": "Brooklyn", "state": "NY", "country": "United States", "formattedAddress": ["253 Grand St (at Roebling St)", "Brooklyn, NY 11211", "United States"]}, "categories": [{"id": "4bf58dd8d48988d14e941735", "name": "American Restaurant", "pluralName": "American Restaurants", "shortName": "American", "icon": {"prefix": "https://ss3.4sqi.net/img/categories_v2/food/default_", "suffix": ".png"}, "primary": true}], "photos": {"count": 0, "groups": []}, "venuePage": {"id": "80139030"}}, "referralId": "e-0-49c3df11f964a52081561fe3-27"}, {"reasons": {"count": 0, "items": [{"summary": "This spot is popular", "type": "general", "reasonName": "globalInteractionReason"}]}, "venue": {"id": "51e1e994498efac3db9a71a7", "name": "Species By The Thousands", "location": {"lat": 40.711401, "lng": -73.96109799999999, "labeledLatLngs": [{"label": "display", "lat": 40.711401, "lng": -73.96109799999999}, {"label": "entrance", "lat": 40.711338, "lng": -73.961139}], "distance": 268, "cc": "US", "city": "Brooklyn", "state": "NY", "country": "United States", "formattedAddress": ["Brooklyn, NY", "United States"]}, "categories": [{"id": "4bf58dd8d48988d111951735", "name": "Jewelry Store", "pluralName": "Jewelry Stores", "shortName": "Jewelry", "icon": {"prefix": "https://ss3.4sqi.net/img/categories_v2/shops/jewelry_", "suffix": ".png"}, "primary": true}], "photos": {"count": 0, "groups": []}}, "referralId": "e-0-51e1e994498efac3db9a71a7-28"}, {"reasons": {"count": 0, "items": [{"summary": "This spot is popular", "type": "general", "reasonName": "globalInteractionReason"}]}, "venue": {"id": "54c3bc24498e44dbbd7fe035", "name": "Little Choc Apothecary", "location": {"address": "141 Havemeyer St", "lat": 40.71195572791476, "lng": -73.95733343601323, "labeledLatLngs": [{"label": "display", "lat": 40.71195572791476, "lng": -73.95733343601323}, {"label": "entrance", "lat": 40.711913, "lng": -73.957218}], "distance": 134, "postalCode": "11211", "cc": "US", "city": "Brooklyn", "state": "NY", "country": "United States", "formattedAddress": ["141 Havemeyer St", "Brooklyn, NY 11211", "United States"]}, "categories": [{"id": "52e81612bcbc57f1066b79f2", "name": "Creperie", "pluralName": "Creperies", "shortName": "Creperie", "icon": {"prefix": "https://ss3.4sqi.net/img/categories_v2/food/creperie_", "suffix": ".png"}, "primary": true}], "photos": {"count": 0, "groups": []}, "venuePage": {"id": "455333256"}}, "referralId": "e-0-54c3bc24498e44dbbd7fe035-29"}, {"reasons": {"count": 0, "items": [{"summary": "This spot is popular", "type": "general", "reasonName": "globalInteractionReason"}]}, "venue": {"id": "4efdcdf30cd6fe62d517e63e", "name": "Kabob Shack", "location": {"address": "182 Havemeyer St", "crossStreet": "btwn S 3rd & S 4th", "lat": 40.71073, "lng": -73.958244, "labeledLatLngs": [{"label": "display", "lat": 40.71073, "lng": -73.958244}], "distance": 25, "postalCode": "11211", "cc": "US", "neighborhood": "Williamsburg", "city": "Brooklyn", "state": "NY", "country": "United States", "formattedAddress": ["182 Havemeyer St (btwn S 3rd & S 4th)", "Brooklyn, NY 11211", "United States"]}, "categories": [{"id": "4bf58dd8d48988d115941735", "name": "Middle Eastern Restaurant", "pluralName": "Middle Eastern Restaurants", "shortName": "Middle Eastern", "icon": {"prefix": "https://ss3.4sqi.net/img/categories_v2/food/middleeastern_", "suffix": ".png"}, "primary": true}], "delivery": {"id": "2042340", "url": "https://www.seamless.com/menu/kabob-shack-182-havemeyer-st-brooklyn/2042340?affiliate=1131&utm_source=foursquare-affiliate-network&utm_medium=affiliate&utm_campaign=1131&utm_content=2042340", "provider": {"name": "seamless", "icon": {"prefix": "https://fastly.4sqi.net/img/general/cap/", "sizes": [40, 50], "name": "/delivery_provider_seamless_20180129.png"}}}, "photos": {"count": 0, "groups": []}, "venuePage": {"id": "71904106"}}, "referralId": "e-0-4efdcdf30cd6fe62d517e63e-30"}, {"reasons": {"count": 0, "items": [{"summary": "This spot is popular", "type": "general", "reasonName": "globalInteractionReason"}]}, "venue": {"id": "44166f04f964a52003311fe3", "name": "Duff's", "location": {"address": "168 Marcy Ave", "crossStreet": "Broadway", "lat": 40.708773859830124, "lng": -73.95771641082318, "labeledLatLngs": [{"label": "display", "lat": 40.708773859830124, "lng": -73.95771641082318}, {"label": "entrance", "lat": 40.708809, "lng": -73.957769}], "distance": 233, "postalCode": "11211", "cc": "US", "city": "Brooklyn", "state": "NY", "country": "United States", "formattedAddress": ["168 Marcy Ave (Broadway)", "Brooklyn, NY 11211", "United States"]}, "categories": [{"id": "4bf58dd8d48988d116941735", "name": "Bar", "pluralName": "Bars", "shortName": "Bar", "icon": {"prefix": "https://ss3.4sqi.net/img/categories_v2/nightlife/pub_", "suffix": ".png"}, "primary": true}], "photos": {"count": 0, "groups": []}}, "referralId": "e-0-44166f04f964a52003311fe3-31"}, {"reasons": {"count": 0, "items": [{"summary": "This spot is popular", "type": "general", "reasonName": "globalInteractionReason"}]}, "venue": {"id": "5c185ef186bc49002c6cadd3", "name": "Gertie", "location": {"address": "357 Grand St", "crossStreet": "Grand St + Marcy Ave", "lat": 40.712367870426476, "lng": -73.95559241952137, "labeledLatLngs": [{"label": "display", "lat": 40.712367870426476, "lng": -73.95559241952137}], "distance": 263, "postalCode": "11211", "cc": "US", "city": "Brooklyn", "state": "NY", "country": "United States", "formattedAddress": ["357 Grand St (Grand St + Marcy Ave)", "Brooklyn, NY 11211", "United States"]}, "categories": [{"id": "4bf58dd8d48988d1c4941735", "name": "Restaurant", "pluralName": "Restaurants", "shortName": "Restaurant", "icon": {"prefix": "https://ss3.4sqi.net/img/categories_v2/food/default_", "suffix": ".png"}, "primary": true}], "delivery": {"id": "1339774", "url": "https://www.seamless.com/menu/gertie-357-grand-st-brooklyn/1339774?affiliate=1131&utm_source=foursquare-affiliate-network&utm_medium=affiliate&utm_campaign=1131&utm_content=1339774", "provider": {"name": "seamless", "icon": {"prefix": "https://fastly.4sqi.net/img/general/cap/", "sizes": [40, 50], "name": "/delivery_provider_seamless_20180129.png"}}}, "photos": {"count": 0, "groups": []}, "venuePage": {"id": "544485646"}}, "referralId": "e-0-5c185ef186bc49002c6cadd3-32"}, {"reasons": {"count": 0, "items": [{"summary": "This spot is popular", "type": "general", "reasonName": "globalInteractionReason"}]}, "venue": {"id": "56991b98498e15c81aa97998", "name": "HaveABagel", "location": {"address": "197 Havemeyer St", "crossStreet": "Borinquen Pl", "lat": 40.71016502340493, "lng": -73.95852015059602, "labeledLatLngs": [{"label": "display", "lat": 40.71016502340493, "lng": -73.95852015059602}], "distance": 89, "postalCode": "11211", "cc": "US", "city": "Brooklyn", "state": "NY", "country": "United States", "formattedAddress": ["197 Havemeyer St (Borinquen Pl)", "Brooklyn, NY 11211", "United States"]}, "categories": [{"id": "4bf58dd8d48988d179941735", "name": "Bagel Shop", "pluralName": "Bagel Shops", "shortName": "Bagels", "icon": {"prefix": "https://ss3.4sqi.net/img/categories_v2/food/bagels_", "suffix": ".png"}, "primary": true}], "photos": {"count": 0, "groups": []}}, "referralId": "e-0-56991b98498e15c81aa97998-33"}, {"reasons": {"count": 0, "items": [{"summary": "This spot is popular", "type": "general", "reasonName": "globalInteractionReason"}]}, "venue": {"id": "58275fad88a1a041b74ddacb", "name": "Loom Yoga", "location": {"address": "783 Driggs Ave", "crossStreet": "South 4th", "lat": 40.71143319927703, "lng": -73.96138198765543, "labeledLatLngs": [{"label": "display", "lat": 40.71143319927703, "lng": -73.96138198765543}], "distance": 292, "postalCode": "11211", "cc": "US", "city": "New York", "state": "NY", "country": "United States", "formattedAddress": ["783 Driggs Ave (South 4th)", "New York, NY 11211", "United States"]}, "categories": [{"id": "4bf58dd8d48988d102941735", "name": "Yoga Studio", "pluralName": "Yoga Studios", "shortName": "Yoga Studio", "icon": {"prefix": "https://ss3.4sqi.net/img/categories_v2/shops/gym_yogastudio_", "suffix": ".png"}, "primary": true}], "photos": {"count": 0, "groups": []}}, "referralId": "e-0-58275fad88a1a041b74ddacb-34"}, {"reasons": {"count": 0, "items": [{"summary": "This spot is popular", "type": "general", "reasonName": "globalInteractionReason"}]}, "venue": {"id": "5d349f82ee95980008752127", "name": "Ceremonia Bakeshop", "location": {"address": "743 Driggs Ave", "lat": 40.712482, "lng": -73.960533, "labeledLatLngs": [{"label": "display", "lat": 40.712482, "lng": -73.960533}], "distance": 279, "postalCode": "11211", "cc": "US", "city": "New York", "state": "NY", "country": "United States", "formattedAddress": ["743 Driggs Ave", "New York, NY 11211", "United States"]}, "categories": [{"id": "4bf58dd8d48988d16a941735", "name": "Bakery", "pluralName": "Bakeries", "shortName": "Bakery", "icon": {"prefix": "https://ss3.4sqi.net/img/categories_v2/food/bakery_", "suffix": ".png"}, "primary": true}], "photos": {"count": 0, "groups": []}}, "referralId": "e-0-5d349f82ee95980008752127-35"}, {"reasons": {"count": 0, "items": [{"summary": "This spot is popular", "type": "general", "reasonName": "globalInteractionReason"}]}, "venue": {"id": "5659be63498e1bd863c1e601", "name": "Northerly", "location": {"address": "181 Havemeyer St", "crossStreet": "Btwn S 3rd St & Borinquen Pl.", "lat": 40.710535802393785, "lng": -73.9581638123791, "labeledLatLngs": [{"label": "display", "lat": 40.710535802393785, "lng": -73.9581638123791}], "distance": 38, "postalCode": "11211", "cc": "US", "city": "Brooklyn", "state": "NY", "country": "United States", "formattedAddress": ["181 Havemeyer St (Btwn S 3rd St & Borinquen Pl.)", "Brooklyn, NY 11211", "United States"]}, "categories": [{"id": "4bf58dd8d48988d1e0931735", "name": "Coffee Shop", "pluralName": "Coffee Shops", "shortName": "Coffee Shop", "icon": {"prefix": "https://ss3.4sqi.net/img/categories_v2/food/coffeeshop_", "suffix": ".png"}, "primary": true}], "photos": {"count": 0, "groups": []}}, "referralId": "e-0-5659be63498e1bd863c1e601-36"}, {"reasons": {"count": 0, "items": [{"summary": "This spot is popular", "type": "general", "reasonName": "globalInteractionReason"}]}, "venue": {"id": "4b637738f964a520f37b2ae3", "name": "Choplet Studio and Gallery", "location": {"address": "238 Grand St", "crossStreet": "Driggs", "lat": 40.713601179542955, "lng": -73.95926241580315, "labeledLatLngs": [{"label": "display", "lat": 40.713601179542955, "lng": -73.95926241580315}, {"label": "entrance", "lat": 40.713539, "lng": -73.959219}], "distance": 323, "postalCode": "11211", "cc": "US", "neighborhood": "Williamsburg", "city": "Brooklyn", "state": "NY", "country": "United States", "formattedAddress": ["238 Grand St (Driggs)", "Brooklyn, NY 11211", "United States"]}, "categories": [{"id": "4bf58dd8d48988d1e2931735", "name": "Art Gallery", "pluralName": "Art Galleries", "shortName": "Art Gallery", "icon": {"prefix": "https://ss3.4sqi.net/img/categories_v2/arts_entertainment/artgallery_", "suffix": ".png"}, "primary": true}], "photos": {"count": 0, "groups": []}}, "referralId": "e-0-4b637738f964a520f37b2ae3-37"}, {"reasons": {"count": 0, "items": [{"summary": "This spot is popular", "type": "general", "reasonName": "globalInteractionReason"}]}, "venue": {"id": "56c33c50cd1020ede4b92a2e", "name": "To Spiti", "location": {"address": "160 Havemeyer St", "crossStreet": "btwn S 2nd St and S 3rd St", "lat": 40.71145222603289, "lng": -73.95763719293313, "labeledLatLngs": [{"label": "display", "lat": 40.71145222603289, "lng": -73.95763719293313}], "distance": 72, "postalCode": "11211", "cc": "US", "city": "Brooklyn", "state": "NY", "country": "United States", "formattedAddress": ["160 Havemeyer St (btwn S 2nd St and S 3rd St)", "Brooklyn, NY 11211", "United States"]}, "categories": [{"id": "4bf58dd8d48988d10e941735", "name": "Greek Restaurant", "pluralName": "Greek Restaurants", "shortName": "Greek", "icon": {"prefix": "https://ss3.4sqi.net/img/categories_v2/food/greek_", "suffix": ".png"}, "primary": true}], "delivery": {"id": "321613", "url": "https://www.seamless.com/menu/to-spiti-160-havemeyer-st-ste-6-brooklyn/321613?affiliate=1131&utm_source=foursquare-affiliate-network&utm_medium=affiliate&utm_campaign=1131&utm_content=321613", "provider": {"name": "seamless", "icon": {"prefix": "https://fastly.4sqi.net/img/general/cap/", "sizes": [40, 50], "name": "/delivery_provider_seamless_20180129.png"}}}, "photos": {"count": 0, "groups": []}}, "referralId": "e-0-56c33c50cd1020ede4b92a2e-38"}, {"reasons": {"count": 0, "items": [{"summary": "This spot is popular", "type": "general", "reasonName": "globalInteractionReason"}]}, "venue": {"id": "51f9b7b3498eefe896caeb23", "name": "Shalom Japan", "location": {"address": "310 S 4th St", "crossStreet": "at Rodney St", "lat": 40.709219, "lng": -73.955839, "labeledLatLngs": [{"label": "display", "lat": 40.709219, "lng": -73.955839}], "distance": 258, "postalCode": "11211", "cc": "US", "city": "Brooklyn", "state": "NY", "country": "United States", "formattedAddress": ["310 S 4th St (at Rodney St)", "Brooklyn, NY 11211", "United States"]}, "categories": [{"id": "4bf58dd8d48988d111941735", "name": "Japanese Restaurant", "pluralName": "Japanese Restaurants", "shortName": "Japanese", "icon": {"prefix": "https://ss3.4sqi.net/img/categories_v2/food/japanese_", "suffix": ".png"}, "primary": true}], "delivery": {"id": "1340897", "url": "https://www.seamless.com/menu/shalom-japan-310-s-4th-st-brooklyn/1340897?affiliate=1131&utm_source=foursquare-affiliate-network&utm_medium=affiliate&utm_campaign=1131&utm_content=1340897", "provider": {"name": "seamless", "icon": {"prefix": "https://fastly.4sqi.net/img/general/cap/", "sizes": [40, 50], "name": "/delivery_provider_seamless_20180129.png"}}}, "photos": {"count": 0, "groups": []}, "venuePage": {"id": "63677960"}}, "referralId": "e-0-51f9b7b3498eefe896caeb23-39"}, {"reasons": {"count": 0, "items": [{"summary": "This spot is popular", "type": "general", "reasonName": "globalInteractionReason"}]}, "venue": {"id": "50118c5cebca56ceab9ec118", "name": "Weylin", "location": {"address": "175 Broadway", "crossStreet": "at Driggs Ave", "lat": 40.71019585993708, "lng": -73.96231810538166, "labeledLatLngs": [{"label": "display", "lat": 40.71019585993708, "lng": -73.96231810538166}], "distance": 371, "postalCode": "11211", "cc": "US", "city": "Brooklyn", "state": "NY", "country": "United States", "formattedAddress": ["175 Broadway (at Driggs Ave)", "Brooklyn, NY 11211", "United States"]}, "categories": [{"id": "4bf58dd8d48988d171941735", "name": "Event Space", "pluralName": "Event Spaces", "shortName": "Event Space", "icon": {"prefix": "https://ss3.4sqi.net/img/categories_v2/building/eventspace_", "suffix": ".png"}, "primary": true}], "photos": {"count": 0, "groups": []}, "venuePage": {"id": "89430963"}}, "referralId": "e-0-50118c5cebca56ceab9ec118-40"}, {"reasons": {"count": 0, "items": [{"summary": "This spot is popular", "type": "general", "reasonName": "globalInteractionReason"}]}, "venue": {"id": "579baeff498e21290f2705c9", "name": "Blink Fitness", "location": {"address": "287 Broadway", "crossStreet": "Btwn Havemeyer St & Marcy Av", "lat": 40.70874086716891, "lng": -73.95832431779098, "labeledLatLngs": [{"label": "display", "lat": 40.70874086716891, "lng": -73.95832431779098}, {"label": "entrance", "lat": 40.708661, "lng": -73.958291}], "distance": 237, "postalCode": "11211", "cc": "US", "city": "Brooklyn", "state": "NY", "country": "United States", "formattedAddress": ["287 Broadway (Btwn Havemeyer St & Marcy Av)", "Brooklyn, NY 11211", "United States"]}, "categories": [{"id": "4bf58dd8d48988d176941735", "name": "Gym", "pluralName": "Gyms", "shortName": "Gym", "icon": {"prefix": "https://ss3.4sqi.net/img/categories_v2/building/gym_", "suffix": ".png"}, "primary": true}], "photos": {"count": 0, "groups": []}}, "referralId": "e-0-579baeff498e21290f2705c9-41"}, {"reasons": {"count": 0, "items": [{"summary": "This spot is popular", "type": "general", "reasonName": "globalInteractionReason"}]}, "venue": {"id": "5df175e82276e2000744dc8b", "name": "Noods n\u2019 Chill", "location": {"address": "170 S 3rd St", "crossStreet": "at Driggs Ave", "lat": 40.711936, "lng": -73.961077, "labeledLatLngs": [{"label": "display", "lat": 40.711936, "lng": -73.961077}, {"label": "entrance", "lat": 40.711939, "lng": -73.961204}], "distance": 285, "postalCode": "11211", "cc": "US", "city": "Brooklyn", "state": "NY", "country": "United States", "formattedAddress": ["170 S 3rd St (at Driggs Ave)", "Brooklyn, NY 11211", "United States"]}, "categories": [{"id": "4bf58dd8d48988d149941735", "name": "Thai Restaurant", "pluralName": "Thai Restaurants", "shortName": "Thai", "icon": {"prefix": "https://ss3.4sqi.net/img/categories_v2/food/thai_", "suffix": ".png"}, "primary": true}], "photos": {"count": 0, "groups": []}}, "referralId": "e-0-5df175e82276e2000744dc8b-42"}, {"reasons": {"count": 0, "items": [{"summary": "This spot is popular", "type": "general", "reasonName": "globalInteractionReason"}]}, "venue": {"id": "5274410611d217980bf187a7", "name": "Brooklyn Running Co", "location": {"address": "222 Grand St", "crossStreet": "Driggs Ave", "lat": 40.71384976922717, "lng": -73.9597267344759, "labeledLatLngs": [{"label": "display", "lat": 40.71384976922717, "lng": -73.9597267344759}, {"label": "entrance", "lat": 40.713519, "lng": -73.959939}], "distance": 363, "postalCode": "11211", "cc": "US", "neighborhood": "Williamsburg", "city": "Brooklyn", "state": "NY", "country": "United States", "formattedAddress": ["222 Grand St (Driggs Ave)", "Brooklyn, NY 11211", "United States"]}, "categories": [{"id": "4bf58dd8d48988d1f2941735", "name": "Sporting Goods Shop", "pluralName": "Sporting Goods Shops", "shortName": "Sporting Goods", "icon": {"prefix": "https://ss3.4sqi.net/img/categories_v2/shops/sports_outdoors_", "suffix": ".png"}, "primary": true}], "photos": {"count": 0, "groups": []}}, "referralId": "e-0-5274410611d217980bf187a7-43"}, {"reasons": {"count": 0, "items": [{"summary": "This spot is popular", "type": "general", "reasonName": "globalInteractionReason"}]}, "venue": {"id": "59da542c829b0c160a0a9373", "name": "Y7 Studio", "location": {"address": "170 S 1st St", "crossStreet": "Driggs", "lat": 40.713523348494675, "lng": -73.96063849338428, "labeledLatLngs": [{"label": "display", "lat": 40.713523348494675, "lng": -73.96063849338428}], "distance": 370, "postalCode": "11211", "cc": "US", "city": "New York", "state": "NY", "country": "United States", "formattedAddress": ["170 S 1st St (Driggs)", "New York, NY 11211", "United States"]}, "categories": [{"id": "4bf58dd8d48988d102941735", "name": "Yoga Studio", "pluralName": "Yoga Studios", "shortName": "Yoga Studio", "icon": {"prefix": "https://ss3.4sqi.net/img/categories_v2/shops/gym_yogastudio_", "suffix": ".png"}, "primary": true}], "photos": {"count": 0, "groups": []}}, "referralId": "e-0-59da542c829b0c160a0a9373-44"}, {"reasons": {"count": 0, "items": [{"summary": "This spot is popular", "type": "general", "reasonName": "globalInteractionReason"}]}, "venue": {"id": "557740d9498e3558ccc319db", "name": "Black Flamingo", "location": {"address": "168 Borinquen Pl", "crossStreet": "at S 2nd St", "lat": 40.71059345084199, "lng": -73.95423488401335, "labeledLatLngs": [{"label": "display", "lat": 40.71059345084199, "lng": -73.95423488401335}], "distance": 319, "postalCode": "11211", "cc": "US", "city": "Brooklyn", "state": "NY", "country": "United States", "formattedAddress": ["168 Borinquen Pl (at S 2nd St)", "Brooklyn, NY 11211", "United States"]}, "categories": [{"id": "4bf58dd8d48988d11f941735", "name": "Nightclub", "pluralName": "Nightclubs", "shortName": "Nightclub", "icon": {"prefix": "https://ss3.4sqi.net/img/categories_v2/nightlife/nightclub_", "suffix": ".png"}, "primary": true}], "photos": {"count": 0, "groups": []}}, "referralId": "e-0-557740d9498e3558ccc319db-45"}, {"reasons": {"count": 0, "items": [{"summary": "This spot is popular", "type": "general", "reasonName": "globalInteractionReason"}]}, "venue": {"id": "4d5333a85bdbb1f70a524ce6", "name": "Banter", "location": {"address": "132 Havemeyer St", "crossStreet": "at S 1st St", "lat": 40.71221704598277, "lng": -73.95722192836767, "labeledLatLngs": [{"label": "display", "lat": 40.71221704598277, "lng": -73.95722192836767}], "distance": 164, "postalCode": "11211", "cc": "US", "city": "Brooklyn", "state": "NY", "country": "United States", "formattedAddress": ["132 Havemeyer St (at S 1st St)", "Brooklyn, NY 11211", "United States"]}, "categories": [{"id": "4bf58dd8d48988d11b941735", "name": "Pub", "pluralName": "Pubs", "shortName": "Pub", "icon": {"prefix": "https://ss3.4sqi.net/img/categories_v2/nightlife/pub_", "suffix": ".png"}, "primary": true}], "photos": {"count": 0, "groups": []}, "venuePage": {"id": "72052183"}}, "referralId": "e-0-4d5333a85bdbb1f70a524ce6-46"}, {"reasons": {"count": 0, "items": [{"summary": "This spot is popular", "type": "general", "reasonName": "globalInteractionReason"}]}, "venue": {"id": "5a7f2773d1a40265ea809163", "name": "La Cafette", "location": {"address": "103 Havemeyer st", "lat": 40.71335471341301, "lng": -73.95636585535794, "labeledLatLngs": [{"label": "display", "lat": 40.71335471341301, "lng": -73.95636585535794}], "distance": 309, "postalCode": "11211", "cc": "US", "city": "New York", "state": "NY", "country": "United States", "formattedAddress": ["103 Havemeyer st", "New York, NY 11211", "United States"]}, "categories": [{"id": "4bf58dd8d48988d123941735", "name": "Wine Bar", "pluralName": "Wine Bars", "shortName": "Wine Bar", "icon": {"prefix": "https://ss3.4sqi.net/img/categories_v2/food/winery_", "suffix": ".png"}, "primary": true}], "photos": {"count": 0, "groups": []}, "venuePage": {"id": "498558820"}}, "referralId": "e-0-5a7f2773d1a40265ea809163-47"}, {"reasons": {"count": 0, "items": [{"summary": "This spot is popular", "type": "general", "reasonName": "globalInteractionReason"}]}, "venue": {"id": "4be5bbe8d4f7c9b6b9d52520", "name": "St. Anselm", "location": {"address": "355 Metropolitan Ave", "crossStreet": "btwn Havemeyer & Roebling St", "lat": 40.71414471294114, "lng": -73.95598405757656, "labeledLatLngs": [{"label": "display", "lat": 40.71414471294114, "lng": -73.95598405757656}], "distance": 403, "postalCode": "11211", "cc": "US", "city": "Brooklyn", "state": "NY", "country": "United States", "formattedAddress": ["355 Metropolitan Ave (btwn Havemeyer & Roebling St)", "Brooklyn, NY 11211", "United States"]}, "categories": [{"id": "4bf58dd8d48988d14e941735", "name": "American Restaurant", "pluralName": "American Restaurants", "shortName": "American", "icon": {"prefix": "https://ss3.4sqi.net/img/categories_v2/food/default_", "suffix": ".png"}, "primary": true}], "delivery": {"id": "2028768", "url": "https://www.seamless.com/menu/st-anselm-355-metropolitan-ave-brooklyn/2028768?affiliate=1131&utm_source=foursquare-affiliate-network&utm_medium=affiliate&utm_campaign=1131&utm_content=2028768", "provider": {"name": "seamless", "icon": {"prefix": "https://fastly.4sqi.net/img/general/cap/", "sizes": [40, 50], "name": "/delivery_provider_seamless_20180129.png"}}}, "photos": {"count": 0, "groups": []}, "venuePage": {"id": "77960222"}}, "referralId": "e-0-4be5bbe8d4f7c9b6b9d52520-48"}, {"reasons": {"count": 0, "items": [{"summary": "This spot is popular", "type": "general", "reasonName": "globalInteractionReason"}]}, "venue": {"id": "46093845f964a520e3441fe3", "name": "Fette Sau", "location": {"address": "354 Metropolitan Ave", "crossStreet": "btwn Havemeyer & Roebling St", "lat": 40.714125423720176, "lng": -73.95638405958897, "labeledLatLngs": [{"label": "display", "lat": 40.714125423720176, "lng": -73.95638405958897}], "distance": 388, "postalCode": "11211", "cc": "US", "city": "Brooklyn", "state": "NY", "country": "United States", "formattedAddress": ["354 Metropolitan Ave (btwn Havemeyer & Roebling St)", "Brooklyn, NY 11211", "United States"]}, "categories": [{"id": "4bf58dd8d48988d1df931735", "name": "BBQ Joint", "pluralName": "BBQ Joints", "shortName": "BBQ", "icon": {"prefix": "https://ss3.4sqi.net/img/categories_v2/food/bbqalt_", "suffix": ".png"}, "primary": true}], "delivery": {"id": "1122778", "url": "https://www.seamless.com/menu/fette-sau-354-metropolitan-ave-brooklyn/1122778?affiliate=1131&utm_source=foursquare-affiliate-network&utm_medium=affiliate&utm_campaign=1131&utm_content=1122778", "provider": {"name": "seamless", "icon": {"prefix": "https://fastly.4sqi.net/img/general/cap/", "sizes": [40, 50], "name": "/delivery_provider_seamless_20180129.png"}}}, "photos": {"count": 0, "groups": []}, "venuePage": {"id": "69905993"}}, "referralId": "e-0-46093845f964a520e3441fe3-49"}, {"reasons": {"count": 0, "items": [{"summary": "This spot is popular", "type": "general", "reasonName": "globalInteractionReason"}]}, "venue": {"id": "55418390498e281cfb408ab3", "name": "Pokito", "location": {"address": "155 S 4th St", "crossStreet": "btwn Bedford Ave & Driggs Ave", "lat": 40.71149287537046, "lng": -73.96177914773645, "labeledLatLngs": [{"label": "display", "lat": 40.71149287537046, "lng": -73.96177914773645}], "distance": 326, "postalCode": "11211", "cc": "US", "neighborhood": "Williamsburg", "city": "Brooklyn", "state": "NY", "country": "United States", "formattedAddress": ["155 S 4th St (btwn Bedford Ave & Driggs Ave)", "Brooklyn, NY 11211", "United States"]}, "categories": [{"id": "4bf58dd8d48988d11e941735", "name": "Cocktail Bar", "pluralName": "Cocktail Bars", "shortName": "Cocktail", "icon": {"prefix": "https://ss3.4sqi.net/img/categories_v2/nightlife/cocktails_", "suffix": ".png"}, "primary": true}], "photos": {"count": 0, "groups": []}, "venuePage": {"id": "540205770"}}, "referralId": "e-0-55418390498e281cfb408ab3-50"}, {"reasons": {"count": 0, "items": [{"summary": "This spot is popular", "type": "general", "reasonName": "globalInteractionReason"}]}, "venue": {"id": "5d8663bddfbfcc0007278c66", "name": "Konditori", "location": {"address": "297 Broadway", "crossStreet": "Entrance on Marcy Av", "lat": 40.708614, "lng": -73.957906, "labeledLatLngs": [{"label": "display", "lat": 40.708614, "lng": -73.957906}], "distance": 250, "postalCode": "11211", "cc": "US", "city": "Brooklyn", "state": "NY", "country": "United States", "formattedAddress": ["297 Broadway (Entrance on Marcy Av)", "Brooklyn, NY 11211", "United States"]}, "categories": [{"id": "4bf58dd8d48988d1e0931735", "name": "Coffee Shop", "pluralName": "Coffee Shops", "shortName": "Coffee Shop", "icon": {"prefix": "https://ss3.4sqi.net/img/categories_v2/food/coffeeshop_", "suffix": ".png"}, "primary": true}], "photos": {"count": 0, "groups": []}}, "referralId": "e-0-5d8663bddfbfcc0007278c66-51"}, {"reasons": {"count": 0, "items": [{"summary": "This spot is popular", "type": "general", "reasonName": "globalInteractionReason"}]}, "venue": {"id": "3fd66200f964a5209beb1ee3", "name": "Peter Luger Steak House", "location": {"address": "178 Broadway", "crossStreet": "at Driggs Ave", "lat": 40.70995790682886, "lng": -73.96229110893742, "labeledLatLngs": [{"label": "display", "lat": 40.70995790682886, "lng": -73.96229110893742}, {"label": "entrance", "lat": 40.709915, "lng": -73.962633}], "distance": 375, "postalCode": "11211", "cc": "US", "neighborhood": "Williamsburg", "city": "Brooklyn", "state": "NY", "country": "United States", "formattedAddress": ["178 Broadway (at Driggs Ave)", "Brooklyn, NY 11211", "United States"]}, "categories": [{"id": "4bf58dd8d48988d1cc941735", "name": "Steakhouse", "pluralName": "Steakhouses", "shortName": "Steakhouse", "icon": {"prefix": "https://ss3.4sqi.net/img/categories_v2/food/steakhouse_", "suffix": ".png"}, "primary": true}], "photos": {"count": 0, "groups": []}, "venuePage": {"id": "77462637"}}, "referralId": "e-0-3fd66200f964a5209beb1ee3-52"}, {"reasons": {"count": 0, "items": [{"summary": "This spot is popular", "type": "general", "reasonName": "globalInteractionReason"}]}, "venue": {"id": "40807380f964a52080f21ee3", "name": "Spuyten Duyvil", "location": {"address": "359 Metropolitan Ave", "crossStreet": "at Havemeyer St", "lat": 40.714148816918346, "lng": -73.95594106827636, "labeledLatLngs": [{"label": "display", "lat": 40.714148816918346, "lng": -73.95594106827636}], "distance": 405, "postalCode": "11211", "cc": "US", "city": "Brooklyn", "state": "NY", "country": "United States", "formattedAddress": ["359 Metropolitan Ave (at Havemeyer St)", "Brooklyn, NY 11211", "United States"]}, "categories": [{"id": "4bf58dd8d48988d117941735", "name": "Beer Garden", "pluralName": "Beer Gardens", "shortName": "Beer Garden", "icon": {"prefix": "https://ss3.4sqi.net/img/categories_v2/nightlife/beergarden_", "suffix": ".png"}, "primary": true}], "photos": {"count": 0, "groups": []}, "venuePage": {"id": "81191939"}}, "referralId": "e-0-40807380f964a52080f21ee3-53"}, {"reasons": {"count": 0, "items": [{"summary": "This spot is popular", "type": "general", "reasonName": "globalInteractionReason"}]}, "venue": {"id": "4bd254bd77b29c743da18e82", "name": "The Commodore", "location": {"address": "366 Metropolitan Ave", "crossStreet": "at Havemeyer St", "lat": 40.71408593052304, "lng": -73.95581668684504, "labeledLatLngs": [{"label": "display", "lat": 40.71408593052304, "lng": -73.95581668684504}], "distance": 403, "postalCode": "11211", "cc": "US", "city": "Brooklyn", "state": "NY", "country": "United States", "formattedAddress": ["366 Metropolitan Ave (at Havemeyer St)", "Brooklyn, NY 11211", "United States"]}, "categories": [{"id": "4bf58dd8d48988d14e941735", "name": "American Restaurant", "pluralName": "American Restaurants", "shortName": "American", "icon": {"prefix": "https://ss3.4sqi.net/img/categories_v2/food/default_", "suffix": ".png"}, "primary": true}], "delivery": {"id": "2029666", "url": "https://www.seamless.com/menu/the-commodore-366-metropolitan-ave-brooklyn/2029666?affiliate=1131&utm_source=foursquare-affiliate-network&utm_medium=affiliate&utm_campaign=1131&utm_content=2029666", "provider": {"name": "seamless", "icon": {"prefix": "https://fastly.4sqi.net/img/general/cap/", "sizes": [40, 50], "name": "/delivery_provider_seamless_20180129.png"}}}, "photos": {"count": 0, "groups": []}, "venuePage": {"id": "81174793"}}, "referralId": "e-0-4bd254bd77b29c743da18e82-54"}, {"reasons": {"count": 0, "items": [{"summary": "This spot is popular", "type": "general", "reasonName": "globalInteractionReason"}]}, "venue": {"id": "4c0844a9bbc676b0515446d5", "name": "Roebling Liquor", "location": {"address": "311 Roebling St", "crossStreet": "Btwn S8th St & S 9th St", "lat": 40.7087718806023, "lng": -73.96088941259124, "labeledLatLngs": [{"label": "display", "lat": 40.7087718806023, "lng": -73.96088941259124}], "distance": 336, "postalCode": "11211", "cc": "US", "city": "Brooklyn", "state": "NY", "country": "United States", "formattedAddress": ["311 Roebling St (Btwn S8th St & S 9th St)", "Brooklyn, NY 11211", "United States"]}, "categories": [{"id": "4bf58dd8d48988d186941735", "name": "Liquor Store", "pluralName": "Liquor Stores", "shortName": "Liquor Store", "icon": {"prefix": "https://ss3.4sqi.net/img/categories_v2/shops/food_liquor_", "suffix": ".png"}, "primary": true}], "photos": {"count": 0, "groups": []}, "venuePage": {"id": "508447449"}}, "referralId": "e-0-4c0844a9bbc676b0515446d5-55"}, {"reasons": {"count": 0, "items": [{"summary": "This spot is popular", "type": "general", "reasonName": "globalInteractionReason"}]}, "venue": {"id": "5b1fc58e2aff31002baf7be5", "name": "Court Street Grocers", "location": {"address": "378 Metropolitan Ave", "lat": 40.71411936828323, "lng": -73.95545673847212, "labeledLatLngs": [{"label": "display", "lat": 40.71411936828323, "lng": -73.95545673847212}], "distance": 421, "postalCode": "11211", "cc": "US", "city": "New York", "state": "NY", "country": "United States", "formattedAddress": ["378 Metropolitan Ave", "New York, NY 11211", "United States"]}, "categories": [{"id": "4bf58dd8d48988d1c5941735", "name": "Sandwich Place", "pluralName": "Sandwich Places", "shortName": "Sandwiches", "icon": {"prefix": "https://ss3.4sqi.net/img/categories_v2/food/deli_", "suffix": ".png"}, "primary": true}], "delivery": {"id": "1141247", "url": "https://www.seamless.com/menu/court-street-grocers-lunch-378-metropolitan-ave-brooklyn/1141247?affiliate=1131&utm_source=foursquare-affiliate-network&utm_medium=affiliate&utm_campaign=1131&utm_content=1141247", "provider": {"name": "seamless", "icon": {"prefix": "https://fastly.4sqi.net/img/general/cap/", "sizes": [40, 50], "name": "/delivery_provider_seamless_20180129.png"}}}, "photos": {"count": 0, "groups": []}}, "referralId": "e-0-5b1fc58e2aff31002baf7be5-56"}, {"reasons": {"count": 0, "items": [{"summary": "This spot is popular", "type": "general", "reasonName": "globalInteractionReason"}]}, "venue": {"id": "5d798385b4fc9c0008fda345", "name": "Amor y Amargo", "location": {"address": "188 Havermeyer Street", "lat": 40.709694, "lng": -73.958619, "labeledLatLngs": [{"label": "display", "lat": 40.709694, "lng": -73.958619}], "distance": 140, "postalCode": "11211", "cc": "US", "city": "Brooklyn", "state": "NY", "country": "United States", "formattedAddress": ["188 Havermeyer Street", "Brooklyn, NY 11211", "United States"]}, "categories": [{"id": "4bf58dd8d48988d116941735", "name": "Bar", "pluralName": "Bars", "shortName": "Bar", "icon": {"prefix": "https://ss3.4sqi.net/img/categories_v2/nightlife/pub_", "suffix": ".png"}, "primary": true}], "photos": {"count": 0, "groups": []}}, "referralId": "e-0-5d798385b4fc9c0008fda345-57"}, {"reasons": {"count": 0, "items": [{"summary": "This spot is popular", "type": "general", "reasonName": "globalInteractionReason"}]}, "venue": {"id": "54b318a1498eb29e9541053a", "name": "Wei Williamsburg", "location": {"address": "145 Borinquen Pl", "crossStreet": "Keap Street", "lat": 40.71067589705568, "lng": -73.95403239442538, "labeledLatLngs": [{"label": "display", "lat": 40.71067589705568, "lng": -73.95403239442538}, {"label": "entrance", "lat": 40.710819, "lng": -73.953903}], "distance": 335, "postalCode": "11211", "cc": "US", "neighborhood": "South Williamsburg", "city": "Brooklyn", "state": "NY", "country": "United States", "formattedAddress": ["145 Borinquen Pl (Keap Street)", "Brooklyn, NY 11211", "United States"]}, "categories": [{"id": "4bf58dd8d48988d145941735", "name": "Chinese Restaurant", "pluralName": "Chinese Restaurants", "shortName": "Chinese", "icon": {"prefix": "https://ss3.4sqi.net/img/categories_v2/food/asian_", "suffix": ".png"}, "primary": true}], "delivery": {"id": "299716", "url": "https://www.seamless.com/menu/wei-williamsburg-145-borinquen-pl-brooklyn/299716?affiliate=1131&utm_source=foursquare-affiliate-network&utm_medium=affiliate&utm_campaign=1131&utm_content=299716", "provider": {"name": "seamless", "icon": {"prefix": "https://fastly.4sqi.net/img/general/cap/", "sizes": [40, 50], "name": "/delivery_provider_seamless_20180129.png"}}}, "photos": {"count": 0, "groups": []}}, "referralId": "e-0-54b318a1498eb29e9541053a-58"}, {"reasons": {"count": 0, "items": [{"summary": "This spot is popular", "type": "general", "reasonName": "globalInteractionReason"}]}, "venue": {"id": "5dab2f1116924c0008c4e7e9", "name": "La Bicyclette Bakery", "location": {"address": "667 Driggs Avenue", "crossStreet": "Fillmore Place", "lat": 40.714405, "lng": -73.959173, "labeledLatLngs": [{"label": "display", "lat": 40.714405, "lng": -73.959173}], "distance": 406, "postalCode": "11211", "cc": "US", "city": "New York", "state": "NY", "country": "United States", "formattedAddress": ["667 Driggs Avenue (Fillmore Place)", "New York, NY 11211", "United States"]}, "categories": [{"id": "4bf58dd8d48988d16a941735", "name": "Bakery", "pluralName": "Bakeries", "shortName": "Bakery", "icon": {"prefix": "https://ss3.4sqi.net/img/categories_v2/food/bakery_", "suffix": ".png"}, "primary": true}], "photos": {"count": 0, "groups": []}}, "referralId": "e-0-5dab2f1116924c0008c4e7e9-59"}, {"reasons": {"count": 0, "items": [{"summary": "This spot is popular", "type": "general", "reasonName": "globalInteractionReason"}]}, "venue": {"id": "4b26b7ecf964a520f97f24e3", "name": "Commune Salon & Gift", "location": {"address": "185 Roebling Street", "crossStreet": "South 1st Street", "lat": 40.71425554808935, "lng": -73.96054327727333, "labeledLatLngs": [{"label": "display", "lat": 40.71425554808935, "lng": -73.96054327727333}], "distance": 434, "postalCode": "11211", "cc": "US", "city": "Brooklyn", "state": "NY", "country": "United States", "formattedAddress": ["185 Roebling Street (South 1st Street)", "Brooklyn, NY 11211", "United States"]}, "categories": [{"id": "4bf58dd8d48988d110951735", "name": "Salon / Barbershop", "pluralName": "Salons / Barbershops", "shortName": "Salon / Barbershop", "icon": {"prefix": "https://ss3.4sqi.net/img/categories_v2/shops/salon_barber_", "suffix": ".png"}, "primary": true}], "photos": {"count": 0, "groups": []}}, "referralId": "e-0-4b26b7ecf964a520f97f24e3-60"}, {"reasons": {"count": 0, "items": [{"summary": "This spot is popular", "type": "general", "reasonName": "globalInteractionReason"}]}, "venue": {"id": "4c7f0887fb74236a7727f9b9", "name": "Samurai Mama", "location": {"address": "205 Grand St", "crossStreet": "btwn Bedford & Driggs Ave", "lat": 40.71411421938972, "lng": -73.96019631848635, "labeledLatLngs": [{"label": "display", "lat": 40.71411421938972, "lng": -73.96019631848635}, {"label": "entrance", "lat": 40.714135, "lng": -73.960149}], "distance": 406, "postalCode": "11211", "cc": "US", "city": "Brooklyn", "state": "NY", "country": "United States", "formattedAddress": ["205 Grand St (btwn Bedford & Driggs Ave)", "Brooklyn, NY 11211", "United States"]}, "categories": [{"id": "4bf58dd8d48988d111941735", "name": "Japanese Restaurant", "pluralName": "Japanese Restaurants", "shortName": "Japanese", "icon": {"prefix": "https://ss3.4sqi.net/img/categories_v2/food/japanese_", "suffix": ".png"}, "primary": true}], "delivery": {"id": "2041445", "url": "https://www.seamless.com/menu/samurai-mama-205-grand-street-brooklyn/2041445?affiliate=1131&utm_source=foursquare-affiliate-network&utm_medium=affiliate&utm_campaign=1131&utm_content=2041445", "provider": {"name": "seamless", "icon": {"prefix": "https://fastly.4sqi.net/img/general/cap/", "sizes": [40, 50], "name": "/delivery_provider_seamless_20180129.png"}}}, "photos": {"count": 0, "groups": []}, "venuePage": {"id": "81798248"}}, "referralId": "e-0-4c7f0887fb74236a7727f9b9-61"}, {"reasons": {"count": 0, "items": [{"summary": "This spot is popular", "type": "general", "reasonName": "globalInteractionReason"}]}, "venue": {"id": "52bf3053498e754b09a440b5", "name": "Dotory", "location": {"address": "353 Broadway", "lat": 40.707729602666035, "lng": -73.95577850789788, "labeledLatLngs": [{"label": "display", "lat": 40.707729602666035, "lng": -73.95577850789788}], "distance": 395, "postalCode": "11211", "cc": "US", "city": "Brooklyn", "state": "NY", "country": "United States", "formattedAddress": ["353 Broadway", "Brooklyn, NY 11211", "United States"]}, "categories": [{"id": "4bf58dd8d48988d113941735", "name": "Korean Restaurant", "pluralName": "Korean Restaurants", "shortName": "Korean", "icon": {"prefix": "https://ss3.4sqi.net/img/categories_v2/food/korean_", "suffix": ".png"}, "primary": true}], "delivery": {"id": "290084", "url": "https://www.seamless.com/menu/dotory-353-broadway-ave-brooklyn/290084?affiliate=1131&utm_source=foursquare-affiliate-network&utm_medium=affiliate&utm_campaign=1131&utm_content=290084", "provider": {"name": "seamless", "icon": {"prefix": "https://fastly.4sqi.net/img/general/cap/", "sizes": [40, 50], "name": "/delivery_provider_seamless_20180129.png"}}}, "photos": {"count": 0, "groups": []}, "venuePage": {"id": "78812001"}}, "referralId": "e-0-52bf3053498e754b09a440b5-62"}, {"reasons": {"count": 0, "items": [{"summary": "This spot is popular", "type": "general", "reasonName": "globalInteractionReason"}]}, "venue": {"id": "58df00318cfe546addb99246", "name": "Birds of a Feather", "location": {"address": "191 Grand St", "crossStreet": "btwn Bedford & Driggs Ave", "lat": 40.71426224260337, "lng": -73.96057226233967, "labeledLatLngs": [{"label": "display", "lat": 40.71426224260337, "lng": -73.96057226233967}, {"label": "entrance", "lat": 40.714297, "lng": -73.960548}], "distance": 436, "postalCode": "11211", "cc": "US", "city": "Brooklyn", "state": "NY", "country": "United States", "formattedAddress": ["191 Grand St (btwn Bedford & Driggs Ave)", "Brooklyn, NY 11211", "United States"]}, "categories": [{"id": "4bf58dd8d48988d145941735", "name": "Chinese Restaurant", "pluralName": "Chinese Restaurants", "shortName": "Chinese", "icon": {"prefix": "https://ss3.4sqi.net/img/categories_v2/food/asian_", "suffix": ".png"}, "primary": true}], "delivery": {"id": "405465", "url": "https://www.seamless.com/menu/birds-of-a-feather-191-grand-st-brooklyn/405465?affiliate=1131&utm_source=foursquare-affiliate-network&utm_medium=affiliate&utm_campaign=1131&utm_content=405465", "provider": {"name": "seamless", "icon": {"prefix": "https://fastly.4sqi.net/img/general/cap/", "sizes": [40, 50], "name": "/delivery_provider_seamless_20180129.png"}}}, "photos": {"count": 0, "groups": []}}, "referralId": "e-0-58df00318cfe546addb99246-63"}, {"reasons": {"count": 0, "items": [{"summary": "This spot is popular", "type": "general", "reasonName": "globalInteractionReason"}]}, "venue": {"id": "48a1f340f964a5208e511fe3", "name": "Trophy Bar", "location": {"address": "351 Broadway", "crossStreet": "at Keap St.", "lat": 40.70776758662049, "lng": -73.9557816400034, "labeledLatLngs": [{"label": "display", "lat": 40.70776758662049, "lng": -73.9557816400034}, {"label": "entrance", "lat": 40.70778, "lng": -73.955754}], "distance": 392, "postalCode": "11211", "cc": "US", "city": "Brooklyn", "state": "NY", "country": "United States", "formattedAddress": ["351 Broadway (at Keap St.)", "Brooklyn, NY 11211", "United States"]}, "categories": [{"id": "4bf58dd8d48988d116941735", "name": "Bar", "pluralName": "Bars", "shortName": "Bar", "icon": {"prefix": "https://ss3.4sqi.net/img/categories_v2/nightlife/pub_", "suffix": ".png"}, "primary": true}], "photos": {"count": 0, "groups": []}, "venuePage": {"id": "36106029"}}, "referralId": "e-0-48a1f340f964a5208e511fe3-64"}, {"reasons": {"count": 0, "items": [{"summary": "This spot is popular", "type": "general", "reasonName": "globalInteractionReason"}]}, "venue": {"id": "4cfbed25d8468cfacd6df76b", "name": "Momofuku Milk Bar", "location": {"address": "382 Metropolitan Ave", "crossStreet": "btwn Havemeyer & Marcy", "lat": 40.713921, "lng": -73.9554785, "labeledLatLngs": [{"label": "display", "lat": 40.713921, "lng": -73.9554785}], "distance": 401, "postalCode": "11211", "cc": "US", "city": "Brooklyn", "state": "NY", "country": "United States", "formattedAddress": ["382 Metropolitan Ave (btwn Havemeyer & Marcy)", "Brooklyn, NY 11211", "United States"]}, "categories": [{"id": "4bf58dd8d48988d1d0941735", "name": "Dessert Shop", "pluralName": "Dessert Shops", "shortName": "Desserts", "icon": {"prefix": "https://ss3.4sqi.net/img/categories_v2/food/dessert_", "suffix": ".png"}, "primary": true}], "photos": {"count": 0, "groups": []}}, "referralId": "e-0-4cfbed25d8468cfacd6df76b-65"}, {"reasons": {"count": 0, "items": [{"summary": "This spot is popular", "type": "general", "reasonName": "globalInteractionReason"}]}, "venue": {"id": "4a723060f964a5208cda1fe3", "name": "Lucky Dog", "location": {"address": "303 Bedford Ave", "lat": 40.71349224123461, "lng": -73.96188794435888, "labeledLatLngs": [{"label": "display", "lat": 40.71349224123461, "lng": -73.96188794435888}, {"label": "entrance", "lat": 40.713488, "lng": -73.961822}], "distance": 439, "postalCode": "11211", "cc": "US", "city": "Brooklyn", "state": "NY", "country": "United States", "formattedAddress": ["303 Bedford Ave", "Brooklyn, NY 11211", "United States"]}, "categories": [{"id": "4bf58dd8d48988d116941735", "name": "Bar", "pluralName": "Bars", "shortName": "Bar", "icon": {"prefix": "https://ss3.4sqi.net/img/categories_v2/nightlife/pub_", "suffix": ".png"}, "primary": true}], "photos": {"count": 0, "groups": []}}, "referralId": "e-0-4a723060f964a5208cda1fe3-66"}, {"reasons": {"count": 0, "items": [{"summary": "This spot is popular", "type": "general", "reasonName": "globalInteractionReason"}]}, "venue": {"id": "53a1a98c498e019a787752d7", "name": "Meadowsweet", "location": {"address": "149 Broadway", "crossStreet": "at Bedford Ave", "lat": 40.71035245392043, "lng": -73.96326363144188, "labeledLatLngs": [{"label": "display", "lat": 40.71035245392043, "lng": -73.96326363144188}], "distance": 447, "postalCode": "11211", "cc": "US", "city": "Brooklyn", "state": "NY", "country": "United States", "formattedAddress": ["149 Broadway (at Bedford Ave)", "Brooklyn, NY 11211", "United States"]}, "categories": [{"id": "4bf58dd8d48988d1c0941735", "name": "Mediterranean Restaurant", "pluralName": "Mediterranean Restaurants", "shortName": "Mediterranean", "icon": {"prefix": "https://ss3.4sqi.net/img/categories_v2/food/mediterranean_", "suffix": ".png"}, "primary": true}], "delivery": {"id": "2117116", "url": "https://www.seamless.com/menu/meadowsweet-149-broadway-brooklyn/2117116?affiliate=1131&utm_source=foursquare-affiliate-network&utm_medium=affiliate&utm_campaign=1131&utm_content=2117116", "provider": {"name": "seamless", "icon": {"prefix": "https://fastly.4sqi.net/img/general/cap/", "sizes": [40, 50], "name": "/delivery_provider_seamless_20180129.png"}}}, "photos": {"count": 0, "groups": []}, "venuePage": {"id": "93619583"}}, "referralId": "e-0-53a1a98c498e019a787752d7-67"}, {"reasons": {"count": 0, "items": [{"summary": "This spot is popular", "type": "general", "reasonName": "globalInteractionReason"}]}, "venue": {"id": "47de3aebf964a5203a4e1fe3", "name": "Rabbithole", "location": {"address": "352 Bedford Ave", "crossStreet": "btwn S 3rd & S 4th St", "lat": 40.71225821376743, "lng": -73.96279643222341, "labeledLatLngs": [{"label": "display", "lat": 40.71225821376743, "lng": -73.96279643222341}, {"label": "entrance", "lat": 40.712285, "lng": -73.962824}], "distance": 433, "postalCode": "11249", "cc": "US", "city": "Brooklyn", "state": "NY", "country": "United States", "formattedAddress": ["352 Bedford Ave (btwn S 3rd & S 4th St)", "Brooklyn, NY 11249", "United States"]}, "categories": [{"id": "4bf58dd8d48988d14e941735", "name": "American Restaurant", "pluralName": "American Restaurants", "shortName": "American", "icon": {"prefix": "https://ss3.4sqi.net/img/categories_v2/food/default_", "suffix": ".png"}, "primary": true}], "photos": {"count": 0, "groups": []}, "venuePage": {"id": "78704533"}}, "referralId": "e-0-47de3aebf964a5203a4e1fe3-68"}, {"reasons": {"count": 0, "items": [{"summary": "This spot is popular", "type": "general", "reasonName": "globalInteractionReason"}]}, "venue": {"id": "5b5a75d5b8fd9d002ce46410", "name": "Rosa\u2019s Pizza", "location": {"address": "Metropolitan Ave.", "lat": 40.71410035773901, "lng": -73.95557714586712, "labeledLatLngs": [{"label": "display", "lat": 40.71410035773901, "lng": -73.95557714586712}], "distance": 414, "postalCode": "11211", "cc": "US", "neighborhood": "Williamsburg", "city": "Brooklyn", "state": "NY", "country": "United States", "formattedAddress": ["Metropolitan Ave.", "Brooklyn, NY 11211", "United States"]}, "categories": [{"id": "4bf58dd8d48988d1ca941735", "name": "Pizza Place", "pluralName": "Pizza Places", "shortName": "Pizza", "icon": {"prefix": "https://ss3.4sqi.net/img/categories_v2/food/pizza_", "suffix": ".png"}, "primary": true}], "delivery": {"id": "1021233", "url": "https://www.seamless.com/menu/rosas-pizza-374-metropolitan-ave-brooklyn/1021233?affiliate=1131&utm_source=foursquare-affiliate-network&utm_medium=affiliate&utm_campaign=1131&utm_content=1021233", "provider": {"name": "seamless", "icon": {"prefix": "https://fastly.4sqi.net/img/general/cap/", "sizes": [40, 50], "name": "/delivery_provider_seamless_20180129.png"}}}, "photos": {"count": 0, "groups": []}}, "referralId": "e-0-5b5a75d5b8fd9d002ce46410-69"}, {"reasons": {"count": 0, "items": [{"summary": "This spot is popular", "type": "general", "reasonName": "globalInteractionReason"}]}, "venue": {"id": "5aef2774c5309300390b4fbd", "name": "Weekends", "location": {"address": "155 S 4th St", "lat": 40.71155153768725, "lng": -73.96209936495691, "labeledLatLngs": [{"label": "display", "lat": 40.71155153768725, "lng": -73.96209936495691}], "distance": 354, "postalCode": "11211", "cc": "US", "city": "New York", "state": "NY", "country": "United States", "formattedAddress": ["155 S 4th St", "New York, NY 11211", "United States"]}, "categories": [{"id": "4bf58dd8d48988d143941735", "name": "Breakfast Spot", "pluralName": "Breakfast Spots", "shortName": "Breakfast", "icon": {"prefix": "https://ss3.4sqi.net/img/categories_v2/food/breakfast_", "suffix": ".png"}, "primary": true}], "delivery": {"id": "515657", "url": "https://www.seamless.com/menu/weekends-155-s-4th-st-brooklyn/515657?affiliate=1131&utm_source=foursquare-affiliate-network&utm_medium=affiliate&utm_campaign=1131&utm_content=515657", "provider": {"name": "seamless", "icon": {"prefix": "https://fastly.4sqi.net/img/general/cap/", "sizes": [40, 50], "name": "/delivery_provider_seamless_20180129.png"}}}, "photos": {"count": 0, "groups": []}}, "referralId": "e-0-5aef2774c5309300390b4fbd-70"}, {"reasons": {"count": 0, "items": [{"summary": "This spot is popular", "type": "general", "reasonName": "globalInteractionReason"}]}, "venue": {"id": "5cdf51a01f74400039a39cdf", "name": "Dough Vale", "location": {"address": "330 S 3rd St", "crossStreet": "btwn Hooper & Keap St", "lat": 40.709306, "lng": -73.954056, "labeledLatLngs": [{"label": "display", "lat": 40.709306, "lng": -73.954056}], "distance": 375, "postalCode": "11211", "cc": "US", "city": "New York", "state": "NY", "country": "United States", "formattedAddress": ["330 S 3rd St (btwn Hooper & Keap St)", "New York, NY 11211", "United States"]}, "categories": [{"id": "4bf58dd8d48988d110941735", "name": "Italian Restaurant", "pluralName": "Italian Restaurants", "shortName": "Italian", "icon": {"prefix": "https://ss3.4sqi.net/img/categories_v2/food/italian_", "suffix": ".png"}, "primary": true}], "delivery": {"id": "2159903", "url": "https://www.seamless.com/menu/dough-vale-330-s-3rd-st-brooklyn/2159903?affiliate=1131&utm_source=foursquare-affiliate-network&utm_medium=affiliate&utm_campaign=1131&utm_content=2159903", "provider": {"name": "seamless", "icon": {"prefix": "https://fastly.4sqi.net/img/general/cap/", "sizes": [40, 50], "name": "/delivery_provider_seamless_20180129.png"}}}, "photos": {"count": 0, "groups": []}}, "referralId": "e-0-5cdf51a01f74400039a39cdf-71"}, {"reasons": {"count": 0, "items": [{"summary": "This spot is popular", "type": "general", "reasonName": "globalInteractionReason"}]}, "venue": {"id": "4d34a091c6cba35dec2f357a", "name": "Maison Premiere", "location": {"address": "298 Bedford Ave", "crossStreet": "btwn S 1st & Grand St", "lat": 40.71423915017924, "lng": -73.96151182840691, "labeledLatLngs": [{"label": "display", "lat": 40.71423915017924, "lng": -73.96151182840691}, {"label": "entrance", "lat": 40.714234, "lng": -73.961586}], "distance": 478, "postalCode": "11249", "cc": "US", "city": "Brooklyn", "state": "NY", "country": "United States", "formattedAddress": ["298 Bedford Ave (btwn S 1st & Grand St)", "Brooklyn, NY 11249", "United States"]}, "categories": [{"id": "4bf58dd8d48988d1ce941735", "name": "Seafood Restaurant", "pluralName": "Seafood Restaurants", "shortName": "Seafood", "icon": {"prefix": "https://ss3.4sqi.net/img/categories_v2/food/seafood_", "suffix": ".png"}, "primary": true}], "photos": {"count": 0, "groups": []}, "venuePage": {"id": "52415051"}}, "referralId": "e-0-4d34a091c6cba35dec2f357a-72"}, {"reasons": {"count": 0, "items": [{"summary": "This spot is popular", "type": "general", "reasonName": "globalInteractionReason"}]}, "venue": {"id": "474d9e49f964a520ad4c1fe3", "name": "Mexico 2000", "location": {"address": "367 Broadway", "crossStreet": "btw Keap & Hooper", "lat": 40.70755237771005, "lng": -73.9550517685966, "labeledLatLngs": [{"label": "display", "lat": 40.70755237771005, "lng": -73.9550517685966}, {"label": "entrance", "lat": 40.707558, "lng": -73.95509}], "distance": 444, "postalCode": "11211", "cc": "US", "city": "Brooklyn", "state": "NY", "country": "United States", "formattedAddress": ["367 Broadway (btw Keap & Hooper)", "Brooklyn, NY 11211", "United States"]}, "categories": [{"id": "4bf58dd8d48988d151941735", "name": "Taco Place", "pluralName": "Taco Places", "shortName": "Tacos", "icon": {"prefix": "https://ss3.4sqi.net/img/categories_v2/food/taco_", "suffix": ".png"}, "primary": true}], "delivery": {"id": "302542", "url": "https://www.seamless.com/menu/mexico-2000-restaurant-369-broadway-brooklyn/302542?affiliate=1131&utm_source=foursquare-affiliate-network&utm_medium=affiliate&utm_campaign=1131&utm_content=302542", "provider": {"name": "seamless", "icon": {"prefix": "https://fastly.4sqi.net/img/general/cap/", "sizes": [40, 50], "name": "/delivery_provider_seamless_20180129.png"}}}, "photos": {"count": 0, "groups": []}}, "referralId": "e-0-474d9e49f964a520ad4c1fe3-73"}, {"reasons": {"count": 0, "items": [{"summary": "This spot is popular", "type": "general", "reasonName": "globalInteractionReason"}]}, "venue": {"id": "4a945657f964a520432120e3", "name": "Oslo Coffee Roasters", "location": {"address": "328 Bedford Ave", "crossStreet": "btwn S 2nd & S 3rd St", "lat": 40.71310488717666, "lng": -73.96217867031888, "labeledLatLngs": [{"label": "display", "lat": 40.71310488717666, "lng": -73.96217867031888}], "distance": 432, "postalCode": "11249", "cc": "US", "city": "Brooklyn", "state": "NY", "country": "United States", "formattedAddress": ["328 Bedford Ave (btwn S 2nd & S 3rd St)", "Brooklyn, NY 11249", "United States"]}, "categories": [{"id": "4bf58dd8d48988d1e0931735", "name": "Coffee Shop", "pluralName": "Coffee Shops", "shortName": "Coffee Shop", "icon": {"prefix": "https://ss3.4sqi.net/img/categories_v2/food/coffeeshop_", "suffix": ".png"}, "primary": true}], "photos": {"count": 0, "groups": []}, "venuePage": {"id": "80490374"}}, "referralId": "e-0-4a945657f964a520432120e3-74"}, {"reasons": {"count": 0, "items": [{"summary": "This spot is popular", "type": "general", "reasonName": "globalInteractionReason"}]}, "venue": {"id": "4d2a0ca1888af04d176bd4af", "name": "Lighthouse", "location": {"address": "145 Borinquen Pl", "crossStreet": "at Keap St", "lat": 40.7107830177268, "lng": -73.95370438110912, "labeledLatLngs": [{"label": "display", "lat": 40.7107830177268, "lng": -73.95370438110912}], "distance": 362, "postalCode": "11211", "cc": "US", "city": "Brooklyn", "state": "NY", "country": "United States", "formattedAddress": ["145 Borinquen Pl (at Keap St)", "Brooklyn, NY 11211", "United States"]}, "categories": [{"id": "4bf58dd8d48988d157941735", "name": "New American Restaurant", "pluralName": "New American Restaurants", "shortName": "New American", "icon": {"prefix": "https://ss3.4sqi.net/img/categories_v2/food/newamerican_", "suffix": ".png"}, "primary": true}], "delivery": {"id": "1447978", "url": "https://www.seamless.com/menu/lighthouse-borinquen-pl-145-borinquen-pl-brooklyn/1447978?affiliate=1131&utm_source=foursquare-affiliate-network&utm_medium=affiliate&utm_campaign=1131&utm_content=1447978", "provider": {"name": "seamless", "icon": {"prefix": "https://fastly.4sqi.net/img/general/cap/", "sizes": [40, 50], "name": "/delivery_provider_seamless_20180129.png"}}}, "photos": {"count": 0, "groups": []}, "venuePage": {"id": "78627709"}}, "referralId": "e-0-4d2a0ca1888af04d176bd4af-75"}, {"reasons": {"count": 0, "items": [{"summary": "This spot is popular", "type": "general", "reasonName": "globalInteractionReason"}]}, "venue": {"id": "4b05ba80f964a520cbe122e3", "name": "Continental Army Plaza", "location": {"address": "Roebling St & S 4th Dr", "lat": 40.71064516221164, "lng": -73.96035780155312, "labeledLatLngs": [{"label": "display", "lat": 40.71064516221164, "lng": -73.96035780155312}], "distance": 200, "cc": "US", "city": "Brooklyn", "state": "NY", "country": "United States", "formattedAddress": ["Roebling St & S 4th Dr", "Brooklyn, NY", "United States"]}, "categories": [{"id": "4bf58dd8d48988d163941735", "name": "Park", "pluralName": "Parks", "shortName": "Park", "icon": {"prefix": "https://ss3.4sqi.net/img/categories_v2/parks_outdoors/park_", "suffix": ".png"}, "primary": true}], "photos": {"count": 0, "groups": []}}, "referralId": "e-0-4b05ba80f964a520cbe122e3-76"}, {"reasons": {"count": 0, "items": [{"summary": "This spot is popular", "type": "general", "reasonName": "globalInteractionReason"}]}, "venue": {"id": "564e4914498ea3de972cf48f", "name": "Chelsea Garden Center", "location": {"address": "84 Havemeyer St", "crossStreet": "Metropolitan Ave.", "lat": 40.713748934632214, "lng": -73.95608274131634, "labeledLatLngs": [{"label": "display", "lat": 40.713748934632214, "lng": -73.95608274131634}, {"label": "entrance", "lat": 40.713858, "lng": -73.955996}], "distance": 359, "postalCode": "11211", "cc": "US", "city": "Brooklyn", "state": "NY", "country": "United States", "formattedAddress": ["84 Havemeyer St (Metropolitan Ave.)", "Brooklyn, NY 11211", "United States"]}, "categories": [{"id": "4eb1c0253b7b52c0e1adc2e9", "name": "Garden Center", "pluralName": "Garden Centers", "shortName": "Garden Center", "icon": {"prefix": "https://ss3.4sqi.net/img/categories_v2/parks_outdoors/gardencenter_", "suffix": ".png"}, "primary": true}], "photos": {"count": 0, "groups": []}}, "referralId": "e-0-564e4914498ea3de972cf48f-77"}, {"reasons": {"count": 0, "items": [{"summary": "This spot is popular", "type": "general", "reasonName": "globalInteractionReason"}]}, "venue": {"id": "4ed1077a4690a03b5e13c348", "name": "Black Brick", "location": {"address": "300 Bedford Ave", "crossStreet": "btwn Grand & S 1st St", "lat": 40.714184577749386, "lng": -73.96155735867296, "labeledLatLngs": [{"label": "display", "lat": 40.714184577749386, "lng": -73.96155735867296}, {"label": "entrance", "lat": 40.714178, "lng": -73.961624}], "distance": 476, "postalCode": "11249", "cc": "US", "city": "Brooklyn", "state": "NY", "country": "United States", "formattedAddress": ["300 Bedford Ave (btwn Grand & S 1st St)", "Brooklyn, NY 11249", "United States"]}, "categories": [{"id": "4bf58dd8d48988d1e0931735", "name": "Coffee Shop", "pluralName": "Coffee Shops", "shortName": "Coffee Shop", "icon": {"prefix": "https://ss3.4sqi.net/img/categories_v2/food/coffeeshop_", "suffix": ".png"}, "primary": true}], "photos": {"count": 0, "groups": []}, "venuePage": {"id": "77313324"}}, "referralId": "e-0-4ed1077a4690a03b5e13c348-78"}, {"reasons": {"count": 0, "items": [{"summary": "This spot is popular", "type": "general", "reasonName": "globalInteractionReason"}]}, "venue": {"id": "546e7431498ea09f2b9152be", "name": "Sweatshop", "location": {"address": "232 Metropolitan Ave", "lat": 40.715089868805926, "lng": -73.95973374883259, "labeledLatLngs": [{"label": "display", "lat": 40.715089868805926, "lng": -73.95973374883259}, {"label": "entrance", "lat": 40.714937, "lng": -73.959704}], "distance": 492, "postalCode": "11211", "cc": "US", "city": "Brooklyn", "state": "NY", "country": "United States", "formattedAddress": ["232 Metropolitan Ave", "Brooklyn, NY 11211", "United States"]}, "categories": [{"id": "4bf58dd8d48988d1e0931735", "name": "Coffee Shop", "pluralName": "Coffee Shops", "shortName": "Coffee Shop", "icon": {"prefix": "https://ss3.4sqi.net/img/categories_v2/food/coffeeshop_", "suffix": ".png"}, "primary": true}], "photos": {"count": 0, "groups": []}}, "referralId": "e-0-546e7431498ea09f2b9152be-79"}, {"reasons": {"count": 0, "items": [{"summary": "This spot is popular", "type": "general", "reasonName": "globalInteractionReason"}]}, "venue": {"id": "5631511b498e3d6d7e0a4df0", "name": "Tikka Indian Grill", "location": {"address": "185 Grand Street", "lat": 40.71434305888687, "lng": -73.96090327883888, "labeledLatLngs": [{"label": "display", "lat": 40.71434305888687, "lng": -73.96090327883888}, {"label": "entrance", "lat": 40.714397, "lng": -73.960787}], "distance": 458, "postalCode": "11211", "cc": "US", "city": "Brooklyn", "state": "NY", "country": "United States", "formattedAddress": ["185 Grand Street", "Brooklyn, NY 11211", "United States"]}, "categories": [{"id": "4bf58dd8d48988d10f941735", "name": "Indian Restaurant", "pluralName": "Indian Restaurants", "shortName": "Indian", "icon": {"prefix": "https://ss3.4sqi.net/img/categories_v2/food/indian_", "suffix": ".png"}, "primary": true}], "delivery": {"id": "316606", "url": "https://www.seamless.com/menu/tikka-indian-grill-185-grand-st-brooklyn/316606?affiliate=1131&utm_source=foursquare-affiliate-network&utm_medium=affiliate&utm_campaign=1131&utm_content=316606", "provider": {"name": "seamless", "icon": {"prefix": "https://fastly.4sqi.net/img/general/cap/", "sizes": [40, 50], "name": "/delivery_provider_seamless_20180129.png"}}}, "photos": {"count": 0, "groups": []}}, "referralId": "e-0-5631511b498e3d6d7e0a4df0-80"}, {"reasons": {"count": 0, "items": [{"summary": "This spot is popular", "type": "general", "reasonName": "globalInteractionReason"}]}, "venue": {"id": "520ae487498e98d17674ec2d", "name": "Chez Jose", "location": {"address": "160 Havemeyer St", "crossStreet": "South 2nd Street", "lat": 40.71144168909818, "lng": -73.95773468552916, "labeledLatLngs": [{"label": "display", "lat": 40.71144168909818, "lng": -73.95773468552916}], "distance": 68, "postalCode": "11211", "cc": "US", "city": "Brooklyn", "state": "NY", "country": "United States", "formattedAddress": ["160 Havemeyer St (South 2nd Street)", "Brooklyn, NY 11211", "United States"]}, "categories": [{"id": "4bf58dd8d48988d14e941735", "name": "American Restaurant", "pluralName": "American Restaurants", "shortName": "American", "icon": {"prefix": "https://ss3.4sqi.net/img/categories_v2/food/default_", "suffix": ".png"}, "primary": true}], "photos": {"count": 0, "groups": []}}, "referralId": "e-0-520ae487498e98d17674ec2d-81"}, {"reasons": {"count": 0, "items": [{"summary": "This spot is popular", "type": "general", "reasonName": "globalInteractionReason"}]}, "venue": {"id": "500a4c8ce4b053e6573bd8b9", "name": "WMC Jazz", "location": {"address": "367 Bedford Ave", "crossStreet": "S 5", "lat": 40.711278, "lng": -73.963099, "labeledLatLngs": [{"label": "display", "lat": 40.711278, "lng": -73.963099}], "distance": 432, "postalCode": "11211", "cc": "US", "city": "Brooklyn", "state": "NY", "country": "United States", "formattedAddress": ["367 Bedford Ave (S 5)", "Brooklyn, NY 11211", "United States"]}, "categories": [{"id": "4bf58dd8d48988d1e7931735", "name": "Jazz Club", "pluralName": "Jazz Clubs", "shortName": "Jazz Club", "icon": {"prefix": "https://ss3.4sqi.net/img/categories_v2/arts_entertainment/musicvenue_jazzclub_", "suffix": ".png"}, "primary": true}], "photos": {"count": 0, "groups": []}}, "referralId": "e-0-500a4c8ce4b053e6573bd8b9-82"}, {"reasons": {"count": 0, "items": [{"summary": "This spot is popular", "type": "general", "reasonName": "globalInteractionReason"}]}, "venue": {"id": "58658906d8b0ed65596e5ccb", "name": "IRIS Piercing Studio & Jewelry Gallery", "location": {"address": "238 Metropolitan Ave", "crossStreet": "Bedford Ave", "lat": 40.714897, "lng": -73.959532, "labeledLatLngs": [{"label": "display", "lat": 40.714897, "lng": -73.959532}], "distance": 467, "postalCode": "11211", "cc": "US", "city": "Brooklyn", "state": "NY", "country": "United States", "formattedAddress": ["238 Metropolitan Ave (Bedford Ave)", "Brooklyn, NY 11211", "United States"]}, "categories": [{"id": "52f2ab2ebcbc57f1066b8b20", "name": "Piercing Parlor", "pluralName": "Piercing Parlors", "shortName": "Piercing Parlor", "icon": {"prefix": "https://ss3.4sqi.net/img/categories_v2/shops/piercing_", "suffix": ".png"}, "primary": true}], "photos": {"count": 0, "groups": []}}, "referralId": "e-0-58658906d8b0ed65596e5ccb-83"}, {"reasons": {"count": 0, "items": [{"summary": "This spot is popular", "type": "general", "reasonName": "globalInteractionReason"}]}, "venue": {"id": "5261525c11d2bf8a5e104a61", "name": "Baby's All Right", "location": {"address": "146 Broadway", "crossStreet": "at Bedford Ave", "lat": 40.710071, "lng": -73.963449, "labeledLatLngs": [{"label": "display", "lat": 40.710071, "lng": -73.963449}, {"label": "entrance", "lat": 40.710114, "lng": -73.963478}], "distance": 468, "postalCode": "11211", "cc": "US", "city": "Brooklyn", "state": "NY", "country": "United States", "formattedAddress": ["146 Broadway (at Bedford Ave)", "Brooklyn, NY 11211", "United States"]}, "categories": [{"id": "4bf58dd8d48988d1e5931735", "name": "Music Venue", "pluralName": "Music Venues", "shortName": "Music Venue", "icon": {"prefix": "https://ss3.4sqi.net/img/categories_v2/arts_entertainment/musicvenue_", "suffix": ".png"}, "primary": true}], "photos": {"count": 0, "groups": []}}, "referralId": "e-0-5261525c11d2bf8a5e104a61-84"}, {"reasons": {"count": 0, "items": [{"summary": "This spot is popular", "type": "general", "reasonName": "globalInteractionReason"}]}, "venue": {"id": "533465ed498ee8813f5f2076", "name": "Farook Halal Food", "location": {"address": "142 E 14th St", "lat": 40.710792485749074, "lng": -73.96352615672484, "labeledLatLngs": [{"label": "display", "lat": 40.710792485749074, "lng": -73.96352615672484}], "distance": 466, "postalCode": "10003", "cc": "US", "city": "New York", "state": "NY", "country": "United States", "formattedAddress": ["142 E 14th St", "New York, NY 10003", "United States"]}, "categories": [{"id": "4bf58dd8d48988d1cb941735", "name": "Food Truck", "pluralName": "Food Trucks", "shortName": "Food Truck", "icon": {"prefix": "https://ss3.4sqi.net/img/categories_v2/food/streetfood_", "suffix": ".png"}, "primary": true}], "photos": {"count": 0, "groups": []}}, "referralId": "e-0-533465ed498ee8813f5f2076-85"}, {"reasons": {"count": 0, "items": [{"summary": "This spot is popular", "type": "general", "reasonName": "globalInteractionReason"}]}, "venue": {"id": "4b5f82d1f964a520b2be29e3", "name": "Roebling Pizza", "location": {"address": "326 Roebling St", "crossStreet": "btw S 8th & S 9th", "lat": 40.708808307240645, "lng": -73.96090117049755, "labeledLatLngs": [{"label": "display", "lat": 40.708808307240645, "lng": -73.96090117049755}], "distance": 334, "postalCode": "11211", "cc": "US", "city": "Brooklyn", "state": "NY", "country": "United States", "formattedAddress": ["326 Roebling St (btw S 8th & S 9th)", "Brooklyn, NY 11211", "United States"]}, "categories": [{"id": "4bf58dd8d48988d1ca941735", "name": "Pizza Place", "pluralName": "Pizza Places", "shortName": "Pizza", "icon": {"prefix": "https://ss3.4sqi.net/img/categories_v2/food/pizza_", "suffix": ".png"}, "primary": true}], "delivery": {"id": "292632", "url": "https://www.seamless.com/menu/roebling-pizza-326-roebling-st-brooklyn/292632?affiliate=1131&utm_source=foursquare-affiliate-network&utm_medium=affiliate&utm_campaign=1131&utm_content=292632", "provider": {"name": "seamless", "icon": {"prefix": "https://fastly.4sqi.net/img/general/cap/", "sizes": [40, 50], "name": "/delivery_provider_seamless_20180129.png"}}}, "photos": {"count": 0, "groups": []}, "venuePage": {"id": "86013381"}}, "referralId": "e-0-4b5f82d1f964a520b2be29e3-86"}, {"reasons": {"count": 0, "items": [{"summary": "This spot is popular", "type": "general", "reasonName": "globalInteractionReason"}]}, "venue": {"id": "5890455a2a198220088064d9", "name": "Flywheel Sports", "location": {"address": "173 N 3rd St", "lat": 40.7152, "lng": -73.9593647, "labeledLatLngs": [{"label": "display", "lat": 40.7152, "lng": -73.9593647}, {"label": "entrance", "lat": 40.715237, "lng": -73.959441}], "distance": 496, "postalCode": "11211", "cc": "US", "city": "Brooklyn", "state": "NY", "country": "United States", "formattedAddress": ["173 N 3rd St", "Brooklyn, NY 11211", "United States"]}, "categories": [{"id": "52f2ab2ebcbc57f1066b8b49", "name": "Cycle Studio", "pluralName": "Cycle Studios", "shortName": "Cycle Studio", "icon": {"prefix": "https://ss3.4sqi.net/img/categories_v2/shops/bikeshop_", "suffix": ".png"}, "primary": true}], "photos": {"count": 0, "groups": []}}, "referralId": "e-0-5890455a2a198220088064d9-87"}, {"reasons": {"count": 0, "items": [{"summary": "This spot is popular", "type": "general", "reasonName": "globalInteractionReason"}]}, "venue": {"id": "52548c9011d242b73ff463f0", "name": "Jackbar", "location": {"address": "143 Havemeyer St", "crossStreet": "btwn S 1st & S 2nd St", "lat": 40.711901120359876, "lng": -73.95732465812063, "labeledLatLngs": [{"label": "display", "lat": 40.711901120359876, "lng": -73.95732465812063}, {"label": "entrance", "lat": 40.711853, "lng": -73.957256}], "distance": 129, "postalCode": "11211", "cc": "US", "city": "Brooklyn", "state": "NY", "country": "United States", "formattedAddress": ["143 Havemeyer St (btwn S 1st & S 2nd St)", "Brooklyn, NY 11211", "United States"]}, "categories": [{"id": "4bf58dd8d48988d116941735", "name": "Bar", "pluralName": "Bars", "shortName": "Bar", "icon": {"prefix": "https://ss3.4sqi.net/img/categories_v2/nightlife/pub_", "suffix": ".png"}, "primary": true}], "photos": {"count": 0, "groups": []}}, "referralId": "e-0-52548c9011d242b73ff463f0-88"}, {"reasons": {"count": 0, "items": [{"summary": "This spot is popular", "type": "general", "reasonName": "globalInteractionReason"}]}, "venue": {"id": "5533caee498e93216b39b818", "name": "Abracadabra Brooklyn", "location": {"address": "347 Bedford Ave, Brooklyn, NY 11211, United States", "lat": 40.712030074261435, "lng": -73.96290598436741, "labeledLatLngs": [{"label": "display", "lat": 40.712030074261435, "lng": -73.96290598436741}], "distance": 433, "postalCode": "11211", "cc": "US", "city": "New York", "state": "NY", "country": "United States", "formattedAddress": ["347 Bedford Ave, Brooklyn, NY 11211, United States", "New York, NY 11211", "United States"]},