[{"reasons": {"count": 0, "items": [{"summary": "This spot is popular", "type": "general", "reasonName": "globalInteractionReason"}]}, "venue": {"id": "4ec468af775b7dea874f43d6", "name": "Argyle Yarn Shop", "location": {"address": "288 Prospect Park W", "crossStreet": "18th Street", "lat": 40.657870657246505, "lng": -73.98277353571012, "labeledLatLngs": [{"label": "display", "lat": 40.657870657246505, "lng": -73.98277353571012}, {"label": "entrance", "lat": 40.657908, "lng": -73.982838}], "distance": 250, "postalCode": "11215", "cc": "US", "city": "Brooklyn", "state": "NY", "country": "United States", "formattedAddress": ["288 Prospect Park W (18th Street)", "Brooklyn, NY 11215", "United States"]}, "categories": [{"id": "4bf58dd8d48988d127951735", "name": "Arts & Crafts Store", "pluralName": "Arts & Crafts Stores", "shortName": "Arts & Crafts", "icon": {"prefix": "https://ss3.4sqi.net/img/categories_v2/shops/artstore_", "suffix": ".png"}, "primary": true}], "photos": {"count": 0, "groups": []}, "venuePage": {"id": "100657917"}}, "referralId": "e-0-4ec468af775b7dea874f43d6-0"}, {"reasons": {"count": 0, "items": [{"summary": "This spot is popular", "type": "general", "reasonName": "globalInteractionReason"}]}, "venue": {"id": "51339e88e4b097f2d4477025", "name": "Windsor Place Antiques", "location": {"address": "1624 10th Ave", "lat": 40.658858, "lng": -73.978674, "labeledLatLngs": [{"label": "display", "lat": 40.658858, "lng": -73.978674}, {"label": "entrance", "lat": 40.658793, "lng": -73.978561}], "distance": 243, "postalCode": "11215", "cc": "US", "city": "Brooklyn", "state": "NY", "country": "United States", "formattedAddress": ["1624 10th Ave", "Brooklyn, NY 11215", "United States"]}, "categories": [{"id": "4bf58dd8d48988d116951735", "name": "Antique Shop", "pluralName": "Antique Shops", "shortName": "Antiques", "icon": {"prefix": "https://ss3.4sqi.net/img/categories_v2/shops/antique_", "suffix": ".png"}, "primary": true}], "photos": {"count": 0, "groups": []}}, "referralId": "e-0-51339e88e4b097f2d4477025-1"}, {"reasons": {"count": 0, "items": [{"summary": "This spot is popular", "type": "general", "reasonName": "globalInteractionReason"}]}, "venue": {"id": "51eae2be498e4c679d7d20b6", "name": "Terrace Books", "location": {"address": "242 Prospect Park W", "lat": 40.659326849388236, "lng": -73.98135425014588, "labeledLatLngs": [{"label": "display", "lat": 40.659326849388236, "lng": -73.98135425014588}, {"label": "entrance", "lat": 40.65935, "lng": -73.98141}], "distance": 286, "postalCode": "11215", "cc": "US", "city": "Brooklyn", "state": "NY", "country": "United States", "formattedAddress": ["242 Prospect Park W", "Brooklyn, NY 11215", "United States"]}, "categories": [{"id": "4bf58dd8d48988d114951735", "name": "Bookstore", "pluralName": "Bookstores", "shortName": "Bookstore", "icon": {"prefix": "https://ss3.4sqi.net/img/categories_v2/shops/bookstore_", "suffix": ".png"}, "primary": true}], "photos": {"count": 0, "groups": []}}, "referralId": "e-0-51eae2be498e4c679d7d20b6-2"}, {"reasons": {"count": 0, "items": [{"summary": "This spot is popular", "type": "general", "reasonName": "globalInteractionReason"}]}, "venue": {"id": "4cc5b65b01fb236a4d41b3ba", "name": "Bedawi Cafe", "location": {"address": "266 Prospect Park W", "crossStreet": "btwn Prospect Ave. & 17th St.", "lat": 40.6585880576543, "lng": -73.98202023055737, "labeledLatLngs": [{"label": "display", "lat": 40.6585880576543, "lng": -73.98202023055737}, {"label": "entrance", "lat": 40.658585, "lng": -73.982122}], "distance": 245, "postalCode": "11215", "cc": "US", "city": "Brooklyn", "state": "NY", "country": "United States", "formattedAddress": ["266 Prospect Park W (btwn Prospect Ave. & 17th St.)", "Brooklyn, NY 11215", "United States"]}, "categories": [{"id": "4bf58dd8d48988d115941735", "name": "Middle Eastern Restaurant", "pluralName": "Middle Eastern Restaurants", "shortName": "Middle Eastern", "icon": {"prefix": "https://ss3.4sqi.net/img/categories_v2/food/middleeastern_", "suffix": ".png"}, "primary": true}], "delivery": {"id": "263608", "url": "https://www.seamless.com/menu/bedawi-cafe-266-prospect-park-w-brooklyn/263608?affiliate=1131&utm_source=foursquare-affiliate-network&utm_medium=affiliate&utm_campaign=1131&utm_content=263608", "provider": {"name": "seamless", "icon": {"prefix": "https://fastly.4sqi.net/img/general/cap/", "sizes": [40, 50], "name": "/delivery_provider_seamless_20180129.png"}}}, "photos": {"count": 0, "groups": []}}, "referralId": "e-0-4cc5b65b01fb236a4d41b3ba-3"}, {"reasons": {"count": 0, "items": [{"summary": "This spot is popular", "type": "general", "reasonName": "globalInteractionReason"}]}, "venue": {"id": "53f5e375498ea900654d8218", "name": "Brunswick", "location": {"address": "240 Prospect Park W", "crossStreet": "Windsor Place", "lat": 40.65942759201671, "lng": -73.98132991128122, "labeledLatLngs": [{"label": "display", "lat": 40.65942759201671, "lng": -73.98132991128122}], "distance": 295, "postalCode": "11215", "cc": "US", "city": "Brooklyn", "state": "NY", "country": "United States", "formattedAddress": ["240 Prospect Park W (Windsor Place)", "Brooklyn, NY 11215", "United States"]}, "categories": [{"id": "4bf58dd8d48988d16d941735", "name": "Caf\u00e9", "pluralName": "Caf\u00e9s", "shortName": "Caf\u00e9", "icon": {"prefix": "https://ss3.4sqi.net/img/categories_v2/food/cafe_", "suffix": ".png"}, "primary": true}], "delivery": {"id": "384239", "url": "https://www.seamless.com/menu/brunswick-cafe-240-prospect-park-w-brooklyn/384239?affiliate=1131&utm_source=foursquare-affiliate-network&utm_medium=affiliate&utm_campaign=1131&utm_content=384239", "provider": {"name": "seamless", "icon": {"prefix": "https://fastly.4sqi.net/img/general/cap/", "sizes": [40, 50], "name": "/delivery_provider_seamless_20180129.png"}}}, "photos": {"count": 0, "groups": []}, "venuePage": {"id": "445282375"}}, "referralId": "e-0-53f5e375498ea900654d8218-4"}, {"reasons": {"count": 0, "items": [{"summary": "This spot is popular", "type": "general", "reasonName": "globalInteractionReason"}]}, "venue": {"id": "5361a097498e40a31baa411c", "name": "Krupa Grocery", "location": {"address": "231 Prospect Park W", "crossStreet": "Windsor Place", "lat": 40.65995716793667, "lng": -73.9806956999739, "labeledLatLngs": [{"label": "display", "lat": 40.65995716793667, "lng": -73.9806956999739}], "distance": 339, "postalCode": "11215", "cc": "US", "city": "Brooklyn", "state": "NY", "country": "United States", "formattedAddress": ["231 Prospect Park W (Windsor Place)", "Brooklyn, NY 11215", "United States"]}, "categories": [{"id": "4bf58dd8d48988d14e941735", "name": "American Restaurant", "pluralName": "American Restaurants", "shortName": "American", "icon": {"prefix": "https://ss3.4sqi.net/img/categories_v2/food/default_", "suffix": ".png"}, "primary": true}], "delivery": {"id": "565361", "url": "https://www.seamless.com/menu/krupa-grocery-231-prospect-park-w-brooklyn/565361?affiliate=1131&utm_source=foursquare-affiliate-network&utm_medium=affiliate&utm_campaign=1131&utm_content=565361", "provider": {"name": "seamless", "icon": {"prefix": "https://fastly.4sqi.net/img/general/cap/", "sizes": [40, 50], "name": "/delivery_provider_seamless_20180129.png"}}}, "photos": {"count": 0, "groups": []}, "venuePage": {"id": "520774955"}}, "referralId": "e-0-5361a097498e40a31baa411c-5"}, {"reasons": {"count": 0, "items": [{"summary": "This spot is popular", "type": "general", "reasonName": "globalInteractionReason"}]}, "venue": {"id": "54e39b14498e9c646b42958e", "name": "East Wind Snack Shop", "location": {"address": "471 16th St", "crossStreet": "at Prospect Park West", "lat": 40.660297, "lng": -73.980169, "labeledLatLngs": [{"label": "display", "lat": 40.660297, "lng": -73.980169}], "distance": 373, "postalCode": "11215", "cc": "US", "city": "Brooklyn", "state": "NY", "country": "United States", "formattedAddress": ["471 16th St (at Prospect Park West)", "Brooklyn, NY 11215", "United States"]}, "categories": [{"id": "4bf58dd8d48988d145941735", "name": "Chinese Restaurant", "pluralName": "Chinese Restaurants", "shortName": "Chinese", "icon": {"prefix": "https://ss3.4sqi.net/img/categories_v2/food/asian_", "suffix": ".png"}, "primary": true}], "delivery": {"id": "465353", "url": "https://www.seamless.com/menu/east-wind-snack-shop-471-16th-st-brooklyn/465353?affiliate=1131&utm_source=foursquare-affiliate-network&utm_medium=affiliate&utm_campaign=1131&utm_content=465353", "provider": {"name": "seamless", "icon": {"prefix": "https://fastly.4sqi.net/img/general/cap/", "sizes": [40, 50], "name": "/delivery_provider_seamless_20180129.png"}}}, "photos": {"count": 0, "groups": []}}, "referralId": "e-0-54e39b14498e9c646b42958e-6"}, {"reasons": {"count": 0, "items": [{"summary": "This spot is popular", "type": "general", "reasonName": "globalInteractionReason"}]}, "venue": {"id": "5c4ce1ccdd8442002c2bfb4f", "name": "Daytime", "location": {"address": "199 Windsor Pl", "lat": 40.65858, "lng": -73.9781, "labeledLatLngs": [{"label": "display", "lat": 40.65858, "lng": -73.9781}], "distance": 246, "postalCode": "11215", "cc": "US", "city": "New York", "state": "NY", "country": "United States", "formattedAddress": ["199 Windsor Pl", "New York, NY 11215", "United States"]}, "categories": [{"id": "4bf58dd8d48988d16d941735", "name": "Caf\u00e9", "pluralName": "Caf\u00e9s", "shortName": "Caf\u00e9", "icon": {"prefix": "https://ss3.4sqi.net/img/categories_v2/food/cafe_", "suffix": ".png"}, "primary": true}], "photos": {"count": 0, "groups": []}}, "referralId": "e-0-5c4ce1ccdd8442002c2bfb4f-7"}, {"reasons": {"count": 0, "items": [{"summary": "This spot is popular", "type": "general", "reasonName": "globalInteractionReason"}]}, "venue": {"id": "4aa058fcf964a520433f20e3", "name": "Sushi Yama", "location": {"address": "268 Prospect Park W", "crossStreet": "At 17th St", "lat": 40.658542075971724, "lng": -73.98205414694895, "labeledLatLngs": [{"label": "display", "lat": 40.658542075971724, "lng": -73.98205414694895}], "distance": 244, "postalCode": "11215", "cc": "US", "city": "Brooklyn", "state": "NY", "country": "United States", "formattedAddress": ["268 Prospect Park W (At 17th St)", "Brooklyn, NY 11215", "United States"]}, "categories": [{"id": "4bf58dd8d48988d1d2941735", "name": "Sushi Restaurant", "pluralName": "Sushi Restaurants", "shortName": "Sushi", "icon": {"prefix": "https://ss3.4sqi.net/img/categories_v2/food/sushi_", "suffix": ".png"}, "primary": true}], "photos": {"count": 0, "groups": []}}, "referralId": "e-0-4aa058fcf964a520433f20e3-8"}, {"reasons": {"count": 0, "items": [{"summary": "This spot is popular", "type": "general", "reasonName": "globalInteractionReason"}]}, "venue": {"id": "4a7c3df8f964a5200bec1fe3", "name": "The Double Windsor", "location": {"address": "210 Prospect Park W", "crossStreet": "at 16th St", "lat": 40.66052504480458, "lng": -73.98028176631404, "labeledLatLngs": [{"label": "display", "lat": 40.66052504480458, "lng": -73.98028176631404}, {"label": "entrance", "lat": 40.660559, "lng": -73.9804}], "distance": 398, "postalCode": "11215", "cc": "US", "city": "Brooklyn", "state": "NY", "country": "United States", "formattedAddress": ["210 Prospect Park W (at 16th St)", "Brooklyn, NY 11215", "United States"]}, "categories": [{"id": "4bf58dd8d48988d116941735", "name": "Bar", "pluralName": "Bars", "shortName": "Bar", "icon": {"prefix": "https://ss3.4sqi.net/img/categories_v2/nightlife/pub_", "suffix": ".png"}, "primary": true}], "delivery": {"id": "2112165", "url": "https://www.seamless.com/menu/the-double-windsor-210-prospect-park-w-brooklyn/2112165?affiliate=1131&utm_source=foursquare-affiliate-network&utm_medium=affiliate&utm_campaign=1131&utm_content=2112165", "provider": {"name": "seamless", "icon": {"prefix": "https://fastly.4sqi.net/img/general/cap/", "sizes": [40, 50], "name": "/delivery_provider_seamless_20180129.png"}}}, "photos": {"count": 0, "groups": []}, "venuePage": {"id": "62332576"}}, "referralId": "e-0-4a7c3df8f964a5200bec1fe3-9"}, {"reasons": {"count": 0, "items": [{"summary": "This spot is popular", "type": "general", "reasonName": "globalInteractionReason"}]}, "venue": {"id": "55aab7d6498e24734d3095dd", "name": "Windsor Farms Market", "location": {"address": "589 Prospect Ave", "lat": 40.65672921765033, "lng": -73.97758629002944, "labeledLatLngs": [{"label": "display", "lat": 40.65672921765033, "lng": -73.97758629002944}, {"label": "entrance", "lat": 40.65663, "lng": -73.977869}], "distance": 211, "postalCode": "11215", "cc": "US", "city": "Brooklyn", "state": "NY", "country": "United States", "formattedAddress": ["589 Prospect Ave", "Brooklyn, NY 11215", "United States"]}, "categories": [{"id": "4bf58dd8d48988d118951735", "name": "Grocery Store", "pluralName": "Grocery Stores", "shortName": "Grocery Store", "icon": {"prefix": "https://ss3.4sqi.net/img/categories_v2/shops/food_grocery_", "suffix": ".png"}, "primary": true}], "photos": {"count": 0, "groups": []}}, "referralId": "e-0-55aab7d6498e24734d3095dd-10"}, {"reasons": {"count": 0, "items": [{"summary": "This spot is popular", "type": "general", "reasonName": "globalInteractionReason"}]}, "venue": {"id": "4a47a8b1f964a520e7a91fe3", "name": "Windsor Wines", "location": {"address": "216 Prospect Park W", "crossStreet": "btw 16th St & Windsor Pl", "lat": 40.66018312350765, "lng": -73.98056670020625, "labeledLatLngs": [{"label": "display", "lat": 40.66018312350765, "lng": -73.98056670020625}, {"label": "entrance", "lat": 40.660222, "lng": -73.980682}], "distance": 362, "postalCode": "11215", "cc": "US", "city": "Brooklyn", "state": "NY", "country": "United States", "formattedAddress": ["216 Prospect Park W (btw 16th St & Windsor Pl)", "Brooklyn, NY 11215", "United States"]}, "categories": [{"id": "4bf58dd8d48988d119951735", "name": "Wine Shop", "pluralName": "Wine Shops", "shortName": "Wine Shop", "icon": {"prefix": "https://ss3.4sqi.net/img/categories_v2/shops/food_wineshop_", "suffix": ".png"}, "primary": true}], "photos": {"count": 0, "groups": []}, "venuePage": {"id": "78789178"}}, "referralId": "e-0-4a47a8b1f964a520e7a91fe3-11"}, {"reasons": {"count": 0, "items": [{"summary": "This spot is popular", "type": "general", "reasonName": "globalInteractionReason"}]}, "venue": {"id": "49bf04caf964a52000551fe3", "name": "Terrace Bagels", "location": {"address": "222 and 222A Prospect West", "lat": 40.660019729450475, "lng": -73.98077900256138, "labeledLatLngs": [{"label": "display", "lat": 40.660019729450475, "lng": -73.98077900256138}], "distance": 347, "postalCode": "11215", "cc": "US", "city": "Brooklyn", "state": "NY", "country": "United States", "formattedAddress": ["222 and 222A Prospect West", "Brooklyn, NY 11215", "United States"]}, "categories": [{"id": "4bf58dd8d48988d179941735", "name": "Bagel Shop", "pluralName": "Bagel Shops", "shortName": "Bagels", "icon": {"prefix": "https://ss3.4sqi.net/img/categories_v2/food/bagels_", "suffix": ".png"}, "primary": true}], "delivery": {"id": "1096013", "url": "https://www.seamless.com/menu/terrace-bagels-222-prospect-park-w-brooklyn/1096013?affiliate=1131&utm_source=foursquare-affiliate-network&utm_medium=affiliate&utm_campaign=1131&utm_content=1096013", "provider": {"name": "seamless", "icon": {"prefix": "https://fastly.4sqi.net/img/general/cap/", "sizes": [40, 50], "name": "/delivery_provider_seamless_20180129.png"}}}, "photos": {"count": 0, "groups": []}}, "referralId": "e-0-49bf04caf964a52000551fe3-12"}, {"reasons": {"count": 0, "items": [{"summary": "This spot is popular", "type": "general", "reasonName": "globalInteractionReason"}]}, "venue": {"id": "4c03e3cc0d0e0f471225039a", "name": "Black Bear Vintage & Handmade", "location": {"address": "469 16th St", "crossStreet": "Prospect Park West", "lat": 40.660259292656775, "lng": -73.98010698210757, "labeledLatLngs": [{"label": "display", "lat": 40.660259292656775, "lng": -73.98010698210757}], "distance": 368, "postalCode": "11215", "cc": "US", "city": "Brooklyn", "state": "NY", "country": "United States", "formattedAddress": ["469 16th St (Prospect Park West)", "Brooklyn, NY 11215", "United States"]}, "categories": [{"id": "4bf58dd8d48988d101951735", "name": "Thrift / Vintage Store", "pluralName": "Thrift / Vintage Stores", "shortName": "Thrift / Vintage", "icon": {"prefix": "https://ss3.4sqi.net/img/categories_v2/shops/default_", "suffix": ".png"}, "primary": true}], "photos": {"count": 0, "groups": []}}, "referralId": "e-0-4c03e3cc0d0e0f471225039a-13"}, {"reasons": {"count": 0, "items": [{"summary": "This spot is popular", "type": "general", "reasonName": "globalInteractionReason"}]}, "venue": {"id": "4ec7fa185c5ce271be2b2bfa", "name": "Giovanni's Brooklyn Eats", "location": {"address": "1657 8th Ave", "crossStreet": "Prospect Ave", "lat": 40.660159372085104, "lng": -73.9837526794552, "labeledLatLngs": [{"label": "display", "lat": 40.660159372085104, "lng": -73.9837526794552}, {"label": "entrance", "lat": 40.660192, "lng": -73.983685}], "distance": 473, "postalCode": "11215", "cc": "US", "city": "Brooklyn", "state": "NY", "country": "United States", "formattedAddress": ["1657 8th Ave (Prospect Ave)", "Brooklyn, NY 11215", "United States"]}, "categories": [{"id": "4bf58dd8d48988d110941735", "name": "Italian Restaurant", "pluralName": "Italian Restaurants", "shortName": "Italian", "icon": {"prefix": "https://ss3.4sqi.net/img/categories_v2/food/italian_", "suffix": ".png"}, "primary": true}], "delivery": {"id": "296176", "url": "https://www.seamless.com/menu/giovannis-brooklyn-eats-1657-8th-ave-brooklyn/296176?affiliate=1131&utm_source=foursquare-affiliate-network&utm_medium=affiliate&utm_campaign=1131&utm_content=296176", "provider": {"name": "seamless", "icon": {"prefix": "https://fastly.4sqi.net/img/general/cap/", "sizes": [40, 50], "name": "/delivery_provider_seamless_20180129.png"}}}, "photos": {"count": 0, "groups": []}}, "referralId": "e-0-4ec7fa185c5ce271be2b2bfa-14"}, {"reasons": {"count": 0, "items": [{"summary": "This spot is popular", "type": "general", "reasonName": "globalInteractionReason"}]}, "venue": {"id": "5619834a498ed6032a4fc7ba", "name": "209 Station", "location": {"address": "209 Prospect Park W", "crossStreet": "btwn 16th Street & Bartel-Pritchard Square", "lat": 40.660580240771196, "lng": -73.98022315970215, "labeledLatLngs": [{"label": "display", "lat": 40.660580240771196, "lng": -73.98022315970215}, {"label": "entrance", "lat": 40.660488, "lng": -73.980138}], "distance": 404, "cc": "US", "city": "Brooklyn", "state": "NY", "country": "United States", "formattedAddress": ["209 Prospect Park W (btwn 16th Street & Bartel-Pritchard Square)", "Brooklyn, NY", "United States"]}, "categories": [{"id": "5370f356bcbc57f1066c94c2", "name": "Beer Store", "pluralName": "Beer Stores", "shortName": "Beer Store", "icon": {"prefix": "https://ss3.4sqi.net/img/categories_v2/nightlife/beergarden_", "suffix": ".png"}, "primary": true}], "photos": {"count": 0, "groups": []}}, "referralId": "e-0-5619834a498ed6032a4fc7ba-15"}, {"reasons": {"count": 0, "items": [{"summary": "This spot is popular", "type": "general", "reasonName": "globalInteractionReason"}]}, "venue": {"id": "49baf166f964a520c9531fe3", "name": "Windsor Cafe", "location": {"address": "220 Prospect Park W", "crossStreet": "at Windsor Pl", "lat": 40.66010533201, "lng": -73.98067619390811, "labeledLatLngs": [{"label": "display", "lat": 40.66010533201, "lng": -73.98067619390811}, {"label": "entrance", "lat": 40.66013, "lng": -73.980759}], "distance": 355, "postalCode": "11215", "cc": "US", "city": "Brooklyn", "state": "NY", "country": "United States", "formattedAddress": ["220 Prospect Park W (at Windsor Pl)", "Brooklyn, NY 11215", "United States"]}, "categories": [{"id": "4bf58dd8d48988d147941735", "name": "Diner", "pluralName": "Diners", "shortName": "Diner", "icon": {"prefix": "https://ss3.4sqi.net/img/categories_v2/food/diner_", "suffix": ".png"}, "primary": true}], "delivery": {"id": "1970721", "url": "https://www.seamless.com/menu/windsor-diner-220-prospect-park-w-brooklyn/1970721?affiliate=1131&utm_source=foursquare-affiliate-network&utm_medium=affiliate&utm_campaign=1131&utm_content=1970721", "provider": {"name": "seamless", "icon": {"prefix": "https://fastly.4sqi.net/img/general/cap/", "sizes": [40, 50], "name": "/delivery_provider_seamless_20180129.png"}}}, "photos": {"count": 0, "groups": []}, "venuePage": {"id": "58678151"}}, "referralId": "e-0-49baf166f964a520c9531fe3-16"}, {"reasons": {"count": 0, "items": [{"summary": "This spot is popular", "type": "general", "reasonName": "globalInteractionReason"}]}, "venue": {"id": "4ac787f5f964a520c9b720e3", "name": "Regina Bakery Inc.", "location": {"address": "485 Prospect Ave", "crossStreet": "btw Prospect Park W & 8th Ave", "lat": 40.65886137286639, "lng": -73.98188883892442, "labeledLatLngs": [{"label": "display", "lat": 40.65886137286639, "lng": -73.98188883892442}, {"label": "entrance", "lat": 40.659049, "lng": -73.981877}], "distance": 262, "postalCode": "11215", "cc": "US", "city": "Brooklyn", "state": "NY", "country": "United States", "formattedAddress": ["485 Prospect Ave (btw Prospect Park W & 8th Ave)", "Brooklyn, NY 11215", "United States"]}, "categories": [{"id": "4bf58dd8d48988d16a941735", "name": "Bakery", "pluralName": "Bakeries", "shortName": "Bakery", "icon": {"prefix": "https://ss3.4sqi.net/img/categories_v2/food/bakery_", "suffix": ".png"}, "primary": true}], "photos": {"count": 0, "groups": []}}, "referralId": "e-0-4ac787f5f964a520c9b720e3-17"}, {"reasons": {"count": 0, "items": [{"summary": "This spot is popular", "type": "general", "reasonName": "globalInteractionReason"}]}, "venue": {"id": "4cfc0ea52d80a1436b0c4fd8", "name": "Terrace Coffee Shop", "location": {"address": "598 19th St", "crossStreet": "11Th Ave. & Terrace Place", "lat": 40.65458880590596, "lng": -73.97920811893258, "labeledLatLngs": [{"label": "display", "lat": 40.65458880590596, "lng": -73.97920811893258}, {"label": "entrance", "lat": 40.654517, "lng": -73.979251}], "distance": 272, "postalCode": "11218", "cc": "US", "city": "Brooklyn", "state": "NY", "country": "United States", "formattedAddress": ["598 19th St (11Th Ave. & Terrace Place)", "Brooklyn, NY 11218", "United States"]}, "categories": [{"id": "4bf58dd8d48988d147941735", "name": "Diner", "pluralName": "Diners", "shortName": "Diner", "icon": {"prefix": "https://ss3.4sqi.net/img/categories_v2/food/diner_", "suffix": ".png"}, "primary": true}], "delivery": {"id": "321088", "url": "https://www.seamless.com/menu/terrace-coffee-shop-598-19th-st-brooklyn/321088?affiliate=1131&utm_source=foursquare-affiliate-network&utm_medium=affiliate&utm_campaign=1131&utm_content=321088", "provider": {"name": "seamless", "icon": {"prefix": "https://fastly.4sqi.net/img/general/cap/", "sizes": [40, 50], "name": "/delivery_provider_seamless_20180129.png"}}}, "photos": {"count": 0, "groups": []}, "venuePage": {"id": "39184168"}}, "referralId": "e-0-4cfc0ea52d80a1436b0c4fd8-18"}, {"reasons": {"count": 0, "items": [{"summary": "This spot is popular", "type": "general", "reasonName": "globalInteractionReason"}]}, "venue": {"id": "4a397422f964a520769f1fe3", "name": "DUB Pies - Windsor Terrace", "location": {"address": "211 Prospect Park W", "crossStreet": "at 16th St", "lat": 40.66043997892629, "lng": -73.98028259046083, "labeledLatLngs": [{"label": "display", "lat": 40.66043997892629, "lng": -73.98028259046083}], "distance": 389, "postalCode": "11215", "cc": "US", "city": "Brooklyn", "state": "NY", "country": "United States", "formattedAddress": ["211 Prospect Park W (at 16th St)", "Brooklyn, NY 11215", "United States"]}, "categories": [{"id": "4bf58dd8d48988d1e0931735", "name": "Coffee Shop", "pluralName": "Coffee Shops", "shortName": "Coffee Shop", "icon": {"prefix": "https://ss3.4sqi.net/img/categories_v2/food/coffeeshop_", "suffix": ".png"}, "primary": true}], "photos": {"count": 0, "groups": []}, "venuePage": {"id": "68241772"}}, "referralId": "e-0-4a397422f964a520769f1fe3-19"}, {"reasons": {"count": 0, "items": [{"summary": "This spot is popular", "type": "general", "reasonName": "globalInteractionReason"}]}, "venue": {"id": "4a589db9f964a52095b71fe3", "name": "United Meat Market", "location": {"address": "219 Prospect Park W", "lat": 40.660248579209295, "lng": -73.98050382123279, "labeledLatLngs": [{"label": "display", "lat": 40.660248579209295, "lng": -73.98050382123279}, {"label": "entrance", "lat": 40.660152, "lng": -73.980408}], "distance": 369, "postalCode": "11215", "cc": "US", "city": "Brooklyn", "state": "NY", "country": "United States", "formattedAddress": ["219 Prospect Park W", "Brooklyn, NY 11215", "United States"]}, "categories": [{"id": "4bf58dd8d48988d11d951735", "name": "Butcher", "pluralName": "Butchers", "shortName": "Butcher", "icon": {"prefix": "https://ss3.4sqi.net/img/categories_v2/shops/food_butcher_", "suffix": ".png"}, "primary": true}], "photos": {"count": 0, "groups": []}}, "referralId": "e-0-4a589db9f964a52095b71fe3-20"}, {"reasons": {"count": 0, "items": [{"summary": "This spot is popular", "type": "general", "reasonName": "globalInteractionReason"}]}, "venue": {"id": "4aa50a91f964a520594720e3", "name": "J & H Farm", "location": {"address": "214 Prospect Park W Ste A", "crossStreet": "16th St", "lat": 40.66021140118614, "lng": -73.98055379320971, "labeledLatLngs": [{"label": "display", "lat": 40.66021140118614, "lng": -73.98055379320971}], "distance": 365, "postalCode": "11215", "cc": "US", "city": "Brooklyn", "state": "NY", "country": "United States", "formattedAddress": ["214 Prospect Park W Ste A (16th St)", "Brooklyn, NY 11215", "United States"]}, "categories": [{"id": "4bf58dd8d48988d146941735", "name": "Deli / Bodega", "pluralName": "Delis / Bodegas", "shortName": "Deli / Bodega", "icon": {"prefix": "https://ss3.4sqi.net/img/categories_v2/food/deli_", "suffix": ".png"}, "primary": true}], "photos": {"count": 0, "groups": []}}, "referralId": "e-0-4aa50a91f964a520594720e3-21"}, {"reasons": {"count": 0, "items": [{"summary": "This spot is popular", "type": "general", "reasonName": "globalInteractionReason"}]}, "venue": {"id": "4c534e76728920a1b106db80", "name": "Bartel-Pritchard Circle", "location": {"address": "Prospect Park West", "crossStreet": "at Prospect Park Southwest", "lat": 40.66099983324835, "lng": -73.97987237655138, "labeledLatLngs": [{"label": "display", "lat": 40.66099983324835, "lng": -73.97987237655138}], "distance": 451, "postalCode": "11215", "cc": "US", "city": "Brooklyn", "state": "NY", "country": "United States", "formattedAddress": ["Prospect Park West (at Prospect Park Southwest)", "Brooklyn, NY 11215", "United States"]}, "categories": [{"id": "4bf58dd8d48988d164941735", "name": "Plaza", "pluralName": "Plazas", "shortName": "Plaza", "icon": {"prefix": "https://ss3.4sqi.net/img/categories_v2/parks_outdoors/plaza_", "suffix": ".png"}, "primary": true}], "photos": {"count": 0, "groups": []}}, "referralId": "e-0-4c534e76728920a1b106db80-22"}, {"reasons": {"count": 0, "items": [{"summary": "This spot is popular", "type": "general", "reasonName": "globalInteractionReason"}]}, "venue": {"id": "4bdcb78b3904a593486d4f9e", "name": "Thomas J. Cuite Park", "location": {"address": "19th Street", "crossStreet": "11th avenue", "lat": 40.6543385013301, "lng": -73.97875591953687, "labeledLatLngs": [{"label": "display", "lat": 40.6543385013301, "lng": -73.97875591953687}], "distance": 310, "postalCode": "11218", "cc": "US", "city": "Brooklyn", "state": "NY", "country": "United States", "formattedAddress": ["19th Street (11th avenue)", "Brooklyn, NY 11218", "United States"]}, "categories": [{"id": "4bf58dd8d48988d163941735", "name": "Park", "pluralName": "Parks", "shortName": "Park", "icon": {"prefix": "https://ss3.4sqi.net/img/categories_v2/parks_outdoors/park_", "suffix": ".png"}, "primary": true}], "photos": {"count": 0, "groups": []}}, "referralId": "e-0-4bdcb78b3904a593486d4f9e-23"}, {"reasons": {"count": 0, "items": [{"summary": "This spot is popular", "type": "general", "reasonName": "globalInteractionReason"}]}, "venue": {"id": "51f4252a498ebf4122f42ee7", "name": "Seeley Park", "location": {"lat": 40.65342028198995, "lng": -73.97781831525518, "labeledLatLngs": [{"label": "display", "lat": 40.65342028198995, "lng": -73.97781831525518}], "distance": 436, "cc": "US", "city": "Brooklyn", "state": "NY", "country": "United States", "formattedAddress": ["Brooklyn, NY", "United States"]}, "categories": [{"id": "4bf58dd8d48988d163941735", "name": "Park", "pluralName": "Parks", "shortName": "Park", "icon": {"prefix": "https://ss3.4sqi.net/img/categories_v2/parks_outdoors/park_", "suffix": ".png"}, "primary": true}], "photos": {"count": 0, "groups": []}}, "referralId": "e-0-51f4252a498ebf4122f42ee7-24"}, {"reasons": {"count": 0, "items": [{"summary": "This spot is popular", "type": "general", "reasonName": "globalInteractionReason"}]}, "venue": {"id": "54bd2bf4498ee95958ccf75d", "name": "Fresh Fix", "location": {"address": "1658 8th Ave", "crossStreet": "btwn Prospect Ave and Windsor Pl", "lat": 40.66025594144064, "lng": -73.98377484806583, "labeledLatLngs": [{"label": "display", "lat": 40.66025594144064, "lng": -73.98377484806583}], "distance": 483, "postalCode": "11215", "cc": "US", "city": "Brooklyn", "state": "NY", "country": "United States", "formattedAddress": ["1658 8th Ave (btwn Prospect Ave and Windsor Pl)", "Brooklyn, NY 11215", "United States"]}, "categories": [{"id": "4bf58dd8d48988d1bd941735", "name": "Salad Place", "pluralName": "Salad Places", "shortName": "Salad", "icon": {"prefix": "https://ss3.4sqi.net/img/categories_v2/food/salad_", "suffix": ".png"}, "primary": true}], "photos": {"count": 0, "groups": []}}, "referralId": "e-0-54bd2bf4498ee95958ccf75d-25"}]