[{"reasons": {"count": 0, "items": [{"summary": "This spot is popular", "type": "general", "reasonName": "globalInteractionReason"}]}, "venue": {"id": "54bd5c0e498ec3ed3dc75679", "name": "Izzy's Brooklyn Smokehouse", "location": {"address": "397 Troy Ave", "lat": 40.66486881489594, "lng": -73.9370233571384, "labeledLatLngs": [{"label": "display", "lat": 40.66486881489594, "lng": -73.9370233571384}, {"label": "entrance", "lat": 40.66487, "lng": -73.936927}], "distance": 436, "postalCode": "11213", "cc": "US", "city": "Brooklyn", "state": "NY", "country": "United States", "formattedAddress": ["397 Troy Ave", "Brooklyn, NY 11213", "United States"]}, "categories": [{"id": "4bf58dd8d48988d1df931735", "name": "BBQ Joint", "pluralName": "BBQ Joints", "shortName": "BBQ", "icon": {"prefix": "https://ss3.4sqi.net/img/categories_v2/food/bbqalt_", "suffix": ".png"}, "primary": true}], "photos": {"count": 0, "groups": []}}, "referralId": "e-0-54bd5c0e498ec3ed3dc75679-0"}, {"reasons": {"count": 0, "items": [{"summary": "This spot is popular", "type": "general", "reasonName": "globalInteractionReason"}]}, "venue": {"id": "4cc3299c914137046fd1b955", "name": "Old Boys High Field", "location": {"crossStreet": "Rutland rd. & Troy ave.", "lat": 40.65866658523819, "lng": -73.93842673009168, "labeledLatLngs": [{"label": "display", "lat": 40.65866658523819, "lng": -73.93842673009168}], "distance": 274, "cc": "US", "city": "Brooklyn", "state": "NY", "country": "United States", "formattedAddress": ["Brooklyn, NY", "United States"]}, "categories": [{"id": "4bf58dd8d48988d15f941735", "name": "Field", "pluralName": "Fields", "shortName": "Field", "icon": {"prefix": "https://ss3.4sqi.net/img/categories_v2/parks_outdoors/field_", "suffix": ".png"}, "primary": true}], "photos": {"count": 0, "groups": []}}, "referralId": "e-0-4cc3299c914137046fd1b955-1"}, {"reasons": {"count": 0, "items": [{"summary": "This spot is popular", "type": "general", "reasonName": "globalInteractionReason"}]}, "venue": {"id": "4f40601ce4b0102f0d7c4b17", "name": "Fish N Chips (Soul of the Sea)", "location": {"address": "527 Albany Ave", "lat": 40.662009000000005, "lng": -73.93975999999999, "labeledLatLngs": [{"label": "display", "lat": 40.662009000000005, "lng": -73.93975999999999}, {"label": "entrance", "lat": 40.662068, "lng": -73.939803}], "distance": 247, "postalCode": "11203", "cc": "US", "city": "Brooklyn", "state": "NY", "country": "United States", "formattedAddress": ["527 Albany Ave", "Brooklyn, NY 11203", "United States"]}, "categories": [{"id": "4edd64a0c7ddd24ca188df1a", "name": "Fish & Chips Shop", "pluralName": "Fish & Chips Shops", "shortName": "Fish & Chips", "icon": {"prefix": "https://ss3.4sqi.net/img/categories_v2/food/fishandchips_", "suffix": ".png"}, "primary": true}], "photos": {"count": 0, "groups": []}}, "referralId": "e-0-4f40601ce4b0102f0d7c4b17-2"}, {"reasons": {"count": 0, "items": [{"summary": "This spot is popular", "type": "general", "reasonName": "globalInteractionReason"}]}, "venue": {"id": "53834c45498ec7f833103b35", "name": "Crunch Fitness - Crown Heights", "location": {"address": "842 Lefferts Ave", "lat": 40.663335, "lng": -73.9328076, "labeledLatLngs": [{"label": "display", "lat": 40.663335, "lng": -73.9328076}, {"label": "entrance", "lat": 40.663324, "lng": -73.932948}], "distance": 455, "postalCode": "11203", "cc": "US", "city": "Brooklyn", "state": "NY", "country": "United States", "formattedAddress": ["842 Lefferts Ave", "Brooklyn, NY 11203", "United States"]}, "categories": [{"id": "4bf58dd8d48988d175941735", "name": "Gym / Fitness Center", "pluralName": "Gyms or Fitness Centers", "shortName": "Gym / Fitness", "icon": {"prefix": "https://ss3.4sqi.net/img/categories_v2/building/gym_", "suffix": ".png"}, "primary": true}], "photos": {"count": 0, "groups": []}, "venuePage": {"id": "531733256"}}, "referralId": "e-0-53834c45498ec7f833103b35-3"}, {"reasons": {"count": 0, "items": [{"summary": "This spot is popular", "type": "general", "reasonName": "globalInteractionReason"}]}, "venue": {"id": "4bb92af1b35776b07cb4c901", "name": "Three Star Juice Lounge", "location": {"address": "482 Utica Ave", "crossStreet": "btwn Midwood St. and Maple St.", "lat": 40.66146529013741, "lng": -73.93167214758618, "labeledLatLngs": [{"label": "display", "lat": 40.66146529013741, "lng": -73.93167214758618}], "distance": 469, "postalCode": "11203", "cc": "US", "city": "Brooklyn", "state": "NY", "country": "United States", "formattedAddress": ["482 Utica Ave (btwn Midwood St. and Maple St.)", "Brooklyn, NY 11203", "United States"]}, "categories": [{"id": "4bf58dd8d48988d112941735", "name": "Juice Bar", "pluralName": "Juice Bars", "shortName": "Juice Bar", "icon": {"prefix": "https://ss3.4sqi.net/img/categories_v2/food/juicebar_", "suffix": ".png"}, "primary": true}], "photos": {"count": 0, "groups": []}, "venuePage": {"id": "54455607"}}, "referralId": "e-0-4bb92af1b35776b07cb4c901-4"}, {"reasons": {"count": 0, "items": [{"summary": "This spot is popular", "type": "general", "reasonName": "globalInteractionReason"}]}, "venue": {"id": "4d2ca53c068e8cfa035aee4c", "name": "Rite Aid", "location": {"address": "506-528 Utica Ave", "crossStreet": "at Rutland Rd", "lat": 40.6610656, "lng": -73.9318159, "labeledLatLngs": [{"label": "display", "lat": 40.6610656, "lng": -73.9318159}, {"label": "entrance", "lat": 40.661112, "lng": -73.93156}], "distance": 453, "postalCode": "11203", "cc": "US", "city": "Brooklyn", "state": "NY", "country": "United States", "formattedAddress": ["506-528 Utica Ave (at Rutland Rd)", "Brooklyn, NY 11203", "United States"]}, "categories": [{"id": "4bf58dd8d48988d10f951735", "name": "Pharmacy", "pluralName": "Pharmacies", "shortName": "Pharmacy", "icon": {"prefix": "https://ss3.4sqi.net/img/categories_v2/shops/pharmacy_", "suffix": ".png"}, "primary": true}], "photos": {"count": 0, "groups": []}}, "referralId": "e-0-4d2ca53c068e8cfa035aee4c-5"}, {"reasons": {"count": 0, "items": [{"summary": "This spot is popular", "type": "general", "reasonName": "globalInteractionReason"}]}, "venue": {"id": "4ced88fe82125481899f5fa1", "name": "Family Dollar", "location": {"address": "887 E New York Ave", "lat": 40.663039000000005, "lng": -73.932828, "labeledLatLngs": [{"label": "display", "lat": 40.663039000000005, "lng": -73.932828}, {"label": "entrance", "lat": 40.662769, "lng": -73.933164}], "distance": 435, "postalCode": "11203", "cc": "US", "city": "Brooklyn", "state": "NY", "country": "United States", "formattedAddress": ["887 E New York Ave", "Brooklyn, NY 11203", "United States"]}, "categories": [{"id": "52dea92d3cf9994f4e043dbb", "name": "Discount Store", "pluralName": "Discount Stores", "shortName": "Discount Store", "icon": {"prefix": "https://ss3.4sqi.net/img/categories_v2/shops/discountstore_", "suffix": ".png"}, "primary": true}], "photos": {"count": 0, "groups": []}}, "referralId": "e-0-4ced88fe82125481899f5fa1-6"}, {"reasons": {"count": 0, "items": [{"summary": "This spot is popular", "type": "general", "reasonName": "globalInteractionReason"}]}, "venue": {"id": "51647629e4b02b89b5c0dc8e", "name": "Popeyes Louisiana Kitchen", "location": {"lat": 40.66300875731143, "lng": -73.94011239211001, "labeledLatLngs": [{"label": "display", "lat": 40.66300875731143, "lng": -73.94011239211001}], "distance": 337, "cc": "US", "city": "Brooklyn", "state": "NY", "country": "United States", "formattedAddress": ["Brooklyn, NY", "United States"]}, "categories": [{"id": "4d4ae6fc7a7b7dea34424761", "name": "Fried Chicken Joint", "pluralName": "Fried Chicken Joints", "shortName": "Fried Chicken", "icon": {"prefix": "https://ss3.4sqi.net/img/categories_v2/food/friedchicken_", "suffix": ".png"}, "primary": true}], "photos": {"count": 0, "groups": []}}, "referralId": "e-0-51647629e4b02b89b5c0dc8e-7"}, {"reasons": {"count": 0, "items": [{"summary": "This spot is popular", "type": "general", "reasonName": "globalInteractionReason"}]}, "venue": {"id": "4b2d5275f964a52010d424e3", "name": "White Castle", "location": {"address": "846 Empire Blvd.", "lat": 40.66335666741389, "lng": -73.93223820983295, "labeledLatLngs": [{"label": "display", "lat": 40.66335666741389, "lng": -73.93223820983295}], "distance": 496, "postalCode": "11213", "cc": "US", "city": "Brooklyn", "state": "NY", "country": "United States", "formattedAddress": ["846 Empire Blvd.", "Brooklyn, NY 11213", "United States"]}, "categories": [{"id": "4bf58dd8d48988d16e941735", "name": "Fast Food Restaurant", "pluralName": "Fast Food Restaurants", "shortName": "Fast Food", "icon": {"prefix": "https://ss3.4sqi.net/img/categories_v2/food/fastfood_", "suffix": ".png"}, "primary": true}], "delivery": {"id": "467124", "url": "https://www.seamless.com/menu/white-castle-846-empire-blvd-brooklyn/467124?affiliate=1131&utm_source=foursquare-affiliate-network&utm_medium=affiliate&utm_campaign=1131&utm_content=467124", "provider": {"name": "seamless", "icon": {"prefix": "https://fastly.4sqi.net/img/general/cap/", "sizes": [40, 50], "name": "/delivery_provider_seamless_20180129.png"}}}, "photos": {"count": 0, "groups": []}}, "referralId": "e-0-4b2d5275f964a52010d424e3-8"}, {"reasons": {"count": 0, "items": [{"summary": "This spot is popular", "type": "general", "reasonName": "globalInteractionReason"}]}, "venue": {"id": "4e4dd5d4bd4101d0d79c536c", "name": "Dunkin'", "location": {"address": "35 E 48th St", "lat": 40.663457595035055, "lng": -73.93362560648474, "labeledLatLngs": [{"label": "display", "lat": 40.663457595035055, "lng": -73.93362560648474}], "distance": 410, "postalCode": "11203", "cc": "US", "city": "Brooklyn", "state": "NY", "country": "United States", "formattedAddress": ["35 E 48th St", "Brooklyn, NY 11203", "United States"]}, "categories": [{"id": "4bf58dd8d48988d148941735", "name": "Donut Shop", "pluralName": "Donut Shops", "shortName": "Donuts", "icon": {"prefix": "https://ss3.4sqi.net/img/categories_v2/food/donuts_", "suffix": ".png"}, "primary": true}], "photos": {"count": 0, "groups": []}}, "referralId": "e-0-4e4dd5d4bd4101d0d79c536c-9"}, {"reasons": {"count": 0, "items": [{"summary": "This spot is popular", "type": "general", "reasonName": "globalInteractionReason"}]}, "venue": {"id": "4ef3886ab6342877b759bb29", "name": "MTA B12 Lefferts Ave & Schenectady Ave", "location": {"lat": 40.658699163832964, "lng": -73.93842745904342, "labeledLatLngs": [{"label": "display", "lat": 40.658699163832964, "lng": -73.93842745904342}], "distance": 271, "postalCode": "11203", "cc": "US", "city": "Brooklyn", "state": "NY", "country": "United States", "formattedAddress": ["Brooklyn, NY 11203", "United States"]}, "categories": [{"id": "4bf58dd8d48988d1fe931735", "name": "Bus Station", "pluralName": "Bus Stations", "shortName": "Bus Station", "icon": {"prefix": "https://ss3.4sqi.net/img/categories_v2/travel/busstation_", "suffix": ".png"}, "primary": true}], "photos": {"count": 0, "groups": []}}, "referralId": "e-0-4ef3886ab6342877b759bb29-10"}, {"reasons": {"count": 0, "items": [{"summary": "This spot is popular", "type": "general", "reasonName": "globalInteractionReason"}]}, "venue": {"id": "4cdde0f1df986ea8f960d816", "name": "KFC", "location": {"address": "458 Utica Ave", "crossStreet": "E. New York Av", "lat": 40.66238824548327, "lng": -73.9318390963125, "labeledLatLngs": [{"label": "display", "lat": 40.66238824548327, "lng": -73.9318390963125}, {"label": "entrance", "lat": 40.662392, "lng": -73.931728}], "distance": 479, "postalCode": "11203", "cc": "US", "city": "Brooklyn", "state": "NY", "country": "United States", "formattedAddress": ["458 Utica Ave (E. New York Av)", "Brooklyn, NY 11203", "United States"]}, "categories": [{"id": "4d4ae6fc7a7b7dea34424761", "name": "Fried Chicken Joint", "pluralName": "Fried Chicken Joints", "shortName": "Fried Chicken", "icon": {"prefix": "https://ss3.4sqi.net/img/categories_v2/food/friedchicken_", "suffix": ".png"}, "primary": true}], "delivery": {"id": "467373", "url": "https://www.seamless.com/menu/kfc-458-utica-ave-brooklyn/467373?affiliate=1131&utm_source=foursquare-affiliate-network&utm_medium=affiliate&utm_campaign=1131&utm_content=467373", "provider": {"name": "seamless", "icon": {"prefix": "https://fastly.4sqi.net/img/general/cap/", "sizes": [40, 50], "name": "/delivery_provider_seamless_20180129.png"}}}, "photos": {"count": 0, "groups": []}}, "referralId": "e-0-4cdde0f1df986ea8f960d816-11"}, {"reasons": {"count": 0, "items": [{"summary": "This spot is popular", "type": "general", "reasonName": "globalInteractionReason"}]}, "venue": {"id": "52e47a4d498e082e423571d0", "name": "J&T Grocery Deli", "location": {"lat": 40.66364996165641, "lng": -73.93767349832291, "labeledLatLngs": [{"label": "display", "lat": 40.66364996165641, "lng": -73.93767349832291}], "distance": 303, "cc": "US", "city": "Brooklyn", "state": "NY", "country": "United States", "formattedAddress": ["Brooklyn, NY", "United States"]}, "categories": [{"id": "4bf58dd8d48988d146941735", "name": "Deli / Bodega", "pluralName": "Delis / Bodegas", "shortName": "Deli / Bodega", "icon": {"prefix": "https://ss3.4sqi.net/img/categories_v2/food/deli_", "suffix": ".png"}, "primary": true}], "photos": {"count": 0, "groups": []}}, "referralId": "e-0-52e47a4d498e082e423571d0-12"}, {"reasons": {"count": 0, "items": [{"summary": "This spot is popular", "type": "general", "reasonName": "globalInteractionReason"}]}, "venue": {"id": "4e505582d4c0b6da5d8c138a", "name": "Raffy's Super Deli & Grocery", "location": {"lat": 40.66284883187481, "lng": -73.93444651259307, "labeledLatLngs": [{"label": "display", "lat": 40.66284883187481, "lng": -73.93444651259307}], "distance": 313, "cc": "US", "state": "New York", "country": "United States", "formattedAddress": ["New York", "United States"]}, "categories": [{"id": "4d954b0ea243a5684a65b473", "name": "Convenience Store", "pluralName": "Convenience Stores", "shortName": "Convenience Store", "icon": {"prefix": "https://ss3.4sqi.net/img/categories_v2/shops/conveniencestore_", "suffix": ".png"}, "primary": true}], "photos": {"count": 0, "groups": []}}, "referralId": "e-0-4e505582d4c0b6da5d8c138a-13"}, {"reasons": {"count": 0, "items": [{"summary": "This spot is popular", "type": "general", "reasonName": "globalInteractionReason"}]}, "venue": {"id": "4e076986b61c60b045450a6f", "name": "Lefferts Park", "location": {"lat": 40.663131770658175, "lng": -73.93987703465844, "labeledLatLngs": [{"label": "display", "lat": 40.663131770658175, "lng": -73.93987703465844}], "distance": 332, "cc": "US", "state": "New York", "country": "United States", "formattedAddress": ["New York", "United States"]}, "categories": [{"id": "4bf58dd8d48988d163941735", "name": "Park", "pluralName": "Parks", "shortName": "Park", "icon": {"prefix": "https://ss3.4sqi.net/img/categories_v2/parks_outdoors/park_", "suffix": ".png"}, "primary": true}], "photos": {"count": 0, "groups": []}}, "referralId": "e-0-4e076986b61c60b045450a6f-14"}, {"reasons": {"count": 0, "items": [{"summary": "This spot is popular", "type": "general", "reasonName": "globalInteractionReason"}]}, "venue": {"id": "4c213c179a67a59355a6da87", "name": "Hamilton Metz Field", "location": {"address": "633-687 E New York Ave", "lat": 40.66283082862823, "lng": -73.94073809711472, "labeledLatLngs": [{"label": "display", "lat": 40.66283082862823, "lng": -73.94073809711472}], "distance": 365, "postalCode": "11203", "cc": "US", "city": "Brooklyn", "state": "NY", "country": "United States", "formattedAddress": ["633-687 E New York Ave", "Brooklyn, NY 11203", "United States"]}, "categories": [{"id": "4bf58dd8d48988d1e7941735", "name": "Playground", "pluralName": "Playgrounds", "shortName": "Playground", "icon": {"prefix": "https://ss3.4sqi.net/img/categories_v2/parks_outdoors/playground_", "suffix": ".png"}, "primary": true}], "photos": {"count": 0, "groups": []}}, "referralId": "e-0-4c213c179a67a59355a6da87-15"}, {"reasons": {"count": 0, "items": [{"summary": "This spot is popular", "type": "general", "reasonName": "globalInteractionReason"}]}, "venue": {"id": "4dfc1718149599f28fc9c184", "name": "Lotto Wine And Liquors", "location": {"lat": 40.66367838310174, "lng": -73.94002054533367, "labeledLatLngs": [{"label": "display", "lat": 40.66367838310174, "lng": -73.94002054533367}], "distance": 386, "cc": "US", "state": "New York", "country": "United States", "formattedAddress": ["New York", "United States"]}, "categories": [{"id": "4bf58dd8d48988d186941735", "name": "Liquor Store", "pluralName": "Liquor Stores", "shortName": "Liquor Store", "icon": {"prefix": "https://ss3.4sqi.net/img/categories_v2/shops/food_liquor_", "suffix": ".png"}, "primary": true}], "photos": {"count": 0, "groups": []}}, "referralId": "e-0-4dfc1718149599f28fc9c184-16"}]