[{"reasons": {"count": 0, "items": [{"summary": "This spot is popular", "type": "general", "reasonName": "globalInteractionReason"}]}, "venue": {"id": "57f25030cd102951e751ad35", "name": "Tennant Lawn Care", "location": {"address": "15-07 Egmont Pl", "lat": 40.612909950230936, "lng": -73.7666380405426, "labeledLatLngs": [{"label": "display", "lat": 40.612909950230936, "lng": -73.7666380405426}], "distance": 185, "postalCode": "11691", "cc": "US", "city": "Far Rockaway", "state": "NY", "country": "United States", "formattedAddress": ["15-07 Egmont Pl", "Far Rockaway, NY 11691", "United States"]}, "categories": [{"id": "5454144b498ec1f095bff2f2", "name": "Construction & Landscaping", "pluralName": "Construction & Landscaping", "shortName": "Construction", "icon": {"prefix": "https://ss3.4sqi.net/img/categories_v2/shops/realestate_", "suffix": ".png"}, "primary": true}], "photos": {"count": 0, "groups": []}}, "referralId": "e-0-57f25030cd102951e751ad35-0"}, {"reasons": {"count": 0, "items": [{"summary": "This spot is popular", "type": "general", "reasonName": "globalInteractionReason"}]}, "venue": {"id": "4dcdba448877851243e6347f", "name": "Westbourne Playground", "location": {"address": "27-1-27-99 Mott Ave.", "lat": 40.60844517667005, "lng": -73.76448006599405, "labeledLatLngs": [{"label": "display", "lat": 40.60844517667005, "lng": -73.76448006599405}], "distance": 344, "postalCode": "11691", "cc": "US", "city": "Far Rockaway", "state": "NY", "country": "United States", "formattedAddress": ["27-1-27-99 Mott Ave.", "Far Rockaway, NY 11691", "United States"]}, "categories": [{"id": "4bf58dd8d48988d1e7941735", "name": "Playground", "pluralName": "Playgrounds", "shortName": "Playground", "icon": {"prefix": "https://ss3.4sqi.net/img/categories_v2/parks_outdoors/playground_", "suffix": ".png"}, "primary": true}], "photos": {"count": 0, "groups": []}}, "referralId": "e-0-4dcdba448877851243e6347f-1"}, {"reasons": {"count": 0, "items": [{"summary": "This spot is popular", "type": "general", "reasonName": "globalInteractionReason"}]}, "venue": {"id": "4be1d8e8ae55a59340bf5b62", "name": "Inwood Park", "location": {"address": "600 Bayview Ave", "lat": 40.61423608778844, "lng": -73.76147512381246, "labeledLatLngs": [{"label": "display", "lat": 40.61423608778844, "lng": -73.76147512381246}], "distance": 499, "postalCode": "11096", "cc": "US", "city": "Inwood", "state": "NY", "country": "United States", "formattedAddress": ["600 Bayview Ave", "Inwood, NY 11096", "United States"]}, "categories": [{"id": "4bf58dd8d48988d163941735", "name": "Park", "pluralName": "Parks", "shortName": "Park", "icon": {"prefix": "https://ss3.4sqi.net/img/categories_v2/parks_outdoors/park_", "suffix": ".png"}, "primary": true}], "photos": {"count": 0, "groups": []}}, "referralId": "e-0-4be1d8e8ae55a59340bf5b62-2"}]