[{"reasons": {"count": 0, "items": [{"summary": "This spot is popular", "type": "general", "reasonName": "globalInteractionReason"}]}, "venue": {"id": "4fbb59c9e4b009d97df47e5a", "name": "Rockaway Beach - 102nd St", "location": {"address": "at Beach 102nd St", "lat": 40.58285852091539, "lng": -73.82224889537461, "labeledLatLngs": [{"label": "display", "lat": 40.58285852091539, "lng": -73.82224889537461}], "distance": 11, "postalCode": "11694", "cc": "US", "city": "Rockaway Park", "state": "NY", "country": "United States", "formattedAddress": ["at Beach 102nd St", "Rockaway Park, NY 11694", "United States"]}, "categories": [{"id": "4bf58dd8d48988d1e2941735", "name": "Beach", "pluralName": "Beaches", "shortName": "Beach", "icon": {"prefix": "https://ss3.4sqi.net/img/categories_v2/parks_outdoors/beach_", "suffix": ".png"}, "primary": true}], "photos": {"count": 0, "groups": []}}, "referralId": "e-0-4fbb59c9e4b009d97df47e5a-0"}, {"reasons": {"count": 0, "items": [{"summary": "This spot is popular", "type": "general", "reasonName": "globalInteractionReason"}]}, "venue": {"id": "53a23002498efad82483ebc2", "name": "Whit's End Pizza Parlour", "location": {"address": "97-14 Rockaway Beach Blvd", "lat": 40.584729444253185, "lng": -73.81932529304476, "labeledLatLngs": [{"label": "display", "lat": 40.584729444253185, "lng": -73.81932529304476}], "distance": 334, "postalCode": "11693", "cc": "US", "city": "Queens", "state": "NY", "country": "United States", "formattedAddress": ["97-14 Rockaway Beach Blvd", "Queens, NY 11693", "United States"]}, "categories": [{"id": "4bf58dd8d48988d1ca941735", "name": "Pizza Place", "pluralName": "Pizza Places", "shortName": "Pizza", "icon": {"prefix": "https://ss3.4sqi.net/img/categories_v2/food/pizza_", "suffix": ".png"}, "primary": true}], "photos": {"count": 0, "groups": []}}, "referralId": "e-0-53a23002498efad82483ebc2-1"}, {"reasons": {"count": 0, "items": [{"summary": "This spot is popular", "type": "general", "reasonName": "globalInteractionReason"}]}, "venue": {"id": "4e18a639483b5cfa49cce210", "name": "Rockaway Beach - 106th Street", "location": {"address": "Beach 106th street", "crossStreet": "Shorefront", "lat": 40.580437991635314, "lng": -73.82559299468994, "labeledLatLngs": [{"label": "display", "lat": 40.580437991635314, "lng": -73.82559299468994}], "distance": 379, "postalCode": "11694", "cc": "US", "city": "Queens", "state": "NY", "country": "United States", "formattedAddress": ["Beach 106th street (Shorefront)", "Queens, NY 11694", "United States"]}, "categories": [{"id": "4bf58dd8d48988d1e2941735", "name": "Beach", "pluralName": "Beaches", "shortName": "Beach", "icon": {"prefix": "https://ss3.4sqi.net/img/categories_v2/parks_outdoors/beach_", "suffix": ".png"}, "primary": true}], "photos": {"count": 0, "groups": []}}, "referralId": "e-0-4e18a639483b5cfa49cce210-2"}, {"reasons": {"count": 0, "items": [{"summary": "This spot is popular", "type": "general", "reasonName": "globalInteractionReason"}]}, "venue": {"id": "4de2933d45dd180ae549d46b", "name": "Caracas Arepa Bar (Rockaway Beach Concession)", "location": {"address": "Shore Front Pkwy", "crossStreet": "Beach 106th Street", "lat": 40.580586197322, "lng": -73.82592240626926, "labeledLatLngs": [{"label": "display", "lat": 40.580586197322, "lng": -73.82592240626926}], "distance": 389, "postalCode": "11694", "cc": "US", "city": "Queens", "state": "NY", "country": "United States", "formattedAddress": ["Shore Front Pkwy (Beach 106th Street)", "Queens, NY 11694", "United States"]}, "categories": [{"id": "4bf58dd8d48988d152941735", "name": "Arepa Restaurant", "pluralName": "Arepa Restaurants", "shortName": "Arepas", "icon": {"prefix": "https://ss3.4sqi.net/img/categories_v2/food/arepas_", "suffix": ".png"}, "primary": true}], "photos": {"count": 0, "groups": []}}, "referralId": "e-0-4de2933d45dd180ae549d46b-3"}, {"reasons": {"count": 0, "items": [{"summary": "This spot is popular", "type": "general", "reasonName": "globalInteractionReason"}]}, "venue": {"id": "4e0759868877394591e578e6", "name": "Rockaway Beach - 98th Street", "location": {"address": "Beach 98th St.", "crossStreet": "Shorefront", "lat": 40.58284008733322, "lng": -73.81775842429884, "labeledLatLngs": [{"label": "display", "lat": 40.58284008733322, "lng": -73.81775842429884}], "distance": 389, "postalCode": "11694", "cc": "US", "city": "Far Rockaway", "state": "NY", "country": "United States", "formattedAddress": ["Beach 98th St. (Shorefront)", "Far Rockaway, NY 11694", "United States"]}, "categories": [{"id": "4bf58dd8d48988d1e2941735", "name": "Beach", "pluralName": "Beaches", "shortName": "Beach", "icon": {"prefix": "https://ss3.4sqi.net/img/categories_v2/parks_outdoors/beach_", "suffix": ".png"}, "primary": true}], "photos": {"count": 0, "groups": []}}, "referralId": "e-0-4e0759868877394591e578e6-4"}, {"reasons": {"count": 0, "items": [{"summary": "This spot is popular", "type": "general", "reasonName": "globalInteractionReason"}]}, "venue": {"id": "4ba61a26f964a520b13339e3", "name": "Brisas Del Mar", "location": {"address": "9902 Rockaway Beach Blvd", "lat": 40.584298, "lng": -73.82060600000001, "labeledLatLngs": [{"label": "display", "lat": 40.584298, "lng": -73.82060600000001}, {"label": "entrance", "lat": 40.584244, "lng": -73.820501}], "distance": 223, "postalCode": "11694", "cc": "US", "city": "Rockaway Park", "state": "NY", "country": "United States", "formattedAddress": ["9902 Rockaway Beach Blvd", "Rockaway Park, NY 11694", "United States"]}, "categories": [{"id": "4bf58dd8d48988d150941735", "name": "Spanish Restaurant", "pluralName": "Spanish Restaurants", "shortName": "Spanish", "icon": {"prefix": "https://ss3.4sqi.net/img/categories_v2/food/spanish_", "suffix": ".png"}, "primary": true}], "photos": {"count": 0, "groups": []}}, "referralId": "e-0-4ba61a26f964a520b13339e3-5"}, {"reasons": {"count": 0, "items": [{"summary": "This spot is popular", "type": "general", "reasonName": "globalInteractionReason"}]}, "venue": {"id": "4c199e98d4d9c928d15af129", "name": "Rockaway Boardwalk", "location": {"address": "Beach 98th St", "lat": 40.58429660568228, "lng": -73.81760204364338, "labeledLatLngs": [{"label": "display", "lat": 40.58429660568228, "lng": -73.81760204364338}], "distance": 435, "postalCode": "11694", "cc": "US", "city": "Rockaway Park", "state": "NY", "country": "United States", "formattedAddress": ["Beach 98th St", "Rockaway Park, NY 11694", "United States"]}, "categories": [{"id": "4bf58dd8d48988d1e2941735", "name": "Beach", "pluralName": "Beaches", "shortName": "Beach", "icon": {"prefix": "https://ss3.4sqi.net/img/categories_v2/parks_outdoors/beach_", "suffix": ".png"}, "primary": true}], "photos": {"count": 0, "groups": []}}, "referralId": "e-0-4c199e98d4d9c928d15af129-6"}, {"reasons": {"count": 0, "items": [{"summary": "This spot is popular", "type": "general", "reasonName": "globalInteractionReason"}]}, "venue": {"id": "4a4f9024f964a52070af1fe3", "name": "Rockaway Beach", "location": {"lat": 40.58316008389634, "lng": -73.81672320776411, "labeledLatLngs": [{"label": "display", "lat": 40.58316008389634, "lng": -73.81672320776411}], "distance": 478, "postalCode": "11693", "cc": "US", "city": "Queens", "state": "NY", "country": "United States", "formattedAddress": ["Rockaway Beach, NY 11693", "United States"]}, "categories": [{"id": "4bf58dd8d48988d1e2941735", "name": "Beach", "pluralName": "Beaches", "shortName": "Beach", "icon": {"prefix": "https://ss3.4sqi.net/img/categories_v2/parks_outdoors/beach_", "suffix": ".png"}, "primary": true}], "photos": {"count": 0, "groups": []}}, "referralId": "e-0-4a4f9024f964a52070af1fe3-7"}, {"reasons": {"count": 0, "items": [{"summary": "This spot is popular", "type": "general", "reasonName": "globalInteractionReason"}]}, "venue": {"id": "4b9e635af964a5203adf36e3", "name": "101 Deli", "location": {"address": "10016 Rockaway Beach Blvd", "crossStreet": "btwn Beach 101 & 100 St", "lat": 40.58369362759355, "lng": -73.8216273730028, "labeledLatLngs": [{"label": "display", "lat": 40.58369362759355, "lng": -73.8216273730028}, {"label": "entrance", "lat": 40.583718, "lng": -73.821573}], "distance": 117, "postalCode": "11694", "cc": "US", "city": "Rockaway Park", "state": "NY", "country": "United States", "formattedAddress": ["10016 Rockaway Beach Blvd (btwn Beach 101 & 100 St)", "Rockaway Park, NY 11694", "United States"]}, "categories": [{"id": "4bf58dd8d48988d146941735", "name": "Deli / Bodega", "pluralName": "Delis / Bodegas", "shortName": "Deli / Bodega", "icon": {"prefix": "https://ss3.4sqi.net/img/categories_v2/food/deli_", "suffix": ".png"}, "primary": true}], "photos": {"count": 0, "groups": []}}, "referralId": "e-0-4b9e635af964a5203adf36e3-8"}, {"reasons": {"count": 0, "items": [{"summary": "This spot is popular", "type": "general", "reasonName": "globalInteractionReason"}]}, "venue": {"id": "4fc12759e4b089f18bebf3e2", "name": "La Fruteria", "location": {"address": "Rockaway Boardwalk", "crossStreet": "Beach 97th St", "lat": 40.58281315661051, "lng": -73.81748423610179, "labeledLatLngs": [{"label": "display", "lat": 40.58281315661051, "lng": -73.81748423610179}], "distance": 412, "postalCode": "11693", "cc": "US", "city": "Queens", "state": "NY", "country": "United States", "formattedAddress": ["Rockaway Boardwalk (Beach 97th St)", "Rockaway Beach, NY 11693", "United States"]}, "categories": [{"id": "4bf58dd8d48988d112941735", "name": "Juice Bar", "pluralName": "Juice Bars", "shortName": "Juice Bar", "icon": {"prefix": "https://ss3.4sqi.net/img/categories_v2/food/juicebar_", "suffix": ".png"}, "primary": true}], "photos": {"count": 0, "groups": []}}, "referralId": "e-0-4fc12759e4b089f18bebf3e2-9"}, {"reasons": {"count": 0, "items": [{"summary": "This spot is popular", "type": "general", "reasonName": "globalInteractionReason"}]}, "venue": {"id": "4e0f84ddd22d8582bdc9b94b", "name": "Low Tide Bar", "location": {"address": "Shore Front Pkwy", "crossStreet": "Beach 97th St", "lat": 40.5828175151055, "lng": -73.8177659537001, "labeledLatLngs": [{"label": "display", "lat": 40.5828175151055, "lng": -73.8177659537001}], "distance": 388, "postalCode": "11693", "cc": "US", "city": "Queens", "state": "NY", "country": "United States", "formattedAddress": ["Shore Front Pkwy (Beach 97th St)", "Queens, NY 11693", "United States"]}, "categories": [{"id": "4bf58dd8d48988d116941735", "name": "Bar", "pluralName": "Bars", "shortName": "Bar", "icon": {"prefix": "https://ss3.4sqi.net/img/categories_v2/nightlife/pub_", "suffix": ".png"}, "primary": true}], "photos": {"count": 0, "groups": []}}, "referralId": "e-0-4e0f84ddd22d8582bdc9b94b-10"}, {"reasons": {"count": 0, "items": [{"summary": "This spot is popular", "type": "general", "reasonName": "globalInteractionReason"}]}, "venue": {"id": "4de7ae4f2271b9ccf4e2a111", "name": "Rockaway Beach - 97th Street", "location": {"lat": 40.582724, "lng": -73.81736, "labeledLatLngs": [{"label": "display", "lat": 40.582724, "lng": -73.81736}], "distance": 422, "postalCode": "11694", "cc": "US", "city": "Far Rockaway", "state": "NY", "country": "United States", "formattedAddress": ["Far Rockaway, NY 11694", "United States"]}, "categories": [{"id": "4bf58dd8d48988d1e2941735", "name": "Beach", "pluralName": "Beaches", "shortName": "Beach", "icon": {"prefix": "https://ss3.4sqi.net/img/categories_v2/parks_outdoors/beach_", "suffix": ".png"}, "primary": true}], "photos": {"count": 0, "groups": []}}, "referralId": "e-0-4de7ae4f2271b9ccf4e2a111-11"}, {"reasons": {"count": 0, "items": [{"summary": "This spot is popular", "type": "general", "reasonName": "globalInteractionReason"}]}, "venue": {"id": "4c30d276213c2d7ff50a335d", "name": "DiCosmo's Italian Ices", "location": {"address": "95-19 Rockaway Beach Blvd", "crossStreet": "Rockaway Park Blvd", "lat": 40.58520475009212, "lng": -73.81796195355713, "labeledLatLngs": [{"label": "display", "lat": 40.58520475009212, "lng": -73.81796195355713}], "distance": 458, "postalCode": "11693", "cc": "US", "city": "Queens", "state": "NY", "country": "United States", "formattedAddress": ["95-19 Rockaway Beach Blvd (Rockaway Park Blvd)", "Rockaway Beach, NY 11693", "United States"]}, "categories": [{"id": "4bf58dd8d48988d1c9941735", "name": "Ice Cream Shop", "pluralName": "Ice Cream Shops", "shortName": "Ice Cream", "icon": {"prefix": "https://ss3.4sqi.net/img/categories_v2/food/icecream_", "suffix": ".png"}, "primary": true}], "photos": {"count": 0, "groups": []}}, "referralId": "e-0-4c30d276213c2d7ff50a335d-12"}, {"reasons": {"count": 0, "items": [{"summary": "This spot is popular", "type": "general", "reasonName": "globalInteractionReason"}]}, "venue": {"id": "591f8ce15d0fea5ae1ab1162", "name": "Super Burrito", "location": {"lat": 40.582926, "lng": -73.817741, "labeledLatLngs": [{"label": "display", "lat": 40.582926, "lng": -73.817741}], "distance": 390, "postalCode": "11693", "cc": "US", "city": "New York", "state": "NY", "country": "United States", "formattedAddress": ["New York, NY 11693", "United States"]}, "categories": [{"id": "4bf58dd8d48988d153941735", "name": "Burrito Place", "pluralName": "Burrito Places", "shortName": "Burritos", "icon": {"prefix": "https://ss3.4sqi.net/img/categories_v2/food/burrito_", "suffix": ".png"}, "primary": true}], "photos": {"count": 0, "groups": []}}, "referralId": "e-0-591f8ce15d0fea5ae1ab1162-13"}, {"reasons": {"count": 0, "items": [{"summary": "This spot is popular", "type": "general", "reasonName": "globalInteractionReason"}]}, "venue": {"id": "53d7fdbc498e66e64ee8c2e6", "name": "La Cevicheria", "location": {"address": "Concession at Beach 97th St/ Rockaway Beach", "crossStreet": "Beach 97th Street", "lat": 40.58285126419577, "lng": -73.81772173005663, "labeledLatLngs": [{"label": "display", "lat": 40.58285126419577, "lng": -73.81772173005663}], "distance": 392, "postalCode": "11693", "cc": "US", "city": "Queens", "state": "NY", "country": "United States", "formattedAddress": ["Concession at Beach 97th St/ Rockaway Beach (Beach 97th Street)", "Queens, NY 11693", "United States"]}, "categories": [{"id": "52e81612bcbc57f1066b7a0d", "name": "Beach Bar", "pluralName": "Beach Bars", "shortName": "Beach Bar", "icon": {"prefix": "https://ss3.4sqi.net/img/categories_v2/nightlife/default_", "suffix": ".png"}, "primary": true}], "photos": {"count": 0, "groups": []}}, "referralId": "e-0-53d7fdbc498e66e64ee8c2e6-14"}, {"reasons": {"count": 0, "items": [{"summary": "This spot is popular", "type": "general", "reasonName": "globalInteractionReason"}]}, "venue": {"id": "4dfcff197d8b30508016cf55", "name": "Popeyes Louisiana Kitchen", "location": {"address": "85-15 Rockaway Beach Blvd", "lat": 40.58445369772233, "lng": -73.8209737503724, "labeledLatLngs": [{"label": "display", "lat": 40.58445369772233, "lng": -73.8209737503724}], "distance": 218, "postalCode": "11693", "cc": "US", "city": "Queens", "state": "NY", "country": "United States", "formattedAddress": ["85-15 Rockaway Beach Blvd", "Rockaway Beach, NY 11693", "United States"]}, "categories": [{"id": "4d4ae6fc7a7b7dea34424761", "name": "Fried Chicken Joint", "pluralName": "Fried Chicken Joints", "shortName": "Fried Chicken", "icon": {"prefix": "https://ss3.4sqi.net/img/categories_v2/food/friedchicken_", "suffix": ".png"}, "primary": true}], "photos": {"count": 0, "groups": []}}, "referralId": "e-0-4dfcff197d8b30508016cf55-15"}, {"reasons": {"count": 0, "items": [{"summary": "This spot is popular", "type": "general", "reasonName": "globalInteractionReason"}]}, "venue": {"id": "55ce8cc8498e5feccf47e689", "name": "Community House", "location": {"address": "101-19 Rockaway Beach", "lat": 40.583171324719736, "lng": -73.82210991936336, "labeledLatLngs": [{"label": "display", "lat": 40.583171324719736, "lng": -73.82210991936336}], "distance": 46, "postalCode": "11694", "cc": "US", "city": "Queens", "state": "NY", "country": "United States", "formattedAddress": ["101-19 Rockaway Beach", "Rockaway Beach, NY 11694", "United States"]}, "categories": [{"id": "4bf58dd8d48988d157941735", "name": "New American Restaurant", "pluralName": "New American Restaurants", "shortName": "New American", "icon": {"prefix": "https://ss3.4sqi.net/img/categories_v2/food/newamerican_", "suffix": ".png"}, "primary": true}], "photos": {"count": 0, "groups": []}}, "referralId": "e-0-55ce8cc8498e5feccf47e689-16"}, {"reasons": {"count": 0, "items": [{"summary": "This spot is popular", "type": "general", "reasonName": "globalInteractionReason"}]}, "venue": {"id": "4b5b8fe3f964a520530729e3", "name": "Surfside Bagels", "location": {"address": "95-11 Rockaway Beach Blvd", "crossStreet": "95th Street", "lat": 40.585487814937984, "lng": -73.8177239073508, "labeledLatLngs": [{"label": "display", "lat": 40.585487814937984, "lng": -73.8177239073508}], "distance": 493, "postalCode": "11693", "cc": "US", "city": "Queens", "state": "NY", "country": "United States", "formattedAddress": ["95-11 Rockaway Beach Blvd (95th Street)", "Rockaway Beach, NY 11693", "United States"]}, "categories": [{"id": "4bf58dd8d48988d179941735", "name": "Bagel Shop", "pluralName": "Bagel Shops", "shortName": "Bagels", "icon": {"prefix": "https://ss3.4sqi.net/img/categories_v2/food/bagels_", "suffix": ".png"}, "primary": true}], "photos": {"count": 0, "groups": []}, "venuePage": {"id": "47900081"}}, "referralId": "e-0-4b5b8fe3f964a520530729e3-17"}, {"reasons": {"count": 0, "items": [{"summary": "This spot is popular", "type": "general", "reasonName": "globalInteractionReason"}]}, "venue": {"id": "4de293e452b1d38d2971a2f6", "name": "Motorboat & The Big Banana", "location": {"address": "155 Beach 97th St", "lat": 40.58292567524406, "lng": -73.81775213330162, "labeledLatLngs": [{"label": "display", "lat": 40.58292567524406, "lng": -73.81775213330162}], "distance": 389, "postalCode": "11693", "cc": "US", "city": "Queens", "state": "NY", "country": "United States", "formattedAddress": ["155 Beach 97th St", "Rockaway Beach, NY 11693", "United States"]}, "categories": [{"id": "4bf58dd8d48988d16e941735", "name": "Fast Food Restaurant", "pluralName": "Fast Food Restaurants", "shortName": "Fast Food", "icon": {"prefix": "https://ss3.4sqi.net/img/categories_v2/food/fastfood_", "suffix": ".png"}, "primary": true}], "photos": {"count": 0, "groups": []}}, "referralId": "e-0-4de293e452b1d38d2971a2f6-18"}, {"reasons": {"count": 0, "items": [{"summary": "This spot is popular", "type": "general", "reasonName": "globalInteractionReason"}]}, "venue": {"id": "5777fc88498ec5cc1755d079", "name": "Uma's", "location": {"lat": 40.582863, "lng": -73.817733, "labeledLatLngs": [{"label": "display", "lat": 40.582863, "lng": -73.817733}], "distance": 391, "cc": "US", "city": "Queens", "state": "NY", "country": "United States", "formattedAddress": ["Queens, NY", "United States"]}, "categories": [{"id": "4bf58dd8d48988d109941735", "name": "Eastern European Restaurant", "pluralName": "Eastern European Restaurants", "shortName": "Eastern European", "icon": {"prefix": "https://ss3.4sqi.net/img/categories_v2/food/default_", "suffix": ".png"}, "primary": true}], "photos": {"count": 0, "groups": []}}, "referralId": "e-0-5777fc88498ec5cc1755d079-19"}, {"reasons": {"count": 0, "items": [{"summary": "This spot is popular", "type": "general", "reasonName": "globalInteractionReason"}]}, "venue": {"id": "5554b037498e2fc87369fe8a", "name": "The Summer Shift by The MP Shift", "location": {"address": "95-19 Rockaway Beach Blvd", "crossStreet": "Beach 96th Street", "lat": 40.58515191501283, "lng": -73.81790073207473, "labeledLatLngs": [{"label": "display", "lat": 40.58515191501283, "lng": -73.81790073207473}], "distance": 458, "postalCode": "11693", "cc": "US", "city": "Queens", "state": "NY", "country": "United States", "formattedAddress": ["95-19 Rockaway Beach Blvd (Beach 96th Street)", "Rockaway Beach, NY 11693", "United States"]}, "categories": [{"id": "4bf58dd8d48988d16b941735", "name": "Brazilian Restaurant", "pluralName": "Brazilian Restaurants", "shortName": "Brazilian", "icon": {"prefix": "https://ss3.4sqi.net/img/categories_v2/food/argentinian_", "suffix": ".png"}, "primary": true}], "photos": {"count": 0, "groups": []}, "venuePage": {"id": "128652029"}}, "referralId": "e-0-5554b037498e2fc87369fe8a-20"}, {"reasons": {"count": 0, "items": [{"summary": "This spot is popular", "type": "general", "reasonName": "globalInteractionReason"}]}, "venue": {"id": "4c03dac2310fc9b6a669c661", "name": "Island Veggie", "location": {"address": "95-19 Rockaway Beach Blvd", "crossStreet": "btwn Beach 96th St & Cross Bay Pkwy", "lat": 40.58525728727298, "lng": -73.81794678255227, "labeledLatLngs": [{"label": "display", "lat": 40.58525728727298, "lng": -73.81794678255227}], "distance": 462, "postalCode": "11693", "cc": "US", "city": "Queens", "state": "NY", "country": "United States", "formattedAddress": ["95-19 Rockaway Beach Blvd (btwn Beach 96th St & Cross Bay Pkwy)", "Rockaway Beach, NY 11693", "United States"]}, "categories": [{"id": "4bf58dd8d48988d1d3941735", "name": "Vegetarian / Vegan Restaurant", "pluralName": "Vegetarian / Vegan Restaurants", "shortName": "Vegetarian / Vegan", "icon": {"prefix": "https://ss3.4sqi.net/img/categories_v2/food/vegetarian_", "suffix": ".png"}, "primary": true}], "photos": {"count": 0, "groups": []}}, "referralId": "e-0-4c03dac2310fc9b6a669c661-21"}, {"reasons": {"count": 0, "items": [{"summary": "This spot is popular", "type": "general", "reasonName": "globalInteractionReason"}]}, "venue": {"id": "4c796c032dc195216b13a677", "name": "Key Food", "location": {"address": "10538 Rockaway Beach Blvd", "lat": 40.582918, "lng": -73.827451, "labeledLatLngs": [{"label": "display", "lat": 40.582918, "lng": -73.827451}, {"label": "entrance", "lat": 40.582709, "lng": -73.827611}], "distance": 430, "postalCode": "11694", "cc": "US", "city": "Rockaway Park", "state": "NY", "country": "United States", "formattedAddress": ["10538 Rockaway Beach Blvd", "Rockaway Park, NY 11694", "United States"]}, "categories": [{"id": "52f2ab2ebcbc57f1066b8b46", "name": "Supermarket", "pluralName": "Supermarkets", "shortName": "Supermarket", "icon": {"prefix": "https://ss3.4sqi.net/img/categories_v2/shops/food_grocery_", "suffix": ".png"}, "primary": true}], "photos": {"count": 0, "groups": []}}, "referralId": "e-0-4c796c032dc195216b13a677-22"}, {"reasons": {"count": 0, "items": [{"summary": "This spot is popular", "type": "general", "reasonName": "globalInteractionReason"}]}, "venue": {"id": "5cb334efa4b51b002c4e0ccb", "name": "Sorrentino\u2019s Market", "location": {"address": "99-20 Rockaway Beach Blvd", "lat": 40.58406, "lng": -73.820991, "labeledLatLngs": [{"label": "display", "lat": 40.58406, "lng": -73.820991}], "distance": 181, "postalCode": "11694", "cc": "US", "city": "Rockaway Park", "state": "NY", "country": "United States", "formattedAddress": ["99-20 Rockaway Beach Blvd", "Rockaway Park, NY 11694", "United States"]}, "categories": [{"id": "4bf58dd8d48988d11d951735", "name": "Butcher", "pluralName": "Butchers", "shortName": "Butcher", "icon": {"prefix": "https://ss3.4sqi.net/img/categories_v2/shops/food_butcher_", "suffix": ".png"}, "primary": true}], "photos": {"count": 0, "groups": []}}, "referralId": "e-0-5cb334efa4b51b002c4e0ccb-23"}, {"reasons": {"count": 0, "items": [{"summary": "This spot is popular", "type": "general", "reasonName": "globalInteractionReason"}]}, "venue": {"id": "4fb9364fe4b0698549f48a3f", "name": "Lobster Joint", "location": {"lat": 40.58288962341879, "lng": -73.81764833713036, "labeledLatLngs": [{"label": "display", "lat": 40.58288962341879, "lng": -73.81764833713036}], "distance": 398, "postalCode": "11693", "cc": "US", "city": "Far Rockaway", "state": "NY", "country": "United States", "formattedAddress": ["Far Rockaway, NY 11693", "United States"]}, "categories": [{"id": "4bf58dd8d48988d1ce941735", "name": "Seafood Restaurant", "pluralName": "Seafood Restaurants", "shortName": "Seafood", "icon": {"prefix": "https://ss3.4sqi.net/img/categories_v2/food/seafood_", "suffix": ".png"}, "primary": true}], "photos": {"count": 0, "groups": []}}, "referralId": "e-0-4fb9364fe4b0698549f48a3f-24"}, {"reasons": {"count": 0, "items": [{"summary": "This spot is popular", "type": "general", "reasonName": "globalInteractionReason"}]}, "venue": {"id": "4fdef5ece4b0f8bdf4e28de4", "name": "MTA Bus - Q53", "location": {"address": "Beach 102nd St. And Rockaway Beach Blvd.", "lat": 40.58298160958518, "lng": -73.82489680539098, "labeledLatLngs": [{"label": "display", "lat": 40.58298160958518, "lng": -73.82489680539098}], "distance": 215, "postalCode": "11694", "cc": "US", "city": "Rockaway Park", "state": "NY", "country": "United States", "formattedAddress": ["Beach 102nd St. And Rockaway Beach Blvd.", "Rockaway Park, NY 11694", "United States"]}, "categories": [{"id": "4bf58dd8d48988d1fe931735", "name": "Bus Station", "pluralName": "Bus Stations", "shortName": "Bus Station", "icon": {"prefix": "https://ss3.4sqi.net/img/categories_v2/travel/busstation_", "suffix": ".png"}, "primary": true}], "photos": {"count": 0, "groups": []}}, "referralId": "e-0-4fdef5ece4b0f8bdf4e28de4-25"}, {"reasons": {"count": 0, "items": [{"summary": "This spot is popular", "type": "general", "reasonName": "globalInteractionReason"}]}, "venue": {"id": "59b74e99f62f2b39fdf8668c", "name": "Burn Fitness", "location": {"address": "103-32 Rockaway Beach Blvd", "crossStreet": "Beach 103", "lat": 40.58360739110101, "lng": -73.82515645634973, "labeledLatLngs": [{"label": "display", "lat": 40.58360739110101, "lng": -73.82515645634973}], "distance": 252, "postalCode": "11694", "cc": "US", "neighborhood": "Seaside", "city": "Rockaway Park", "state": "NY", "country": "United States", "formattedAddress": ["103-32 Rockaway Beach Blvd (Beach 103)", "Rockaway Park, NY 11694", "United States"]}, "categories": [{"id": "4bf58dd8d48988d175941735", "name": "Gym / Fitness Center", "pluralName": "Gyms or Fitness Centers", "shortName": "Gym / Fitness", "icon": {"prefix": "https://ss3.4sqi.net/img/categories_v2/building/gym_", "suffix": ".png"}, "primary": true}], "photos": {"count": 0, "groups": []}}, "referralId": "e-0-59b74e99f62f2b39fdf8668c-26"}, {"reasons": {"count": 0, "items": [{"summary": "This spot is popular", "type": "general", "reasonName": "globalInteractionReason"}]}, "venue": {"id": "5b3bc66eccad6b002c983518", "name": "RBQ Rockaway Beach BBQ", "location": {"lat": 40.584755, "lng": -73.819514, "labeledLatLngs": [{"label": "display", "lat": 40.584755, "lng": -73.819514}], "distance": 324, "postalCode": "11693", "cc": "US", "city": "New York", "state": "NY", "country": "United States", "formattedAddress": ["New York, NY 11693", "United States"]}, "categories": [{"id": "4bf58dd8d48988d1df931735", "name": "BBQ Joint", "pluralName": "BBQ Joints", "shortName": "BBQ", "icon": {"prefix": "https://ss3.4sqi.net/img/categories_v2/food/bbqalt_", "suffix": ".png"}, "primary": true}], "delivery": {"id": "1115381", "url": "https://www.seamless.com/menu/rbq-97-20-rockaway-beach-blvd-rockaway-beach/1115381?affiliate=1131&utm_source=foursquare-affiliate-network&utm_medium=affiliate&utm_campaign=1131&utm_content=1115381", "provider": {"name": "seamless", "icon": {"prefix": "https://fastly.4sqi.net/img/general/cap/", "sizes": [40, 50], "name": "/delivery_provider_seamless_20180129.png"}}}, "photos": {"count": 0, "groups": []}}, "referralId": "e-0-5b3bc66eccad6b002c983518-27"}, {"reasons": {"count": 0, "items": [{"summary": "This spot is popular", "type": "general", "reasonName": "globalInteractionReason"}]}, "venue": {"id": "4f66948be4b0bca464372d10", "name": "Rockaway Freeway", "location": {"lat": 40.58472360904708, "lng": -73.81961818182006, "labeledLatLngs": [{"label": "display", "lat": 40.58472360904708, "lng": -73.81961818182006}], "distance": 315, "cc": "US", "state": "New York", "country": "United States", "formattedAddress": ["New York", "United States"]}, "categories": [{"id": "4f2a23984b9023bd5841ed2c", "name": "Moving Target", "pluralName": "Moving Targets", "shortName": "Moving Target", "icon": {"prefix": "https://ss3.4sqi.net/img/categories_v2/travel/movingtarget_", "suffix": ".png"}, "primary": true}], "photos": {"count": 0, "groups": []}}, "referralId": "e-0-4f66948be4b0bca464372d10-28"}, {"reasons": {"count": 0, "items": [{"summary": "This spot is popular", "type": "general", "reasonName": "globalInteractionReason"}]}, "venue": {"id": "4c11e228416620a100e8d9e4", "name": "MTA Subway - Beach 98th St/Playland (A/S)", "location": {"address": "Beach 98th St & Rockaway Freeway", "lat": 40.58537238930544, "lng": -73.82060906178754, "labeledLatLngs": [{"label": "display", "lat": 40.58537238930544, "lng": -73.82060906178754}], "distance": 322, "postalCode": "11693", "cc": "US", "city": "Queens", "state": "NY", "country": "United States", "formattedAddress": ["Beach 98th St & Rockaway Freeway", "Rockaway Beach, NY 11693", "United States"]}, "categories": [{"id": "4bf58dd8d48988d1fd931735", "name": "Metro Station", "pluralName": "Metro Stations", "shortName": "Metro", "icon": {"prefix": "https://ss3.4sqi.net/img/categories_v2/travel/subway_", "suffix": ".png"}, "primary": true}], "photos": {"count": 0, "groups": []}}, "referralId": "e-0-4c11e228416620a100e8d9e4-29"}, {"reasons": {"count": 0, "items": [{"summary": "This spot is popular", "type": "general", "reasonName": "globalInteractionReason"}]}, "venue": {"id": "4c321640452620a1877f210f", "name": "The Clam Bar", "location": {"address": "98th St", "crossStreet": "at Rockaway Blvd", "lat": 40.584723, "lng": -73.819513, "labeledLatLngs": [{"label": "display", "lat": 40.584723, "lng": -73.819513}], "distance": 322, "cc": "US", "city": "Rockaway", "state": "NY", "country": "United States", "formattedAddress": ["98th St (at Rockaway Blvd)", "Rockaway, NY", "United States"]}, "categories": [{"id": "4bf58dd8d48988d1ce941735", "name": "Seafood Restaurant", "pluralName": "Seafood Restaurants", "shortName": "Seafood", "icon": {"prefix": "https://ss3.4sqi.net/img/categories_v2/food/seafood_", "suffix": ".png"}, "primary": true}], "photos": {"count": 0, "groups": []}}, "referralId": "e-0-4c321640452620a1877f210f-30"}, {"reasons": {"count": 0, "items": [{"summary": "This spot is popular", "type": "general", "reasonName": "globalInteractionReason"}]}, "venue": {"id": "4d69549ede28224b0ac241be", "name": "Xing Xing", "location": {"address": "97-12 Rockaway Beach Blvd", "lat": 40.584806, "lng": -73.819429, "labeledLatLngs": [{"label": "display", "lat": 40.584806, "lng": -73.819429}, {"label": "entrance", "lat": 40.584788, "lng": -73.819345}], "distance": 333, "postalCode": "11693", "cc": "US", "city": "Queens", "state": "NY", "country": "United States", "formattedAddress": ["97-12 Rockaway Beach Blvd", "Rockaway Beach, NY 11693", "United States"]}, "categories": [{"id": "4bf58dd8d48988d145941735", "name": "Chinese Restaurant", "pluralName": "Chinese Restaurants", "shortName": "Chinese", "icon": {"prefix": "https://ss3.4sqi.net/img/categories_v2/food/asian_", "suffix": ".png"}, "primary": true}], "photos": {"count": 0, "groups": []}}, "referralId": "e-0-4d69549ede28224b0ac241be-31"}, {"reasons": {"count": 0, "items": [{"summary": "This spot is popular", "type": "general", "reasonName": "globalInteractionReason"}]}, "venue": {"id": "5b2a6e737d84970039a73505", "name": "The High Tide Hotel", "location": {"address": "9720 Rockaway Beach Blvd", "crossStreet": "Beach 98th Street", "lat": 40.5848013607483, "lng": -73.81943598389626, "labeledLatLngs": [{"label": "display", "lat": 40.5848013607483, "lng": -73.81943598389626}], "distance": 332, "postalCode": "11693", "cc": "US", "neighborhood": "Rockaway Beach, Queens, NY", "city": "Queens", "state": "NY", "country": "United States", "formattedAddress": ["9720 Rockaway Beach Blvd (Beach 98th Street)", "Rockaway Beach, NY 11693", "United States"]}, "categories": [{"id": "4bf58dd8d48988d1fa931735", "name": "Hotel", "pluralName": "Hotels", "shortName": "Hotel", "icon": {"prefix": "https://ss3.4sqi.net/img/categories_v2/travel/hotel_", "suffix": ".png"}, "primary": true}], "photos": {"count": 0, "groups": []}, "venuePage": {"id": "496497858"}}, "referralId": "e-0-5b2a6e737d84970039a73505-32"}, {"reasons": {"count": 0, "items": [{"summary": "This spot is popular", "type": "general", "reasonName": "globalInteractionReason"}]}, "venue": {"id": "5330cac2498e5c16bd79d7fa", "name": "The Other End Pizza Parlour", "location": {"address": "97-20 Rockaway Beach Blvd", "crossStreet": "betw. Beach 97th St. & Beach 98th St.", "lat": 40.58475640962332, "lng": -73.81925056841078, "labeledLatLngs": [{"label": "display", "lat": 40.58475640962332, "lng": -73.81925056841078}, {"label": "entrance", "lat": 40.584741, "lng": -73.819441}], "distance": 341, "postalCode": "11693", "cc": "US", "city": "Queens", "state": "NY", "country": "United States", "formattedAddress": ["97-20 Rockaway Beach Blvd (betw. Beach 97th St. & Beach 98th St.)", "Rockaway Beach, NY 11693", "United States"]}, "categories": [{"id": "4bf58dd8d48988d1ca941735", "name": "Pizza Place", "pluralName": "Pizza Places", "shortName": "Pizza", "icon": {"prefix": "https://ss3.4sqi.net/img/categories_v2/food/pizza_", "suffix": ".png"}, "primary": true}], "photos": {"count": 0, "groups": []}}, "referralId": "e-0-5330cac2498e5c16bd79d7fa-33"}, {"reasons": {"count": 0, "items": [{"summary": "This spot is popular", "type": "general", "reasonName": "globalInteractionReason"}]}, "venue": {"id": "4c63e51be1621b8d67f92653", "name": "Beach 98 St - Playland", "location": {"lat": 40.585231118957594, "lng": -73.81979624432003, "labeledLatLngs": [{"label": "display", "lat": 40.585231118957594, "lng": -73.81979624432003}], "distance": 346, "postalCode": "11694", "cc": "US", "city": "Rockaway Park", "state": "NY", "country": "United States", "formattedAddress": ["Rockaway Park, NY 11694", "United States"]}, "categories": [{"id": "4bf58dd8d48988d1e2941735", "name": "Beach", "pluralName": "Beaches", "shortName": "Beach", "icon": {"prefix": "https://ss3.4sqi.net/img/categories_v2/parks_outdoors/beach_", "suffix": ".png"}, "primary": true}], "photos": {"count": 0, "groups": []}}, "referralId": "e-0-4c63e51be1621b8d67f92653-34"}, {"reasons": {"count": 0, "items": [{"summary": "This spot is popular", "type": "general", "reasonName": "globalInteractionReason"}]}, "venue": {"id": "595ac833bcbf7a750fbc9831", "name": "Boarders On The Boards", "location": {"lat": 40.582592, "lng": -73.818164, "labeledLatLngs": [{"label": "display", "lat": 40.582592, "lng": -73.818164}], "distance": 355, "postalCode": "11693", "cc": "US", "city": "New York", "state": "NY", "country": "United States", "formattedAddress": ["New York, NY 11693", "United States"]}, "categories": [{"id": "4bf58dd8d48988d1f1941735", "name": "Board Shop", "pluralName": "Board Shops", "shortName": "Board Shop", "icon": {"prefix": "https://ss3.4sqi.net/img/categories_v2/parks_outdoors/surfspot_", "suffix": ".png"}, "primary": true}], "photos": {"count": 0, "groups": []}}, "referralId": "e-0-595ac833bcbf7a750fbc9831-35"}, {"reasons": {"count": 0, "items": [{"summary": "This spot is popular", "type": "general", "reasonName": "globalInteractionReason"}]}, "venue": {"id": "5d3e18d6f100500008a7e390", "name": "La Barracuda", "location": {"lat": 40.584897, "lng": -73.818867, "labeledLatLngs": [{"label": "display", "lat": 40.584897, "lng": -73.818867}], "distance": 376, "postalCode": "11693", "cc": "US", "city": "New York", "state": "NY", "country": "United States", "formattedAddress": ["New York, NY 11693", "United States"]}, "categories": [{"id": "58daa1558bbb0b01f18ec1f4", "name": "Colombian Restaurant", "pluralName": "Colombian Restaurants", "shortName": "Colombian", "icon": {"prefix": "https://ss3.4sqi.net/img/categories_v2/food/argentinian_", "suffix": ".png"}, "primary": true}], "photos": {"count": 0, "groups": []}}, "referralId": "e-0-5d3e18d6f100500008a7e390-36"}, {"reasons": {"count": 0, "items": [{"summary": "This spot is popular", "type": "general", "reasonName": "globalInteractionReason"}]}, "venue": {"id": "53ae0777498e1cdd0ea36156", "name": "Breezy's BBQ", "location": {"lat": 40.5828400381422, "lng": -73.81778956161918, "labeledLatLngs": [{"label": "display", "lat": 40.5828400381422, "lng": -73.81778956161918}], "distance": 386, "cc": "US", "city": "Queens", "state": "NY", "country": "United States", "formattedAddress": ["Queens, NY", "United States"]}, "categories": [{"id": "4bf58dd8d48988d1df931735", "name": "BBQ Joint", "pluralName": "BBQ Joints", "shortName": "BBQ", "icon": {"prefix": "https://ss3.4sqi.net/img/categories_v2/food/bbqalt_", "suffix": ".png"}, "primary": true}], "photos": {"count": 0, "groups": []}}, "referralId": "e-0-53ae0777498e1cdd0ea36156-37"}, {"reasons": {"count": 0, "items": [{"summary": "This spot is popular", "type": "general", "reasonName": "globalInteractionReason"}]}, "venue": {"id": "4e1221fbb0fbfef99b97e63e", "name": "Santa Salsa", "location": {"address": "95-19 Rockaway Beach Blvd", "lat": 40.582905, "lng": -73.81775, "labeledLatLngs": [{"label": "display", "lat": 40.582905, "lng": -73.81775}], "distance": 390, "postalCode": "11693", "cc": "US", "state": "New York", "country": "United States", "formattedAddress": ["95-19 Rockaway Beach Blvd", "NY 11693", "United States"]}, "categories": [{"id": "4bf58dd8d48988d16f941735", "name": "Hot Dog Joint", "pluralName": "Hot Dog Joints", "shortName": "Hot Dogs", "icon": {"prefix": "https://ss3.4sqi.net/img/categories_v2/food/hotdog_", "suffix": ".png"}, "primary": true}], "photos": {"count": 0, "groups": []}}, "referralId": "e-0-4e1221fbb0fbfef99b97e63e-38"}, {"reasons": {"count": 0, "items": [{"summary": "This spot is popular", "type": "general", "reasonName": "globalInteractionReason"}]}, "venue": {"id": "55f47145498e412be001b9d7", "name": "Palenque", "location": {"lat": 40.583001, "lng": -73.817741, "labeledLatLngs": [{"label": "display", "lat": 40.583001, "lng": -73.817741}], "distance": 391, "cc": "US", "city": "Queens", "state": "NY", "country": "United States", "formattedAddress": ["Queens, NY", "United States"]}, "categories": [{"id": "4bf58dd8d48988d152941735", "name": "Arepa Restaurant", "pluralName": "Arepa Restaurants", "shortName": "Arepas", "icon": {"prefix": "https://ss3.4sqi.net/img/categories_v2/food/arepas_", "suffix": ".png"}, "primary": true}], "photos": {"count": 0, "groups": []}}, "referralId": "e-0-55f47145498e412be001b9d7-39"}, {"reasons": {"count": 0, "items": [{"summary": "This spot is popular", "type": "general", "reasonName": "globalInteractionReason"}]}, "venue": {"id": "574c9d48498e18aea3225b55", "name": "Brothers Rockaway", "location": {"address": "Beach 106", "lat": 40.580586, "lng": -73.82595, "labeledLatLngs": [{"label": "display", "lat": 40.580586, "lng": -73.82595}], "distance": 391, "cc": "US", "city": "Queens", "state": "NY", "country": "United States", "formattedAddress": ["Beach 106", "Queens, NY", "United States"]}, "categories": [{"id": "56aa371be4b08b9a8d57350b", "name": "Food Stand", "pluralName": "Food Stands", "shortName": "Food Stand", "icon": {"prefix": "https://ss3.4sqi.net/img/categories_v2/travel/movingtarget_", "suffix": ".png"}, "primary": true}], "photos": {"count": 0, "groups": []}}, "referralId": "e-0-574c9d48498e18aea3225b55-40"}, {"reasons": {"count": 0, "items": [{"summary": "This spot is popular", "type": "general", "reasonName": "globalInteractionReason"}]}, "venue": {"id": "538a69e5498e379b2c89aa2b", "name": "citysticks", "location": {"address": "97-01 Shore Front Parkway", "lat": 40.58285506743939, "lng": -73.81768245980379, "labeledLatLngs": [{"label": "display", "lat": 40.58285506743939, "lng": -73.81768245980379}], "distance": 395, "postalCode": "11694", "cc": "US", "city": "Queens", "state": "NY", "country": "United States", "formattedAddress": ["97-01 Shore Front Parkway", "Rockaway Beach, NY 11694", "United States"]}, "categories": [{"id": "4bf58dd8d48988d1c9941735", "name": "Ice Cream Shop", "pluralName": "Ice Cream Shops", "shortName": "Ice Cream", "icon": {"prefix": "https://ss3.4sqi.net/img/categories_v2/food/icecream_", "suffix": ".png"}, "primary": true}], "photos": {"count": 0, "groups": []}}, "referralId": "e-0-538a69e5498e379b2c89aa2b-41"}, {"reasons": {"count": 0, "items": [{"summary": "This spot is popular", "type": "general", "reasonName": "globalInteractionReason"}]}, "venue": {"id": "52222d13498e4ca23d775f8b", "name": "BLP", "location": {"lat": 40.582842, "lng": -73.817628, "labeledLatLngs": [{"label": "display", "lat": 40.582842, "lng": -73.817628}], "distance": 400, "cc": "US", "city": "Queens", "state": "NY", "country": "United States", "formattedAddress": ["Queens, NY", "United States"]}, "categories": [{"id": "4bf58dd8d48988d1be941735", "name": "Latin American Restaurant", "pluralName": "Latin American Restaurants", "shortName": "Latin American", "icon": {"prefix": "https://ss3.4sqi.net/img/categories_v2/food/latinamerican_", "suffix": ".png"}, "primary": true}], "photos": {"count": 0, "groups": []}}, "referralId": "e-0-52222d13498e4ca23d775f8b-42"}, {"reasons": {"count": 0, "items": [{"summary": "This spot is popular", "type": "general", "reasonName": "globalInteractionReason"}]}, "venue": {"id": "4c6ee145d7fab1f7e4b059c9", "name": "Mister Softee", "location": {"lat": 40.58284522571135, "lng": -73.81761353166829, "labeledLatLngs": [{"label": "display", "lat": 40.58284522571135, "lng": -73.81761353166829}], "distance": 401, "postalCode": "11694", "cc": "US", "city": "Rockaway Park", "state": "NY", "country": "United States", "formattedAddress": ["Rockaway Park, NY 11694", "United States"]}, "categories": [{"id": "4bf58dd8d48988d1cb941735", "name": "Food Truck", "pluralName": "Food Trucks", "shortName": "Food Truck", "icon": {"prefix": "https://ss3.4sqi.net/img/categories_v2/food/streetfood_", "suffix": ".png"}, "primary": true}], "photos": {"count": 0, "groups": []}}, "referralId": "e-0-4c6ee145d7fab1f7e4b059c9-43"}, {"reasons": {"count": 0, "items": [{"summary": "This spot is popular", "type": "general", "reasonName": "globalInteractionReason"}]}, "venue": {"id": "4de1791d52b1d38d29571891", "name": "Ode to the Elephants", "location": {"address": "Beach 97 Street", "crossStreet": "at Shorefront", "lat": 40.582931, "lng": -73.817617, "labeledLatLngs": [{"label": "display", "lat": 40.582931, "lng": -73.817617}], "distance": 401, "postalCode": "11693", "cc": "US", "city": "Queens", "state": "NY", "country": "United States", "formattedAddress": ["Beach 97 Street (at Shorefront)", "Queens, NY 11693", "United States"]}, "categories": [{"id": "4bf58dd8d48988d149941735", "name": "Thai Restaurant", "pluralName": "Thai Restaurants", "shortName": "Thai", "icon": {"prefix": "https://ss3.4sqi.net/img/categories_v2/food/thai_", "suffix": ".png"}, "primary": true}], "photos": {"count": 0, "groups": []}}, "referralId": "e-0-4de1791d52b1d38d29571891-44"}, {"reasons": {"count": 0, "items": [{"summary": "This spot is popular", "type": "general", "reasonName": "globalInteractionReason"}]}, "venue": {"id": "4fbfe3d8e4b01d45be101e2c", "name": "Steve's Ice Cream 106th St, Rockaway Beach", "location": {"address": "Beach 106th Street", "crossStreet": "Boardwalk", "lat": 40.58045314369591, "lng": -73.8259594057435, "labeledLatLngs": [{"label": "display", "lat": 40.58045314369591, "lng": -73.8259594057435}], "distance": 401, "postalCode": "11694", "cc": "US", "city": "Queens", "state": "NY", "country": "United States", "formattedAddress": ["Beach 106th Street (Boardwalk)", "Queens, NY 11694", "United States"]}, "categories": [{"id": "4bf58dd8d48988d1c9941735", "name": "Ice Cream Shop", "pluralName": "Ice Cream Shops", "shortName": "Ice Cream", "icon": {"prefix": "https://ss3.4sqi.net/img/categories_v2/food/icecream_", "suffix": ".png"}, "primary": true}], "photos": {"count": 0, "groups": []}}, "referralId": "e-0-4fbfe3d8e4b01d45be101e2c-45"}, {"reasons": {"count": 0, "items": [{"summary": "This spot is popular", "type": "general", "reasonName": "globalInteractionReason"}]}, "venue": {"id": "5ceacbf966f3cd002c8f108f", "name": "Edible Island", "location": {"lat": 40.582882, "lng": -73.817567, "labeledLatLngs": [{"label": "display", "lat": 40.582882, "lng": -73.817567}], "distance": 405, "postalCode": "11693", "cc": "US", "city": "New York", "state": "NY", "country": "United States", "formattedAddress": ["New York, NY 11693", "United States"]}, "categories": [{"id": "5bae9231bedf3950379f89d4", "name": "Poke Place", "pluralName": "Poke Places", "shortName": "Poke Place", "icon": {"prefix": "https://ss3.4sqi.net/img/categories_v2/food/default_", "suffix": ".png"}, "primary": true}], "photos": {"count": 0, "groups": []}}, "referralId": "e-0-5ceacbf966f3cd002c8f108f-46"}, {"reasons": {"count": 0, "items": [{"summary": "This spot is popular", "type": "general", "reasonName": "globalInteractionReason"}]}, "venue": {"id": "557db061498e4837f999e232", "name": "Bolivian Llama Party", "location": {"address": "1000 S 8Th Ave", "lat": 40.58286188767269, "lng": -73.81752737146522, "labeledLatLngs": [{"label": "display", "lat": 40.58286188767269, "lng": -73.81752737146522}], "distance": 408, "postalCode": "10019", "cc": "US", "city": "Queens", "state": "NY", "country": "United States", "formattedAddress": ["1000 S 8Th Ave", "Queens, NY 10019", "United States"]}, "categories": [{"id": "4bf58dd8d48988d1cb941735", "name": "Food Truck", "pluralName": "Food Trucks", "shortName": "Food Truck", "icon": {"prefix": "https://ss3.4sqi.net/img/categories_v2/food/streetfood_", "suffix": ".png"}, "primary": true}], "photos": {"count": 0, "groups": []}}, "referralId": "e-0-557db061498e4837f999e232-47"}, {"reasons": {"count": 0, "items": [{"summary": "This spot is popular", "type": "general", "reasonName": "globalInteractionReason"}]}, "venue": {"id": "51fb0cad5019b3449f11714c", "name": "Bolivian Llama Party", "location": {"address": "9701 Shorefront Pkwy", "crossStreet": "97th st", "lat": 40.582891057123504, "lng": -73.81751583165169, "labeledLatLngs": [{"label": "display", "lat": 40.582891057123504, "lng": -73.81751583165169}], "distance": 409, "postalCode": "11693", "cc": "US", "city": "Far Rockaway", "state": "NY", "country": "United States", "formattedAddress": ["9701 Shorefront Pkwy (97th st)", "Far Rockaway, NY 11693", "United States"]}, "categories": [{"id": "4bf58dd8d48988d1be941735", "name": "Latin American Restaurant", "pluralName": "Latin American Restaurants", "shortName": "Latin American", "icon": {"prefix": "https://ss3.4sqi.net/img/categories_v2/food/latinamerican_", "suffix": ".png"}, "primary": true}], "photos": {"count": 0, "groups": []}}, "referralId": "e-0-51fb0cad5019b3449f11714c-48"}, {"reasons": {"count": 0, "items": [{"summary": "This spot is popular", "type": "general", "reasonName": "globalInteractionReason"}]}, "venue": {"id": "4c4bfb8c5609c9b6a204e091", "name": "MTA Subway - Beach 105th St/Seaside (A/S)", "location": {"address": "Rockaway Fwy & B 105 St", "lat": 40.583273061871694, "lng": -73.82746022591203, "labeledLatLngs": [{"label": "display", "lat": 40.583273061871694, "lng": -73.82746022591203}], "distance": 434, "postalCode": "11694", "cc": "US", "city": "Queens", "state": "NY", "country": "United States", "formattedAddress": ["Rockaway Fwy & B 105 St", "Queens, NY 11694", "United States"]}, "categories": [{"id": "4bf58dd8d48988d1fd931735", "name": "Metro Station", "pluralName": "Metro Stations", "shortName": "Metro", "icon": {"prefix": "https://ss3.4sqi.net/img/categories_v2/travel/subway_", "suffix": ".png"}, "primary": true}], "photos": {"count": 0, "groups": []}}, "referralId": "e-0-4c4bfb8c5609c9b6a204e091-49"}, {"reasons": {"count": 0, "items": [{"summary": "This spot is popular", "type": "general", "reasonName": "globalInteractionReason"}]}, "venue": {"id": "53938a0b498e0e408d3ac7fd", "name": "Roberta's by the Sea", "location": {"address": "Beach 96th street", "lat": 40.58500880781768, "lng": -73.8179294520925, "labeledLatLngs": [{"label": "display", "lat": 40.58500880781768, "lng": -73.8179294520925}], "distance": 448, "postalCode": "11693", "cc": "US", "city": "Queens", "state": "NY", "country": "United States", "formattedAddress": ["Beach 96th street", "Rockaway Beach, NY 11693", "United States"]}, "categories": [{"id": "4bf58dd8d48988d16e941735", "name": "Fast Food Restaurant", "pluralName": "Fast Food Restaurants", "shortName": "Fast Food", "icon": {"prefix": "https://ss3.4sqi.net/img/categories_v2/food/fastfood_", "suffix": ".png"}, "primary": true}], "photos": {"count": 0, "groups": []}}, "referralId": "e-0-53938a0b498e0e408d3ac7fd-50"}, {"reasons": {"count": 0, "items": [{"summary": "This spot is popular", "type": "general", "reasonName": "globalInteractionReason"}]}, "venue": {"id": "5d1b59f0aa7be7002ae6f83e", "name": "Bernadette\u2019s", "location": {"address": "Rockaway Beach Blvd and Beach 96th St", "lat": 40.585298, "lng": -73.818, "labeledLatLngs": [{"label": "display", "lat": 40.585298, "lng": -73.818}], "distance": 461, "postalCode": "11693", "cc": "US", "city": "New York", "state": "NY", "country": "United States", "formattedAddress": ["Rockaway Beach Blvd and Beach 96th St", "New York, NY 11693", "United States"]}, "categories": [{"id": "4bf58dd8d48988d143941735", "name": "Breakfast Spot", "pluralName": "Breakfast Spots", "shortName": "Breakfast", "icon": {"prefix": "https://ss3.4sqi.net/img/categories_v2/food/breakfast_", "suffix": ".png"}, "primary": true}], "photos": {"count": 0, "groups": []}}, "referralId": "e-0-5d1b59f0aa7be7002ae6f83e-51"}]