[{"reasons": {"count": 0, "items": [{"summary": "This spot is popular", "type": "general", "reasonName": "globalInteractionReason"}]}, "venue": {"id": "5425e79d498e56188b9a5a54", "name": "Sincerely Tommy", "location": {"address": "343 Tompkins Ave", "lat": 40.686066, "lng": -73.944294, "labeledLatLngs": [{"label": "display", "lat": 40.686066, "lng": -73.944294}, {"label": "entrance", "lat": 40.686006, "lng": -73.944322}], "distance": 248, "postalCode": "11216", "cc": "US", "city": "Brooklyn", "state": "NY", "country": "United States", "formattedAddress": ["343 Tompkins Ave", "Brooklyn, NY 11216", "United States"]}, "categories": [{"id": "4bf58dd8d48988d104951735", "name": "Boutique", "pluralName": "Boutiques", "shortName": "Boutique", "icon": {"prefix": "https://ss3.4sqi.net/img/categories_v2/shops/apparel_boutique_", "suffix": ".png"}, "primary": true}], "photos": {"count": 0, "groups": []}}, "referralId": "e-0-5425e79d498e56188b9a5a54-0"}, {"reasons": {"count": 0, "items": [{"summary": "This spot is popular", "type": "general", "reasonName": "globalInteractionReason"}]}, "venue": {"id": "4de1945618385df2b00f7ba9", "name": "The Bush Doctor", "location": {"address": "307 Tompkins Ave", "crossStreet": "Gates/Quincy", "lat": 40.687399, "lng": -73.94448, "labeledLatLngs": [{"label": "display", "lat": 40.687399, "lng": -73.94448}, {"label": "entrance", "lat": 40.687385, "lng": -73.944599}], "distance": 228, "postalCode": "11216", "cc": "US", "city": "Brooklyn", "state": "NY", "country": "United States", "formattedAddress": ["307 Tompkins Ave (Gates/Quincy)", "Brooklyn, NY 11216", "United States"]}, "categories": [{"id": "4bf58dd8d48988d112941735", "name": "Juice Bar", "pluralName": "Juice Bars", "shortName": "Juice Bar", "icon": {"prefix": "https://ss3.4sqi.net/img/categories_v2/food/juicebar_", "suffix": ".png"}, "primary": true}], "delivery": {"id": "285674", "url": "https://www.seamless.com/menu/the-bush-doctor-juice-bar-307-tompkins-ave-brooklyn/285674?affiliate=1131&utm_source=foursquare-affiliate-network&utm_medium=affiliate&utm_campaign=1131&utm_content=285674", "provider": {"name": "seamless", "icon": {"prefix": "https://fastly.4sqi.net/img/general/cap/", "sizes": [40, 50], "name": "/delivery_provider_seamless_20180129.png"}}}, "photos": {"count": 0, "groups": []}}, "referralId": "e-0-4de1945618385df2b00f7ba9-1"}, {"reasons": {"count": 0, "items": [{"summary": "This spot is popular", "type": "general", "reasonName": "globalInteractionReason"}]}, "venue": {"id": "51c4f36a498ed84020c10d26", "name": "Bed-Vyne Brew", "location": {"address": "370 Tompkins Ave", "crossStreet": "Putnam", "lat": 40.684750595596164, "lng": -73.94431932234454, "labeledLatLngs": [{"label": "display", "lat": 40.684750595596164, "lng": -73.94431932234454}, {"label": "entrance", "lat": 40.684808, "lng": -73.944359}], "distance": 349, "postalCode": "11216", "cc": "US", "city": "Brooklyn", "state": "NY", "country": "United States", "formattedAddress": ["370 Tompkins Ave (Putnam)", "Brooklyn, NY 11216", "United States"]}, "categories": [{"id": "4bf58dd8d48988d116941735", "name": "Bar", "pluralName": "Bars", "shortName": "Bar", "icon": {"prefix": "https://ss3.4sqi.net/img/categories_v2/nightlife/pub_", "suffix": ".png"}, "primary": true}], "photos": {"count": 0, "groups": []}, "venuePage": {"id": "80828782"}}, "referralId": "e-0-51c4f36a498ed84020c10d26-2"}, {"reasons": {"count": 0, "items": [{"summary": "This spot is popular", "type": "general", "reasonName": "globalInteractionReason"}]}, "venue": {"id": "4e9dece66da163facd9153d9", "name": "Bed-Vyne Wine & Spirits", "location": {"address": "370 Tompkins Ave", "crossStreet": "Putnam Ave", "lat": 40.68466774354961, "lng": -73.94436315673876, "labeledLatLngs": [{"label": "display", "lat": 40.68466774354961, "lng": -73.94436315673876}, {"label": "entrance", "lat": 40.684808, "lng": -73.944359}], "distance": 358, "postalCode": "11216", "cc": "US", "city": "Brooklyn", "state": "NY", "country": "United States", "formattedAddress": ["370 Tompkins Ave (Putnam Ave)", "Brooklyn, NY 11216", "United States"]}, "categories": [{"id": "4bf58dd8d48988d119951735", "name": "Wine Shop", "pluralName": "Wine Shops", "shortName": "Wine Shop", "icon": {"prefix": "https://ss3.4sqi.net/img/categories_v2/shops/food_wineshop_", "suffix": ".png"}, "primary": true}], "photos": {"count": 0, "groups": []}, "venuePage": {"id": "69880430"}}, "referralId": "e-0-4e9dece66da163facd9153d9-3"}, {"reasons": {"count": 0, "items": [{"summary": "This spot is popular", "type": "general", "reasonName": "globalInteractionReason"}]}, "venue": {"id": "5483dd08498e1787e91a1bb2", "name": "Eugene & Co", "location": {"address": "397 Tompkins Ave", "crossStreet": "btwn Hancock St & Jefferson Ave", "lat": 40.683899410685, "lng": -73.944023425241, "labeledLatLngs": [{"label": "display", "lat": 40.683899410685, "lng": -73.944023425241}], "distance": 416, "postalCode": "11216", "cc": "US", "city": "Brooklyn", "state": "NY", "country": "United States", "formattedAddress": ["397 Tompkins Ave (btwn Hancock St & Jefferson Ave)", "Brooklyn, NY 11216", "United States"]}, "categories": [{"id": "4bf58dd8d48988d157941735", "name": "New American Restaurant", "pluralName": "New American Restaurants", "shortName": "New American", "icon": {"prefix": "https://ss3.4sqi.net/img/categories_v2/food/newamerican_", "suffix": ".png"}, "primary": true}], "photos": {"count": 0, "groups": []}, "venuePage": {"id": "112282959"}}, "referralId": "e-0-5483dd08498e1787e91a1bb2-4"}, {"reasons": {"count": 0, "items": [{"summary": "This spot is popular", "type": "general", "reasonName": "globalInteractionReason"}]}, "venue": {"id": "5b3bcb69bfc6d0002ca9bf17", "name": "Warude", "location": {"address": "387 Tompkins", "lat": 40.684409678801586, "lng": -73.94411847251774, "labeledLatLngs": [{"label": "display", "lat": 40.684409678801586, "lng": -73.94411847251774}], "distance": 370, "postalCode": "11216", "cc": "US", "city": "New York", "state": "NY", "country": "United States", "formattedAddress": ["387 Tompkins", "New York, NY 11216", "United States"]}, "categories": [{"id": "4bf58dd8d48988d111941735", "name": "Japanese Restaurant", "pluralName": "Japanese Restaurants", "shortName": "Japanese", "icon": {"prefix": "https://ss3.4sqi.net/img/categories_v2/food/japanese_", "suffix": ".png"}, "primary": true}], "delivery": {"id": "1049175", "url": "https://www.seamless.com/menu/warude-japanese-bowl-385-tompkins-ave-brooklyn/1049175?affiliate=1131&utm_source=foursquare-affiliate-network&utm_medium=affiliate&utm_campaign=1131&utm_content=1049175", "provider": {"name": "seamless", "icon": {"prefix": "https://fastly.4sqi.net/img/general/cap/", "sizes": [40, 50], "name": "/delivery_provider_seamless_20180129.png"}}}, "photos": {"count": 0, "groups": []}}, "referralId": "e-0-5b3bcb69bfc6d0002ca9bf17-5"}, {"reasons": {"count": 0, "items": [{"summary": "This spot is popular", "type": "general", "reasonName": "globalInteractionReason"}]}, "venue": {"id": "529e8d18498e90a6527fb0be", "name": "Peace & Riot", "location": {"address": "401-403 Tompkins Ave", "lat": 40.683611, "lng": -73.943974, "labeledLatLngs": [{"label": "display", "lat": 40.683611, "lng": -73.943974}], "distance": 443, "postalCode": "11216", "cc": "US", "neighborhood": "Bedford-Stuyvesant", "city": "Brooklyn", "state": "NY", "country": "United States", "formattedAddress": ["401-403 Tompkins Ave", "Brooklyn, NY 11216", "United States"]}, "categories": [{"id": "4bf58dd8d48988d128951735", "name": "Gift Shop", "pluralName": "Gift Shops", "shortName": "Gift Shop", "icon": {"prefix": "https://ss3.4sqi.net/img/categories_v2/shops/giftshop_", "suffix": ".png"}, "primary": true}], "photos": {"count": 0, "groups": []}}, "referralId": "e-0-529e8d18498e90a6527fb0be-6"}, {"reasons": {"count": 0, "items": [{"summary": "This spot is popular", "type": "general", "reasonName": "globalInteractionReason"}]}, "venue": {"id": "58bad1af45c3ed4ca99f97f9", "name": "Bravi Ragazzi", "location": {"address": "570 Putnam Ave", "crossStreet": "Marcus Garvey Blvd", "lat": 40.685203, "lng": -73.938775, "labeledLatLngs": [{"label": "display", "lat": 40.685203, "lng": -73.938775}, {"label": "entrance", "lat": 40.685221, "lng": -73.938857}], "distance": 339, "postalCode": "11221", "cc": "US", "city": "Brooklyn", "state": "NY", "country": "United States", "formattedAddress": ["570 Putnam Ave (Marcus Garvey Blvd)", "Brooklyn, NY 11221", "United States"]}, "categories": [{"id": "4bf58dd8d48988d1ca941735", "name": "Pizza Place", "pluralName": "Pizza Places", "shortName": "Pizza", "icon": {"prefix": "https://ss3.4sqi.net/img/categories_v2/food/pizza_", "suffix": ".png"}, "primary": true}], "delivery": {"id": "476803", "url": "https://www.seamless.com/menu/bravi-ragazzi-570-putnam-ave-brooklyn/476803?affiliate=1131&utm_source=foursquare-affiliate-network&utm_medium=affiliate&utm_campaign=1131&utm_content=476803", "provider": {"name": "seamless", "icon": {"prefix": "https://fastly.4sqi.net/img/general/cap/", "sizes": [40, 50], "name": "/delivery_provider_seamless_20180129.png"}}}, "photos": {"count": 0, "groups": []}}, "referralId": "e-0-58bad1af45c3ed4ca99f97f9-7"}, {"reasons": {"count": 0, "items": [{"summary": "This spot is popular", "type": "general", "reasonName": "globalInteractionReason"}]}, "venue": {"id": "4b9ec1b5f964a5205dff36e3", "name": "Peaches HotHouse", "location": {"address": "415 Tompkins Ave", "crossStreet": "at Hancock St", "lat": 40.68333096983621, "lng": -73.94385322214498, "labeledLatLngs": [{"label": "display", "lat": 40.68333096983621, "lng": -73.94385322214498}, {"label": "entrance", "lat": 40.683378, "lng": -73.943793}], "distance": 468, "postalCode": "11216", "cc": "US", "city": "Brooklyn", "state": "NY", "country": "United States", "formattedAddress": ["415 Tompkins Ave (at Hancock St)", "Brooklyn, NY 11216", "United States"]}, "categories": [{"id": "4d4ae6fc7a7b7dea34424761", "name": "Fried Chicken Joint", "pluralName": "Fried Chicken Joints", "shortName": "Fried Chicken", "icon": {"prefix": "https://ss3.4sqi.net/img/categories_v2/food/friedchicken_", "suffix": ".png"}, "primary": true}], "delivery": {"id": "1122791", "url": "https://www.seamless.com/menu/peaches-hothouse-415-tompkins-ave-brooklyn/1122791?affiliate=1131&utm_source=foursquare-affiliate-network&utm_medium=affiliate&utm_campaign=1131&utm_content=1122791", "provider": {"name": "seamless", "icon": {"prefix": "https://fastly.4sqi.net/img/general/cap/", "sizes": [40, 50], "name": "/delivery_provider_seamless_20180129.png"}}}, "photos": {"count": 0, "groups": []}, "venuePage": {"id": "78677614"}}, "referralId": "e-0-4b9ec1b5f964a5205dff36e3-8"}, {"reasons": {"count": 0, "items": [{"summary": "This spot is popular", "type": "general", "reasonName": "globalInteractionReason"}]}, "venue": {"id": "4bbb7f95e45295219ac354a4", "name": "Herbert Von King Park", "location": {"address": "Between Marcy Ave  & Tompkins Ave", "crossStreet": "Between Greene Ave & Lafayette Ave", "lat": 40.68951409686509, "lng": -73.9465069770813, "labeledLatLngs": [{"label": "display", "lat": 40.68951409686509, "lng": -73.9465069770813}], "distance": 472, "postalCode": "11216", "cc": "US", "city": "Brooklyn", "state": "NY", "country": "United States", "formattedAddress": ["Between Marcy Ave  & Tompkins Ave (Between Greene Ave & Lafayette Ave)", "Brooklyn, NY 11216", "United States"]}, "categories": [{"id": "4bf58dd8d48988d163941735", "name": "Park", "pluralName": "Parks", "shortName": "Park", "icon": {"prefix": "https://ss3.4sqi.net/img/categories_v2/parks_outdoors/park_", "suffix": ".png"}, "primary": true}], "photos": {"count": 0, "groups": []}}, "referralId": "e-0-4bbb7f95e45295219ac354a4-9"}, {"reasons": {"count": 0, "items": [{"summary": "This spot is popular", "type": "general", "reasonName": "globalInteractionReason"}]}, "venue": {"id": "56bf7516cd1024b6713b3563", "name": "Brooklyn Kettle", "location": {"address": "420 Putnam Ave", "lat": 40.68463612139113, "lng": -73.9446114639709, "labeledLatLngs": [{"label": "display", "lat": 40.68463612139113, "lng": -73.9446114639709}, {"label": "entrance", "lat": 40.684564, "lng": -73.944573}], "distance": 374, "postalCode": "11216", "cc": "US", "city": "Brooklyn", "state": "NY", "country": "United States", "formattedAddress": ["420 Putnam Ave", "Brooklyn, NY 11216", "United States"]}, "categories": [{"id": "4bf58dd8d48988d1e0931735", "name": "Coffee Shop", "pluralName": "Coffee Shops", "shortName": "Coffee Shop", "icon": {"prefix": "https://ss3.4sqi.net/img/categories_v2/food/coffeeshop_", "suffix": ".png"}, "primary": true}], "photos": {"count": 0, "groups": []}}, "referralId": "e-0-56bf7516cd1024b6713b3563-10"}, {"reasons": {"count": 0, "items": [{"summary": "This spot is popular", "type": "general", "reasonName": "globalInteractionReason"}]}, "venue": {"id": "55b41357498ea78aee5c1cd5", "name": "Lovers Rock", "location": {"address": "419 Tompkins Ave", "crossStreet": "btwn Halsey & Hancock St", "lat": 40.683061, "lng": -73.943618, "labeledLatLngs": [{"label": "display", "lat": 40.683061, "lng": -73.943618}, {"label": "entrance", "lat": 40.683079, "lng": -73.943722}], "distance": 489, "postalCode": "11216", "cc": "US", "city": "Brooklyn", "state": "NY", "country": "United States", "formattedAddress": ["419 Tompkins Ave (btwn Halsey & Hancock St)", "Brooklyn, NY 11216", "United States"]}, "categories": [{"id": "4bf58dd8d48988d116941735", "name": "Bar", "pluralName": "Bars", "shortName": "Bar", "icon": {"prefix": "https://ss3.4sqi.net/img/categories_v2/nightlife/pub_", "suffix": ".png"}, "primary": true}], "photos": {"count": 0, "groups": []}}, "referralId": "e-0-55b41357498ea78aee5c1cd5-11"}, {"reasons": {"count": 0, "items": [{"summary": "This spot is popular", "type": "general", "reasonName": "globalInteractionReason"}]}, "venue": {"id": "551625ac498ec23c188effa3", "name": "Bed-Vyne Cocktail", "location": {"address": "305 Halsey St", "crossStreet": "at Throop Ave", "lat": 40.682874463261875, "lng": -73.94064843780026, "labeledLatLngs": [{"label": "display", "lat": 40.682874463261875, "lng": -73.94064843780026}, {"label": "entrance", "lat": 40.68297, "lng": -73.940541}], "distance": 494, "postalCode": "11216", "cc": "US", "city": "Brooklyn", "state": "NY", "country": "United States", "formattedAddress": ["305 Halsey St (at Throop Ave)", "Brooklyn, NY 11216", "United States"]}, "categories": [{"id": "4bf58dd8d48988d11e941735", "name": "Cocktail Bar", "pluralName": "Cocktail Bars", "shortName": "Cocktail", "icon": {"prefix": "https://ss3.4sqi.net/img/categories_v2/nightlife/cocktails_", "suffix": ".png"}, "primary": true}], "photos": {"count": 0, "groups": []}}, "referralId": "e-0-551625ac498ec23c188effa3-12"}, {"reasons": {"count": 0, "items": [{"summary": "This spot is popular", "type": "general", "reasonName": "globalInteractionReason"}]}, "venue": {"id": "5cce4466a4ba7c002cb7a6ad", "name": "Zig Zag", "location": {"address": "382 Marcus Garvey Blvd", "crossStreet": "Hancock", "lat": 40.684021, "lng": -73.938337, "labeledLatLngs": [{"label": "display", "lat": 40.684021, "lng": -73.938337}], "distance": 460, "postalCode": "11216", "cc": "US", "city": "New York", "state": "NY", "country": "United States", "formattedAddress": ["382 Marcus Garvey Blvd (Hancock)", "New York, NY 11216", "United States"]}, "categories": [{"id": "56aa371be4b08b9a8d57354d", "name": "Tiki Bar", "pluralName": "Tiki Bars", "shortName": "Tiki Bar", "icon": {"prefix": "https://ss3.4sqi.net/img/categories_v2/nightlife/cocktails_", "suffix": ".png"}, "primary": true}], "photos": {"count": 0, "groups": []}}, "referralId": "e-0-5cce4466a4ba7c002cb7a6ad-13"}, {"reasons": {"count": 0, "items": [{"summary": "This spot is popular", "type": "general", "reasonName": "globalInteractionReason"}]}, "venue": {"id": "563777ea498e3714e30e7d47", "name": "Bedstuy Provisions", "location": {"address": "563 Gates Avenue Brooklyn, NY 11221", "lat": 40.68698075830423, "lng": -73.94422402706195, "labeledLatLngs": [{"label": "display", "lat": 40.68698075830423, "lng": -73.94422402706195}], "distance": 207, "postalCode": "11221", "cc": "US", "city": "Brooklyn", "state": "NY", "country": "United States", "formattedAddress": ["563 Gates Avenue Brooklyn, NY 11221", "Brooklyn, NY 11221", "United States"]}, "categories": [{"id": "4bf58dd8d48988d16d941735", "name": "Caf\u00e9", "pluralName": "Caf\u00e9s", "shortName": "Caf\u00e9", "icon": {"prefix": "https://ss3.4sqi.net/img/categories_v2/food/cafe_", "suffix": ".png"}, "primary": true}], "delivery": {"id": "588730", "url": "https://www.seamless.com/menu/bed-stuy-provisions-563-gates-ave-brooklyn/588730?affiliate=1131&utm_source=foursquare-affiliate-network&utm_medium=affiliate&utm_campaign=1131&utm_content=588730", "provider": {"name": "seamless", "icon": {"prefix": "https://fastly.4sqi.net/img/general/cap/", "sizes": [40, 50], "name": "/delivery_provider_seamless_20180129.png"}}}, "photos": {"count": 0, "groups": []}}, "referralId": "e-0-563777ea498e3714e30e7d47-14"}, {"reasons": {"count": 0, "items": [{"summary": "This spot is popular", "type": "general", "reasonName": "globalInteractionReason"}]}, "venue": {"id": "4be45db32468c9284aabfe42", "name": "Royal Rib House", "location": {"address": "303 Halsey St", "crossStreet": "Throop Ave.", "lat": 40.68289343920325, "lng": -73.9407418114866, "labeledLatLngs": [{"label": "display", "lat": 40.68289343920325, "lng": -73.9407418114866}, {"label": "entrance", "lat": 40.682957, "lng": -73.940661}], "distance": 490, "postalCode": "11216", "cc": "US", "city": "Brooklyn", "state": "NY", "country": "United States", "formattedAddress": ["303 Halsey St (Throop Ave.)", "Brooklyn, NY 11216", "United States"]}, "categories": [{"id": "4bf58dd8d48988d1df931735", "name": "BBQ Joint", "pluralName": "BBQ Joints", "shortName": "BBQ", "icon": {"prefix": "https://ss3.4sqi.net/img/categories_v2/food/bbqalt_", "suffix": ".png"}, "primary": true}], "photos": {"count": 0, "groups": []}}, "referralId": "e-0-4be45db32468c9284aabfe42-15"}, {"reasons": {"count": 0, "items": [{"summary": "This spot is popular", "type": "general", "reasonName": "globalInteractionReason"}]}, "venue": {"id": "599321fcd4cc9849c017f19c", "name": "Brown Butter", "location": {"address": "413 Tompkins Ave", "lat": 40.68336497667256, "lng": -73.94387876229449, "labeledLatLngs": [{"label": "display", "lat": 40.68336497667256, "lng": -73.94387876229449}], "distance": 465, "postalCode": "11216", "cc": "US", "city": "Brooklyn", "state": "NY", "country": "United States", "formattedAddress": ["413 Tompkins Ave", "Brooklyn, NY 11216", "United States"]}, "categories": [{"id": "4bf58dd8d48988d16d941735", "name": "Caf\u00e9", "pluralName": "Caf\u00e9s", "shortName": "Caf\u00e9", "icon": {"prefix": "https://ss3.4sqi.net/img/categories_v2/food/cafe_", "suffix": ".png"}, "primary": true}], "photos": {"count": 0, "groups": []}}, "referralId": "e-0-599321fcd4cc9849c017f19c-16"}, {"reasons": {"count": 0, "items": [{"summary": "This spot is popular", "type": "general", "reasonName": "globalInteractionReason"}]}, "venue": {"id": "52a102da11d29a428cb564e7", "name": "Crocus Coffee", "location": {"address": "328 Tompkins Ave", "lat": 40.68655339859347, "lng": -73.94457685574372, "labeledLatLngs": [{"label": "display", "lat": 40.68655339859347, "lng": -73.94457685574372}, {"label": "entrance", "lat": 40.686478, "lng": -73.944663}], "distance": 247, "postalCode": "11216", "cc": "US", "city": "Brooklyn", "state": "NY", "country": "United States", "formattedAddress": ["328 Tompkins Ave", "Brooklyn, NY 11216", "United States"]}, "categories": [{"id": "4bf58dd8d48988d1e0931735", "name": "Coffee Shop", "pluralName": "Coffee Shops", "shortName": "Coffee Shop", "icon": {"prefix": "https://ss3.4sqi.net/img/categories_v2/food/coffeeshop_", "suffix": ".png"}, "primary": true}], "photos": {"count": 0, "groups": []}}, "referralId": "e-0-52a102da11d29a428cb564e7-17"}, {"reasons": {"count": 0, "items": [{"summary": "This spot is popular", "type": "general", "reasonName": "globalInteractionReason"}]}, "venue": {"id": "4c8da0548c4576b055d809ae", "name": "The Meat Market Brooklyn", "location": {"address": "380 Tompkins Ave", "crossStreet": "Jefferson and Putnam", "lat": 40.684342, "lng": -73.94433599999999, "labeledLatLngs": [{"label": "display", "lat": 40.684342, "lng": -73.94433599999999}, {"label": "entrance", "lat": 40.684353, "lng": -73.944239}], "distance": 387, "postalCode": "11216", "cc": "US", "city": "Brooklyn", "state": "NY", "country": "United States", "formattedAddress": ["380 Tompkins Ave (Jefferson and Putnam)", "Brooklyn, NY 11216", "United States"]}, "categories": [{"id": "4bf58dd8d48988d101951735", "name": "Thrift / Vintage Store", "pluralName": "Thrift / Vintage Stores", "shortName": "Thrift / Vintage", "icon": {"prefix": "https://ss3.4sqi.net/img/categories_v2/shops/default_", "suffix": ".png"}, "primary": true}], "photos": {"count": 0, "groups": []}, "venuePage": {"id": "41582476"}}, "referralId": "e-0-4c8da0548c4576b055d809ae-18"}, {"reasons": {"count": 0, "items": [{"summary": "This spot is popular", "type": "general", "reasonName": "globalInteractionReason"}]}, "venue": {"id": "52059cf811d2f941fb837b23", "name": "UnWine Bed Stuy", "location": {"address": "414 Tompkins Ave", "crossStreet": "Hancock & Halsey Streets", "lat": 40.68311233416574, "lng": -73.94387807243022, "labeledLatLngs": [{"label": "display", "lat": 40.68311233416574, "lng": -73.94387807243022}], "distance": 491, "postalCode": "11216", "cc": "US", "city": "Brooklyn", "state": "NY", "country": "United States", "formattedAddress": ["414 Tompkins Ave (Hancock & Halsey Streets)", "Brooklyn, NY 11216", "United States"]}, "categories": [{"id": "4bf58dd8d48988d123941735", "name": "Wine Bar", "pluralName": "Wine Bars", "shortName": "Wine Bar", "icon": {"prefix": "https://ss3.4sqi.net/img/categories_v2/food/winery_", "suffix": ".png"}, "primary": true}], "photos": {"count": 0, "groups": []}, "venuePage": {"id": "64761637"}}, "referralId": "e-0-52059cf811d2f941fb837b23-19"}, {"reasons": {"count": 0, "items": [{"summary": "This spot is popular", "type": "general", "reasonName": "globalInteractionReason"}]}, "venue": {"id": "4ecc3ea22c5b26aab86608f8", "name": "Rocco Pizza III", "location": {"address": "330 Halsey St", "crossStreet": "Throop", "lat": 40.6828787727279, "lng": -73.94075667876076, "labeledLatLngs": [{"label": "display", "lat": 40.6828787727279, "lng": -73.94075667876076}], "distance": 492, "postalCode": "11216", "cc": "US", "city": "Brooklyn", "state": "NY", "country": "United States", "formattedAddress": ["330 Halsey St (Throop)", "Brooklyn, NY 11216", "United States"]}, "categories": [{"id": "4bf58dd8d48988d1ca941735", "name": "Pizza Place", "pluralName": "Pizza Places", "shortName": "Pizza", "icon": {"prefix": "https://ss3.4sqi.net/img/categories_v2/food/pizza_", "suffix": ".png"}, "primary": true}], "delivery": {"id": "262603", "url": "https://www.seamless.com/menu/rocco-pizza-iii-330-halsey-st-brooklyn/262603?affiliate=1131&utm_source=foursquare-affiliate-network&utm_medium=affiliate&utm_campaign=1131&utm_content=262603", "provider": {"name": "seamless", "icon": {"prefix": "https://fastly.4sqi.net/img/general/cap/", "sizes": [40, 50], "name": "/delivery_provider_seamless_20180129.png"}}}, "photos": {"count": 0, "groups": []}}, "referralId": "e-0-4ecc3ea22c5b26aab86608f8-20"}, {"reasons": {"count": 0, "items": [{"summary": "This spot is popular", "type": "general", "reasonName": "globalInteractionReason"}]}, "venue": {"id": "4b3147dcf964a520d50325e3", "name": "Family Dollar", "location": {"address": "644 Gates Ave", "crossStreet": "Marcus Garvey Blvd", "lat": 40.68752203986423, "lng": -73.9391957425028, "labeledLatLngs": [{"label": "display", "lat": 40.68752203986423, "lng": -73.9391957425028}, {"label": "entrance", "lat": 40.687434, "lng": -73.939153}], "distance": 220, "postalCode": "11221", "cc": "US", "neighborhood": "Bedford-Stuyvesant", "city": "Brooklyn", "state": "NY", "country": "United States", "formattedAddress": ["644 Gates Ave (Marcus Garvey Blvd)", "Brooklyn, NY 11221", "United States"]}, "categories": [{"id": "52dea92d3cf9994f4e043dbb", "name": "Discount Store", "pluralName": "Discount Stores", "shortName": "Discount Store", "icon": {"prefix": "https://ss3.4sqi.net/img/categories_v2/shops/discountstore_", "suffix": ".png"}, "primary": true}], "photos": {"count": 0, "groups": []}}, "referralId": "e-0-4b3147dcf964a520d50325e3-21"}, {"reasons": {"count": 0, "items": [{"summary": "This spot is popular", "type": "general", "reasonName": "globalInteractionReason"}]}, "venue": {"id": "56db0b96498ed71005ca64dc", "name": "Nagle's Bagels", "location": {"address": "378 Tompkins Ave", "crossStreet": "at Putnam Ave", "lat": 40.68442529594174, "lng": -73.94414764364352, "labeledLatLngs": [{"label": "display", "lat": 40.68442529594174, "lng": -73.94414764364352}], "distance": 370, "cc": "US", "city": "Brooklyn", "state": "NY", "country": "United States", "formattedAddress": ["378 Tompkins Ave (at Putnam Ave)", "Brooklyn, NY", "United States"]}, "categories": [{"id": "4bf58dd8d48988d179941735", "name": "Bagel Shop", "pluralName": "Bagel Shops", "shortName": "Bagels", "icon": {"prefix": "https://ss3.4sqi.net/img/categories_v2/food/bagels_", "suffix": ".png"}, "primary": true}], "delivery": {"id": "1717344", "url": "https://www.seamless.com/menu/nagles-bagels-378-tompkins-ave-brooklyn/1717344?affiliate=1131&utm_source=foursquare-affiliate-network&utm_medium=affiliate&utm_campaign=1131&utm_content=1717344", "provider": {"name": "seamless", "icon": {"prefix": "https://fastly.4sqi.net/img/general/cap/", "sizes": [40, 50], "name": "/delivery_provider_seamless_20180129.png"}}}, "photos": {"count": 0, "groups": []}}, "referralId": "e-0-56db0b96498ed71005ca64dc-22"}, {"reasons": {"count": 0, "items": [{"summary": "This spot is popular", "type": "general", "reasonName": "globalInteractionReason"}]}, "venue": {"id": "5712873a498e84909b079050", "name": "Chicky's General Store", "location": {"address": "406 Tompkins Ave", "crossStreet": "Handcock", "lat": 40.68338534618245, "lng": -73.94390263895993, "labeledLatLngs": [{"label": "display", "lat": 40.68338534618245, "lng": -73.94390263895993}, {"label": "entrance", "lat": 40.6834, "lng": -73.944054}], "distance": 463, "postalCode": "11216", "cc": "US", "city": "Brooklyn", "state": "NY", "country": "United States", "formattedAddress": ["406 Tompkins Ave (Handcock)", "Brooklyn, NY 11216", "United States"]}, "categories": [{"id": "4bf58dd8d48988d1f5941735", "name": "Gourmet Shop", "pluralName": "Gourmet Shops", "shortName": "Gourmet", "icon": {"prefix": "https://ss3.4sqi.net/img/categories_v2/shops/food_gourmet_", "suffix": ".png"}, "primary": true}], "photos": {"count": 0, "groups": []}}, "referralId": "e-0-5712873a498e84909b079050-23"}, {"reasons": {"count": 0, "items": [{"summary": "This spot is popular", "type": "general", "reasonName": "globalInteractionReason"}]}, "venue": {"id": "52a67470498eafde6d4e14ee", "name": "Olive Leaf Gourmet", "location": {"address": "310 Halsey St", "crossStreet": "Throop", "lat": 40.683043, "lng": -73.940791, "labeledLatLngs": [{"label": "display", "lat": 40.683043, "lng": -73.940791}], "distance": 473, "postalCode": "11216", "cc": "US", "city": "Brooklyn", "state": "NY", "country": "United States", "formattedAddress": ["310 Halsey St (Throop)", "Brooklyn, NY 11216", "United States"]}, "categories": [{"id": "4bf58dd8d48988d146941735", "name": "Deli / Bodega", "pluralName": "Delis / Bodegas", "shortName": "Deli / Bodega", "icon": {"prefix": "https://ss3.4sqi.net/img/categories_v2/food/deli_", "suffix": ".png"}, "primary": true}], "photos": {"count": 0, "groups": []}}, "referralId": "e-0-52a67470498eafde6d4e14ee-24"}, {"reasons": {"count": 0, "items": [{"summary": "This spot is popular", "type": "general", "reasonName": "globalInteractionReason"}]}, "venue": {"id": "4f322f7919836c91c7be8a99", "name": "Three Star Deli", "location": {"address": "77 Van Buren St", "lat": 40.690251, "lng": -73.942552, "labeledLatLngs": [{"label": "display", "lat": 40.690251, "lng": -73.942552}], "distance": 342, "postalCode": "11221", "cc": "US", "city": "Brooklyn", "state": "NY", "country": "United States", "formattedAddress": ["77 Van Buren St", "Brooklyn, NY 11221", "United States"]}, "categories": [{"id": "4bf58dd8d48988d146941735", "name": "Deli / Bodega", "pluralName": "Delis / Bodegas", "shortName": "Deli / Bodega", "icon": {"prefix": "https://ss3.4sqi.net/img/categories_v2/food/deli_", "suffix": ".png"}, "primary": true}], "photos": {"count": 0, "groups": []}}, "referralId": "e-0-4f322f7919836c91c7be8a99-25"}, {"reasons": {"count": 0, "items": [{"summary": "This spot is popular", "type": "general", "reasonName": "globalInteractionReason"}]}, "venue": {"id": "525ac2d4498e205d4d4b0868", "name": "Double 7 Deli &Grill", "location": {"address": "77 Van Buren St", "crossStreet": "Throop Avenue", "lat": 40.690296999999994, "lng": -73.942572, "labeledLatLngs": [{"label": "display", "lat": 40.690296999999994, "lng": -73.942572}], "distance": 347, "postalCode": "11221", "cc": "US", "city": "Brooklyn", "state": "NY", "country": "United States", "formattedAddress": ["77 Van Buren St (Throop Avenue)", "Brooklyn, NY 11221", "United States"]}, "categories": [{"id": "4bf58dd8d48988d146941735", "name": "Deli / Bodega", "pluralName": "Delis / Bodegas", "shortName": "Deli / Bodega", "icon": {"prefix": "https://ss3.4sqi.net/img/categories_v2/food/deli_", "suffix": ".png"}, "primary": true}], "photos": {"count": 0, "groups": []}}, "referralId": "e-0-525ac2d4498e205d4d4b0868-26"}, {"reasons": {"count": 0, "items": [{"summary": "This spot is popular", "type": "general", "reasonName": "globalInteractionReason"}]}, "venue": {"id": "5500f256498ebcee44b09dcf", "name": "MTA Bus - B38/B38LTD - Lafayette Ave & Marcus Garvey", "location": {"lat": 40.6911115007244, "lng": -73.9403133067814, "labeledLatLngs": [{"label": "display", "lat": 40.6911115007244, "lng": -73.9403133067814}], "distance": 449, "cc": "US", "city": "Brooklyn", "state": "NY", "country": "United States", "formattedAddress": ["Brooklyn, NY", "United States"]}, "categories": [{"id": "52f2ab2ebcbc57f1066b8b4f", "name": "Bus Stop", "pluralName": "Bus Stops", "shortName": "Bus Stop", "icon": {"prefix": "https://ss3.4sqi.net/img/categories_v2/travel/busstation_", "suffix": ".png"}, "primary": true}], "photos": {"count": 0, "groups": []}}, "referralId": "e-0-5500f256498ebcee44b09dcf-27"}, {"reasons": {"count": 0, "items": [{"summary": "This spot is popular", "type": "general", "reasonName": "globalInteractionReason"}]}, "venue": {"id": "50b131b0e4b045752bd248e7", "name": "Brooklyn Stuy Dome", "location": {"address": "308 Kosciusko Street", "lat": 40.69163, "lng": -73.94181, "labeledLatLngs": [{"label": "display", "lat": 40.69163, "lng": -73.94181}], "distance": 489, "postalCode": "11233", "cc": "US", "city": "Brooklyn", "state": "NY", "country": "United States", "formattedAddress": ["308 Kosciusko Street", "Brooklyn, NY 11233", "United States"]}, "categories": [{"id": "4bf58dd8d48988d1e1941735", "name": "Basketball Court", "pluralName": "Basketball Courts", "shortName": "Basketball Court", "icon": {"prefix": "https://ss3.4sqi.net/img/categories_v2/parks_outdoors/basketballcourt_", "suffix": ".png"}, "primary": true}], "photos": {"count": 0, "groups": []}}, "referralId": "e-0-50b131b0e4b045752bd248e7-28"}]