[{"reasons": {"count": 0, "items": [{"summary": "This spot is popular", "type": "general", "reasonName": "globalInteractionReason"}]}, "venue": {"id": "4ba7c919f964a52026b339e3", "name": "Orchidea", "location": {"address": "4815 12th Ave", "lat": 40.636390000000006, "lng": -73.993899, "labeledLatLngs": [{"label": "display", "lat": 40.636390000000006, "lng": -73.993899}, {"label": "entrance", "lat": 40.636427, "lng": -73.994061}], "distance": 462, "postalCode": "11219", "cc": "US", "city": "Brooklyn", "state": "NY", "country": "United States", "formattedAddress": ["4815 12th Ave", "Brooklyn, NY 11219", "United States"]}, "categories": [{"id": "4bf58dd8d48988d14e941735", "name": "American Restaurant", "pluralName": "American Restaurants", "shortName": "American", "icon": {"prefix": "https://ss3.4sqi.net/img/categories_v2/food/default_", "suffix": ".png"}, "primary": true}], "photos": {"count": 0, "groups": []}, "venuePage": {"id": "73658019"}}, "referralId": "e-0-4ba7c919f964a52026b339e3-0"}, {"reasons": {"count": 0, "items": [{"summary": "This spot is popular", "type": "general", "reasonName": "globalInteractionReason"}]}, "venue": {"id": "4b5b86c6f964a520cc0429e3", "name": "Amnon's Pizza", "location": {"address": "4814 13th Ave", "crossStreet": "between 48th St & 49th St", "lat": 40.63528768356099, "lng": -73.99192730400661, "labeledLatLngs": [{"label": "display", "lat": 40.63528768356099, "lng": -73.99192730400661}, {"label": "entrance", "lat": 40.635352, "lng": -73.99196}], "distance": 268, "postalCode": "11219", "cc": "US", "city": "Brooklyn", "state": "NY", "country": "United States", "formattedAddress": ["4814 13th Ave (between 48th St & 49th St)", "Brooklyn, NY 11219", "United States"]}, "categories": [{"id": "4bf58dd8d48988d1ca941735", "name": "Pizza Place", "pluralName": "Pizza Places", "shortName": "Pizza", "icon": {"prefix": "https://ss3.4sqi.net/img/categories_v2/food/pizza_", "suffix": ".png"}, "primary": true}], "delivery": {"id": "2039657", "url": "https://www.seamless.com/menu/amnons-pizza-4814-13th-ave-brooklyn/2039657?affiliate=1131&utm_source=foursquare-affiliate-network&utm_medium=affiliate&utm_campaign=1131&utm_content=2039657", "provider": {"name": "seamless", "icon": {"prefix": "https://fastly.4sqi.net/img/general/cap/", "sizes": [40, 50], "name": "/delivery_provider_seamless_20180129.png"}}}, "photos": {"count": 0, "groups": []}}, "referralId": "e-0-4b5b86c6f964a520cc0429e3-1"}, {"reasons": {"count": 0, "items": [{"summary": "This spot is popular", "type": "general", "reasonName": "globalInteractionReason"}]}, "venue": {"id": "4c3c846fb36ac928412c0486", "name": "Chase Bank", "location": {"address": "4901 13th Ave", "lat": 40.634778489400276, "lng": -73.99202138185501, "labeledLatLngs": [{"label": "display", "lat": 40.634778489400276, "lng": -73.99202138185501}, {"label": "entrance", "lat": 40.634844, "lng": -73.992117}], "distance": 224, "postalCode": "11219", "cc": "US", "city": "Brooklyn", "state": "NY", "country": "United States", "formattedAddress": ["4901 13th Ave", "Brooklyn, NY 11219", "United States"]}, "categories": [{"id": "4bf58dd8d48988d10a951735", "name": "Bank", "pluralName": "Banks", "shortName": "Bank", "icon": {"prefix": "https://ss3.4sqi.net/img/categories_v2/shops/financial_", "suffix": ".png"}, "primary": true}], "photos": {"count": 0, "groups": []}}, "referralId": "e-0-4c3c846fb36ac928412c0486-2"}, {"reasons": {"count": 0, "items": [{"summary": "This spot is popular", "type": "general", "reasonName": "globalInteractionReason"}]}, "venue": {"id": "4c095866009a0f47029ce7bf", "name": "Chase Bank", "location": {"address": "4724 13th Ave", "crossStreet": "at 48st St", "lat": 40.635845, "lng": -73.991701, "labeledLatLngs": [{"label": "display", "lat": 40.635845, "lng": -73.991701}, {"label": "entrance", "lat": 40.635879, "lng": -73.991413}], "distance": 318, "postalCode": "11219", "cc": "US", "city": "Brooklyn", "state": "NY", "country": "United States", "formattedAddress": ["4724 13th Ave (at 48st St)", "Brooklyn, NY 11219", "United States"]}, "categories": [{"id": "4bf58dd8d48988d10a951735", "name": "Bank", "pluralName": "Banks", "shortName": "Bank", "icon": {"prefix": "https://ss3.4sqi.net/img/categories_v2/shops/financial_", "suffix": ".png"}, "primary": true}], "photos": {"count": 0, "groups": []}}, "referralId": "e-0-4c095866009a0f47029ce7bf-3"}, {"reasons": {"count": 0, "items": [{"summary": "This spot is popular", "type": "general", "reasonName": "globalInteractionReason"}]}, "venue": {"id": "4c48c9db6594be9ab37f3524", "name": "Sub express", "location": {"address": "5219 13th Ave", "crossStreet": "53rd street", "lat": 40.632764, "lng": -73.994078, "labeledLatLngs": [{"label": "display", "lat": 40.632764, "lng": -73.994078}, {"label": "entrance", "lat": 40.632885, "lng": -73.994158}], "distance": 305, "postalCode": "11219", "cc": "US", "city": "Brooklyn", "state": "NY", "country": "United States", "formattedAddress": ["5219 13th Ave (53rd street)", "Brooklyn, NY 11219", "United States"]}, "categories": [{"id": "4bf58dd8d48988d16e941735", "name": "Fast Food Restaurant", "pluralName": "Fast Food Restaurants", "shortName": "Fast Food", "icon": {"prefix": "https://ss3.4sqi.net/img/categories_v2/food/fastfood_", "suffix": ".png"}, "primary": true}], "photos": {"count": 0, "groups": []}}, "referralId": "e-0-4c48c9db6594be9ab37f3524-4"}, {"reasons": {"count": 0, "items": [{"summary": "This spot is popular", "type": "general", "reasonName": "globalInteractionReason"}]}, "venue": {"id": "5318a567498ea3ae5fef03b6", "name": "GoBo's", "location": {"address": "5425 New Utrecht Ave", "crossStreet": "55th And New Utrecht", "lat": 40.631559, "lng": -73.995199, "labeledLatLngs": [{"label": "display", "lat": 40.631559, "lng": -73.995199}, {"label": "entrance", "lat": 40.631605, "lng": -73.995278}], "distance": 433, "postalCode": "11219", "cc": "US", "city": "Brooklyn", "state": "NY", "country": "United States", "formattedAddress": ["5425 New Utrecht Ave (55th And New Utrecht)", "Brooklyn, NY 11219", "United States"]}, "categories": [{"id": "4bf58dd8d48988d16d941735", "name": "Caf\u00e9", "pluralName": "Caf\u00e9s", "shortName": "Caf\u00e9", "icon": {"prefix": "https://ss3.4sqi.net/img/categories_v2/food/cafe_", "suffix": ".png"}, "primary": true}], "photos": {"count": 0, "groups": []}}, "referralId": "e-0-5318a567498ea3ae5fef03b6-5"}, {"reasons": {"count": 0, "items": [{"summary": "This spot is popular", "type": "general", "reasonName": "globalInteractionReason"}]}, "venue": {"id": "55ef5340498eb1fd97754344", "name": "1982 Coffee Roasters", "location": {"address": "5405 13th Ave", "lat": 40.631909, "lng": -73.994964, "labeledLatLngs": [{"label": "display", "lat": 40.631909, "lng": -73.994964}], "distance": 401, "postalCode": "11219", "cc": "US", "city": "Brooklyn", "state": "NY", "country": "United States", "formattedAddress": ["5405 13th Ave", "Brooklyn, NY 11219", "United States"]}, "categories": [{"id": "4bf58dd8d48988d1e0931735", "name": "Coffee Shop", "pluralName": "Coffee Shops", "shortName": "Coffee Shop", "icon": {"prefix": "https://ss3.4sqi.net/img/categories_v2/food/coffeeshop_", "suffix": ".png"}, "primary": true}], "photos": {"count": 0, "groups": []}}, "referralId": "e-0-55ef5340498eb1fd97754344-6"}, {"reasons": {"count": 0, "items": [{"summary": "This spot is popular", "type": "general", "reasonName": "globalInteractionReason"}]}, "venue": {"id": "4ce18c63db125481f58642ce", "name": "Dagan Pizza & Dairy Restaurant", "location": {"address": "4820 16th Ave", "lat": 40.63126305944451, "lng": -73.98538657826741, "labeledLatLngs": [{"label": "display", "lat": 40.63126305944451, "lng": -73.98538657826741}, {"label": "entrance", "lat": 40.631278, "lng": -73.985445}], "distance": 479, "postalCode": "11204", "cc": "US", "city": "Brooklyn", "state": "NY", "country": "United States", "formattedAddress": ["4820 16th Ave", "Brooklyn, NY 11204", "United States"]}, "categories": [{"id": "4bf58dd8d48988d1ca941735", "name": "Pizza Place", "pluralName": "Pizza Places", "shortName": "Pizza", "icon": {"prefix": "https://ss3.4sqi.net/img/categories_v2/food/pizza_", "suffix": ".png"}, "primary": true}], "photos": {"count": 0, "groups": []}}, "referralId": "e-0-4ce18c63db125481f58642ce-7"}, {"reasons": {"count": 0, "items": [{"summary": "This spot is popular", "type": "general", "reasonName": "globalInteractionReason"}]}, "venue": {"id": "4d458e531911a093724ce3d8", "name": "Rite Aid", "location": {"address": "5102 13th Ave", "lat": 40.6338602, "lng": -73.9936444, "labeledLatLngs": [{"label": "display", "lat": 40.6338602, "lng": -73.9936444}], "distance": 277, "postalCode": "11219", "cc": "US", "city": "Brooklyn", "state": "NY", "country": "United States", "formattedAddress": ["5102 13th Ave", "Brooklyn, NY 11219", "United States"]}, "categories": [{"id": "4bf58dd8d48988d10f951735", "name": "Pharmacy", "pluralName": "Pharmacies", "shortName": "Pharmacy", "icon": {"prefix": "https://ss3.4sqi.net/img/categories_v2/shops/pharmacy_", "suffix": ".png"}, "primary": true}], "photos": {"count": 0, "groups": []}}, "referralId": "e-0-4d458e531911a093724ce3d8-8"}, {"reasons": {"count": 0, "items": [{"summary": "This spot is popular", "type": "general", "reasonName": "globalInteractionReason"}]}, "venue": {"id": "4c73c5e50e23b1f70a3121dc", "name": "Capital One Bank", "location": {"address": "4612 13th Ave", "lat": 40.636571, "lng": -73.990898, "labeledLatLngs": [{"label": "display", "lat": 40.636571, "lng": -73.990898}, {"label": "entrance", "lat": 40.636496, "lng": -73.990773}], "distance": 384, "postalCode": "11219", "cc": "US", "city": "Brooklyn", "state": "NY", "country": "United States", "formattedAddress": ["4612 13th Ave", "Brooklyn, NY 11219", "United States"]}, "categories": [{"id": "4bf58dd8d48988d10a951735", "name": "Bank", "pluralName": "Banks", "shortName": "Bank", "icon": {"prefix": "https://ss3.4sqi.net/img/categories_v2/shops/financial_", "suffix": ".png"}, "primary": true}], "photos": {"count": 0, "groups": []}}, "referralId": "e-0-4c73c5e50e23b1f70a3121dc-9"}, {"reasons": {"count": 0, "items": [{"summary": "This spot is popular", "type": "general", "reasonName": "globalInteractionReason"}]}, "venue": {"id": "4bf0946b21072d7f032b208b", "name": "Deli 52", "location": {"address": "5120 13th Ave", "lat": 40.633637, "lng": -73.99397900000001, "labeledLatLngs": [{"label": "display", "lat": 40.633637, "lng": -73.99397900000001}, {"label": "entrance", "lat": 40.633552, "lng": -73.993839}], "distance": 299, "postalCode": "11219", "cc": "US", "city": "Brooklyn", "state": "NY", "country": "United States", "formattedAddress": ["5120 13th Ave", "Brooklyn, NY 11219", "United States"]}, "categories": [{"id": "4bf58dd8d48988d146941735", "name": "Deli / Bodega", "pluralName": "Delis / Bodegas", "shortName": "Deli / Bodega", "icon": {"prefix": "https://ss3.4sqi.net/img/categories_v2/food/deli_", "suffix": ".png"}, "primary": true}], "photos": {"count": 0, "groups": []}}, "referralId": "e-0-4bf0946b21072d7f032b208b-10"}, {"reasons": {"count": 0, "items": [{"summary": "This spot is popular", "type": "general", "reasonName": "globalInteractionReason"}]}, "venue": {"id": "4a3ec622f964a52068a31fe3", "name": "Spoons", "location": {"address": "5001 13th Ave", "crossStreet": "at 50th St.", "lat": 40.63436380019326, "lng": -73.9926243715797, "labeledLatLngs": [{"label": "display", "lat": 40.63436380019326, "lng": -73.9926243715797}, {"label": "entrance", "lat": 40.634311, "lng": -73.992675}], "distance": 226, "postalCode": "11219", "cc": "US", "city": "Brooklyn", "state": "NY", "country": "United States", "formattedAddress": ["5001 13th Ave (at 50th St.)", "Brooklyn, NY 11219", "United States"]}, "categories": [{"id": "4bf58dd8d48988d1c4941735", "name": "Restaurant", "pluralName": "Restaurants", "shortName": "Restaurant", "icon": {"prefix": "https://ss3.4sqi.net/img/categories_v2/food/default_", "suffix": ".png"}, "primary": true}], "photos": {"count": 0, "groups": []}}, "referralId": "e-0-4a3ec622f964a52068a31fe3-11"}, {"reasons": {"count": 0, "items": [{"summary": "This spot is popular", "type": "general", "reasonName": "globalInteractionReason"}]}, "venue": {"id": "4c8f8d10d68c6dcba53905a2", "name": "TD Bank", "location": {"address": "4526 13th Ave", "lat": 40.63694948048493, "lng": -73.99044384063922, "labeledLatLngs": [{"label": "display", "lat": 40.63694948048493, "lng": -73.99044384063922}], "distance": 425, "postalCode": "11219", "cc": "US", "city": "Brooklyn", "state": "NY", "country": "United States", "formattedAddress": ["4526 13th Ave", "Brooklyn, NY 11219", "United States"]}, "categories": [{"id": "4bf58dd8d48988d10a951735", "name": "Bank", "pluralName": "Banks", "shortName": "Bank", "icon": {"prefix": "https://ss3.4sqi.net/img/categories_v2/shops/financial_", "suffix": ".png"}, "primary": true}], "photos": {"count": 0, "groups": []}}, "referralId": "e-0-4c8f8d10d68c6dcba53905a2-12"}, {"reasons": {"count": 0, "items": [{"summary": "This spot is popular", "type": "general", "reasonName": "globalInteractionReason"}]}, "venue": {"id": "50ef0efb3950be41c0dc99ce", "name": "Park House Hotel", "location": {"address": "1206 48th St", "crossStreet": "12th Ave", "lat": 40.636598, "lng": -73.99368100000001, "labeledLatLngs": [{"label": "display", "lat": 40.636598, "lng": -73.99368100000001}, {"label": "entrance", "lat": 40.636638, "lng": -73.993636}], "distance": 470, "postalCode": "11219", "cc": "US", "city": "Brooklyn", "state": "NY", "country": "United States", "formattedAddress": ["1206 48th St (12th Ave)", "Brooklyn, NY 11219", "United States"]}, "categories": [{"id": "4bf58dd8d48988d1fa931735", "name": "Hotel", "pluralName": "Hotels", "shortName": "Hotel", "icon": {"prefix": "https://ss3.4sqi.net/img/categories_v2/travel/hotel_", "suffix": ".png"}, "primary": true}], "photos": {"count": 0, "groups": []}, "venuePage": {"id": "92431746"}}, "referralId": "e-0-50ef0efb3950be41c0dc99ce-13"}, {"reasons": {"count": 0, "items": [{"summary": "This spot is popular", "type": "general", "reasonName": "globalInteractionReason"}]}, "venue": {"id": "504784aae4b04727861de469", "name": "Buzz", "location": {"lat": 40.63447178586171, "lng": -73.99250385555122, "labeledLatLngs": [{"label": "display", "lat": 40.63447178586171, "lng": -73.99250385555122}], "distance": 225, "postalCode": "11219", "cc": "US", "city": "Brooklyn", "state": "NY", "country": "United States", "formattedAddress": ["Brooklyn, NY 11219", "United States"]}, "categories": [{"id": "4bf58dd8d48988d122951735", "name": "Electronics Store", "pluralName": "Electronics Stores", "shortName": "Electronics", "icon": {"prefix": "https://ss3.4sqi.net/img/categories_v2/shops/technology_", "suffix": ".png"}, "primary": true}], "photos": {"count": 0, "groups": []}}, "referralId": "e-0-504784aae4b04727861de469-14"}, {"reasons": {"count": 0, "items": [{"summary": "This spot is popular", "type": "general", "reasonName": "globalInteractionReason"}]}, "venue": {"id": "4c980d7bf419a093e4cd6c88", "name": "Schnitzis", "location": {"address": "5326 New Utrecht Ave", "lat": 40.632642, "lng": -73.995471, "labeledLatLngs": [{"label": "display", "lat": 40.632642, "lng": -73.995471}, {"label": "entrance", "lat": 40.63263, "lng": -73.995397}], "distance": 423, "postalCode": "11219", "cc": "US", "city": "Brooklyn", "state": "NY", "country": "United States", "formattedAddress": ["5326 New Utrecht Ave", "Brooklyn, NY 11219", "United States"]}, "categories": [{"id": "4bf58dd8d48988d16e941735", "name": "Fast Food Restaurant", "pluralName": "Fast Food Restaurants", "shortName": "Fast Food", "icon": {"prefix": "https://ss3.4sqi.net/img/categories_v2/food/fastfood_", "suffix": ".png"}, "primary": true}], "photos": {"count": 0, "groups": []}}, "referralId": "e-0-4c980d7bf419a093e4cd6c88-15"}, {"reasons": {"count": 0, "items": [{"summary": "This spot is popular", "type": "general", "reasonName": "globalInteractionReason"}]}, "venue": {"id": "4cac93b08f029eb0e885548f", "name": "Duane Reade", "location": {"address": "4714 16th Ave", "crossStreet": "at 47th St.", "lat": 40.63184735626117, "lng": -73.98488938808447, "labeledLatLngs": [{"label": "display", "lat": 40.63184735626117, "lng": -73.98488938808447}], "distance": 494, "postalCode": "11204", "cc": "US", "city": "Brooklyn", "state": "NY", "country": "United States", "formattedAddress": ["4714 16th Ave (at 47th St.)", "Brooklyn, NY 11204", "United States"]}, "categories": [{"id": "4bf58dd8d48988d10f951735", "name": "Pharmacy", "pluralName": "Pharmacies", "shortName": "Pharmacy", "icon": {"prefix": "https://ss3.4sqi.net/img/categories_v2/shops/pharmacy_", "suffix": ".png"}, "primary": true}], "photos": {"count": 0, "groups": []}}, "referralId": "e-0-4cac93b08f029eb0e885548f-16"}, {"reasons": {"count": 0, "items": [{"summary": "This spot is popular", "type": "general", "reasonName": "globalInteractionReason"}]}, "venue": {"id": "4bbb7ef29858d13ac66b33a2", "name": "Benny's Famous Pizza", "location": {"address": "4514 13th Ave", "crossStreet": "btwn 45th & 46th St.", "lat": 40.6370315, "lng": -73.99008066666667, "labeledLatLngs": [{"label": "display", "lat": 40.6370315, "lng": -73.99008066666667}], "distance": 435, "postalCode": "11219", "cc": "US", "city": "Brooklyn", "state": "NY", "country": "United States", "formattedAddress": ["4514 13th Ave (btwn 45th & 46th St.)", "Brooklyn, NY 11219", "United States"]}, "categories": [{"id": "4bf58dd8d48988d1ca941735", "name": "Pizza Place", "pluralName": "Pizza Places", "shortName": "Pizza", "icon": {"prefix": "https://ss3.4sqi.net/img/categories_v2/food/pizza_", "suffix": ".png"}, "primary": true}], "photos": {"count": 0, "groups": []}}, "referralId": "e-0-4bbb7ef29858d13ac66b33a2-17"}, {"reasons": {"count": 0, "items": [{"summary": "This spot is popular", "type": "general", "reasonName": "globalInteractionReason"}]}, "venue": {"id": "4cd8ec756e8b5941045064d2", "name": "MTA Subway - 55th St (D)", "location": {"address": "194 55th St.", "crossStreet": "13th Ave. & 55th St.", "lat": 40.63164244295508, "lng": -73.99550525683642, "labeledLatLngs": [{"label": "display", "lat": 40.63164244295508, "lng": -73.99550525683642}], "distance": 454, "postalCode": "11220", "cc": "US", "city": "Brooklyn", "state": "NY", "country": "United States", "formattedAddress": ["194 55th St. (13th Ave. & 55th St.)", "Brooklyn, NY 11220", "United States"]}, "categories": [{"id": "4bf58dd8d48988d1fd931735", "name": "Metro Station", "pluralName": "Metro Stations", "shortName": "Metro", "icon": {"prefix": "https://ss3.4sqi.net/img/categories_v2/travel/subway_", "suffix": ".png"}, "primary": true}], "photos": {"count": 0, "groups": []}}, "referralId": "e-0-4cd8ec756e8b5941045064d2-18"}, {"reasons": {"count": 0, "items": [{"summary": "This spot is popular", "type": "general", "reasonName": "globalInteractionReason"}]}, "venue": {"id": "4e2d9255c65bcaf4004439db", "name": "Cracovia", "location": {"address": "5503 13th Ave", "lat": 40.631181, "lng": -73.995791, "labeledLatLngs": [{"label": "display", "lat": 40.631181, "lng": -73.995791}, {"label": "entrance", "lat": 40.631206, "lng": -73.995903}], "distance": 497, "postalCode": "11219", "cc": "US", "city": "Brooklyn", "state": "NY", "country": "United States", "formattedAddress": ["5503 13th Ave", "Brooklyn, NY 11219", "United States"]}, "categories": [{"id": "4bf58dd8d48988d146941735", "name": "Deli / Bodega", "pluralName": "Delis / Bodegas", "shortName": "Deli / Bodega", "icon": {"prefix": "https://ss3.4sqi.net/img/categories_v2/food/deli_", "suffix": ".png"}, "primary": true}], "photos": {"count": 0, "groups": []}}, "referralId": "e-0-4e2d9255c65bcaf4004439db-19"}]