[{"reasons": {"count": 0, "items": [{"summary": "This spot is popular", "type": "general", "reasonName": "globalInteractionReason"}]}, "venue": {"id": "4bc5fe25f360ef3b29f1da2d", "name": "Original Mike's Pizza", "location": {"address": "3337 Fulton St", "lat": 40.68360015531762, "lng": -73.8724819066971, "labeledLatLngs": [{"label": "display", "lat": 40.68360015531762, "lng": -73.8724819066971}, {"label": "entrance", "lat": 40.683683, "lng": -73.872519}], "distance": 374, "postalCode": "11208", "cc": "US", "city": "Brooklyn", "state": "NY", "country": "United States", "formattedAddress": ["3337 Fulton St", "Brooklyn, NY 11208", "United States"]}, "categories": [{"id": "4bf58dd8d48988d1ca941735", "name": "Pizza Place", "pluralName": "Pizza Places", "shortName": "Pizza", "icon": {"prefix": "https://ss3.4sqi.net/img/categories_v2/food/pizza_", "suffix": ".png"}, "primary": true}], "delivery": {"id": "286333", "url": "https://www.seamless.com/menu/mikes-pizza-3337-fulton-st-brooklyn/286333?affiliate=1131&utm_source=foursquare-affiliate-network&utm_medium=affiliate&utm_campaign=1131&utm_content=286333", "provider": {"name": "seamless", "icon": {"prefix": "https://fastly.4sqi.net/img/general/cap/", "sizes": [40, 50], "name": "/delivery_provider_seamless_20180129.png"}}}, "photos": {"count": 0, "groups": []}}, "referralId": "e-0-4bc5fe25f360ef3b29f1da2d-0"}, {"reasons": {"count": 0, "items": [{"summary": "This spot is popular", "type": "general", "reasonName": "globalInteractionReason"}]}, "venue": {"id": "51155739e4b013e49ab4a6fb", "name": "Barzola", "location": {"lat": 40.681656054552754, "lng": -73.87140462683874, "labeledLatLngs": [{"label": "display", "lat": 40.681656054552754, "lng": -73.87140462683874}], "distance": 447, "postalCode": "11208", "cc": "US", "city": "Brooklyn", "state": "NY", "country": "United States", "formattedAddress": ["Brooklyn, NY 11208", "United States"]}, "categories": [{"id": "4bf58dd8d48988d1cd941735", "name": "South American Restaurant", "pluralName": "South American Restaurants", "shortName": "South American", "icon": {"prefix": "https://ss3.4sqi.net/img/categories_v2/food/argentinian_", "suffix": ".png"}, "primary": true}], "delivery": {"id": "283541", "url": "https://www.seamless.com/menu/el-nuevo-barzola-3386-atlantic-ave-brooklyn/283541?affiliate=1131&utm_source=foursquare-affiliate-network&utm_medium=affiliate&utm_campaign=1131&utm_content=283541", "provider": {"name": "seamless", "icon": {"prefix": "https://fastly.4sqi.net/img/general/cap/", "sizes": [40, 50], "name": "/delivery_provider_seamless_20180129.png"}}}, "photos": {"count": 0, "groups": []}}, "referralId": "e-0-51155739e4b013e49ab4a6fb-1"}, {"reasons": {"count": 0, "items": [{"summary": "This spot is popular", "type": "general", "reasonName": "globalInteractionReason"}]}, "venue": {"id": "52c3386d498efc4e17033e78", "name": "McDonald's", "location": {"address": "3143 Atlantic Ave", "lat": 40.67982955430789, "lng": -73.87916542970288, "labeledLatLngs": [{"label": "display", "lat": 40.67982955430789, "lng": -73.87916542970288}], "distance": 357, "postalCode": "11208", "cc": "US", "city": "Brooklyn", "state": "NY", "country": "United States", "formattedAddress": ["3143 Atlantic Ave", "Brooklyn, NY 11208", "United States"]}, "categories": [{"id": "4bf58dd8d48988d16e941735", "name": "Fast Food Restaurant", "pluralName": "Fast Food Restaurants", "shortName": "Fast Food", "icon": {"prefix": "https://ss3.4sqi.net/img/categories_v2/food/fastfood_", "suffix": ".png"}, "primary": true}], "delivery": {"id": "1339330", "url": "https://www.seamless.com/menu/mcdonalds-3143-atlantic-ave-brooklyn/1339330?affiliate=1131&utm_source=foursquare-affiliate-network&utm_medium=affiliate&utm_campaign=1131&utm_content=1339330", "provider": {"name": "seamless", "icon": {"prefix": "https://fastly.4sqi.net/img/general/cap/", "sizes": [40, 50], "name": "/delivery_provider_seamless_20180129.png"}}}, "photos": {"count": 0, "groups": []}}, "referralId": "e-0-52c3386d498efc4e17033e78-2"}, {"reasons": {"count": 0, "items": [{"summary": "This spot is popular", "type": "general", "reasonName": "globalInteractionReason"}]}, "venue": {"id": "4c6457b058810f47e7f30b1e", "name": "El Gran Mar de Plata", "location": {"address": "3175 Fulton St", "lat": 40.68216987577137, "lng": -73.87786514645846, "labeledLatLngs": [{"label": "display", "lat": 40.68216987577137, "lng": -73.87786514645846}, {"label": "entrance", "lat": 40.682209, "lng": -73.877622}], "distance": 108, "postalCode": "11208", "cc": "US", "city": "Brooklyn", "state": "NY", "country": "United States", "formattedAddress": ["3175 Fulton St", "Brooklyn, NY 11208", "United States"]}, "categories": [{"id": "4bf58dd8d48988d1be941735", "name": "Latin American Restaurant", "pluralName": "Latin American Restaurants", "shortName": "Latin American", "icon": {"prefix": "https://ss3.4sqi.net/img/categories_v2/food/latinamerican_", "suffix": ".png"}, "primary": true}], "delivery": {"id": "317124", "url": "https://www.seamless.com/menu/el-gran-mar-de-plata-restaurant-3175-fulton-st-brooklyn/317124?affiliate=1131&utm_source=foursquare-affiliate-network&utm_medium=affiliate&utm_campaign=1131&utm_content=317124", "provider": {"name": "seamless", "icon": {"prefix": "https://fastly.4sqi.net/img/general/cap/", "sizes": [40, 50], "name": "/delivery_provider_seamless_20180129.png"}}}, "photos": {"count": 0, "groups": []}}, "referralId": "e-0-4c6457b058810f47e7f30b1e-3"}, {"reasons": {"count": 0, "items": [{"summary": "This spot is popular", "type": "general", "reasonName": "globalInteractionReason"}]}, "venue": {"id": "4f91bd9e7beb818efa884105", "name": "Baskin-Robbins", "location": {"address": "3319 Fulton St, Crescent St (J,Z Train)", "lat": 40.6835955629361, "lng": -73.87304106701389, "labeledLatLngs": [{"label": "display", "lat": 40.6835955629361, "lng": -73.87304106701389}, {"label": "entrance", "lat": 40.683493, "lng": -73.873075}], "distance": 330, "postalCode": "11208", "cc": "US", "city": "Brooklyn", "state": "NY", "country": "United States", "formattedAddress": ["3319 Fulton St, Crescent St (J,Z Train)", "Brooklyn, NY 11208", "United States"]}, "categories": [{"id": "4bf58dd8d48988d1c9941735", "name": "Ice Cream Shop", "pluralName": "Ice Cream Shops", "shortName": "Ice Cream", "icon": {"prefix": "https://ss3.4sqi.net/img/categories_v2/food/icecream_", "suffix": ".png"}, "primary": true}], "photos": {"count": 0, "groups": []}}, "referralId": "e-0-4f91bd9e7beb818efa884105-4"}, {"reasons": {"count": 0, "items": [{"summary": "This spot is popular", "type": "general", "reasonName": "globalInteractionReason"}]}, "venue": {"id": "4cd8885551fc8cfaa519ea5d", "name": "Family Dollar", "location": {"address": "3118 Fulton St", "crossStreet": "Shepherd Ave & Atlantic", "lat": 40.681206, "lng": -73.879874, "labeledLatLngs": [{"label": "display", "lat": 40.681206, "lng": -73.879874}, {"label": "entrance", "lat": 40.681343, "lng": -73.879914}], "distance": 305, "postalCode": "11208", "cc": "US", "city": "Brooklyn", "state": "NY", "country": "United States", "formattedAddress": ["3118 Fulton St (Shepherd Ave & Atlantic)", "Brooklyn, NY 11208", "United States"]}, "categories": [{"id": "52dea92d3cf9994f4e043dbb", "name": "Discount Store", "pluralName": "Discount Stores", "shortName": "Discount Store", "icon": {"prefix": "https://ss3.4sqi.net/img/categories_v2/shops/discountstore_", "suffix": ".png"}, "primary": true}], "photos": {"count": 0, "groups": []}}, "referralId": "e-0-4cd8885551fc8cfaa519ea5d-5"}, {"reasons": {"count": 0, "items": [{"summary": "This spot is popular", "type": "general", "reasonName": "globalInteractionReason"}]}, "venue": {"id": "4ce11f7e69136dcb3f65e7e6", "name": "Dunkin'", "location": {"address": "245 Highland Pl", "crossStreet": "at Atlantic Ave", "lat": 40.67945277655429, "lng": -73.88049059755326, "labeledLatLngs": [{"label": "display", "lat": 40.67945277655429, "lng": -73.88049059755326}, {"label": "entrance", "lat": 40.679401, "lng": -73.880569}], "distance": 462, "postalCode": "11208", "cc": "US", "city": "Brooklyn", "state": "NY", "country": "United States", "formattedAddress": ["245 Highland Pl (at Atlantic Ave)", "Brooklyn, NY 11208", "United States"]}, "categories": [{"id": "4bf58dd8d48988d148941735", "name": "Donut Shop", "pluralName": "Donut Shops", "shortName": "Donuts", "icon": {"prefix": "https://ss3.4sqi.net/img/categories_v2/food/donuts_", "suffix": ".png"}, "primary": true}], "delivery": {"id": "1156927", "url": "https://www.seamless.com/menu/dunkin-245-highland-pl-brooklyn/1156927?affiliate=1131&utm_source=foursquare-affiliate-network&utm_medium=affiliate&utm_campaign=1131&utm_content=1156927", "provider": {"name": "seamless", "icon": {"prefix": "https://fastly.4sqi.net/img/general/cap/", "sizes": [40, 50], "name": "/delivery_provider_seamless_20180129.png"}}}, "photos": {"count": 0, "groups": []}}, "referralId": "e-0-4ce11f7e69136dcb3f65e7e6-6"}, {"reasons": {"count": 0, "items": [{"summary": "This spot is popular", "type": "general", "reasonName": "globalInteractionReason"}]}, "venue": {"id": "4d5c33bb1fd188bfc0780700", "name": "Capital One Bank", "location": {"address": "3345 Fulton St", "crossStreet": "Corner of Fulton & Crescent", "lat": 40.6839069, "lng": -73.8720131, "labeledLatLngs": [{"label": "display", "lat": 40.6839069, "lng": -73.8720131}, {"label": "entrance", "lat": 40.683816, "lng": -73.871979}], "distance": 423, "postalCode": "11208", "cc": "US", "city": "Brooklyn", "state": "NY", "country": "United States", "formattedAddress": ["3345 Fulton St (Corner of Fulton & Crescent)", "Brooklyn, NY 11208", "United States"]}, "categories": [{"id": "4bf58dd8d48988d10a951735", "name": "Bank", "pluralName": "Banks", "shortName": "Bank", "icon": {"prefix": "https://ss3.4sqi.net/img/categories_v2/shops/financial_", "suffix": ".png"}, "primary": true}], "photos": {"count": 0, "groups": []}}, "referralId": "e-0-4d5c33bb1fd188bfc0780700-7"}, {"reasons": {"count": 0, "items": [{"summary": "This spot is popular", "type": "general", "reasonName": "globalInteractionReason"}]}, "venue": {"id": "4c439a528c1f20a194583b99", "name": "Baskin-Robbins", "location": {"address": "245 Highland Pl, Corner of Atlantic Ave", "crossStreet": "Atlantic Ave", "lat": 40.67943034102861, "lng": -73.88046173390097, "labeledLatLngs": [{"label": "display", "lat": 40.67943034102861, "lng": -73.88046173390097}], "distance": 462, "postalCode": "11208", "cc": "US", "city": "Brooklyn", "state": "NY", "country": "United States", "formattedAddress": ["245 Highland Pl, Corner of Atlantic Ave (Atlantic Ave)", "Brooklyn, NY 11208", "United States"]}, "categories": [{"id": "4bf58dd8d48988d1c9941735", "name": "Ice Cream Shop", "pluralName": "Ice Cream Shops", "shortName": "Ice Cream", "icon": {"prefix": "https://ss3.4sqi.net/img/categories_v2/food/icecream_", "suffix": ".png"}, "primary": true}], "photos": {"count": 0, "groups": []}}, "referralId": "e-0-4c439a528c1f20a194583b99-8"}, {"reasons": {"count": 0, "items": [{"summary": "This spot is popular", "type": "general", "reasonName": "globalInteractionReason"}]}, "venue": {"id": "4dc7120e1f6ef43b8a3e75b4", "name": "KFC", "location": {"address": "3143 Atlantic Ave", "lat": 40.680080116666666, "lng": -73.87668, "labeledLatLngs": [{"label": "display", "lat": 40.680080116666666, "lng": -73.87668}], "distance": 257, "postalCode": "11208", "cc": "US", "neighborhood": "East New York", "city": "Brooklyn", "state": "NY", "country": "United States", "formattedAddress": ["3143 Atlantic Ave", "Brooklyn, NY 11208", "United States"]}, "categories": [{"id": "4d4ae6fc7a7b7dea34424761", "name": "Fried Chicken Joint", "pluralName": "Fried Chicken Joints", "shortName": "Fried Chicken", "icon": {"prefix": "https://ss3.4sqi.net/img/categories_v2/food/friedchicken_", "suffix": ".png"}, "primary": true}], "photos": {"count": 0, "groups": []}}, "referralId": "e-0-4dc7120e1f6ef43b8a3e75b4-9"}, {"reasons": {"count": 0, "items": [{"summary": "This spot is popular", "type": "general", "reasonName": "globalInteractionReason"}]}, "venue": {"id": "4bcf563f046076b0061d6e71", "name": "KFC", "location": {"address": "87-19 Jamaica Ave", "lat": 40.679959133333334, "lng": -73.879072, "labeledLatLngs": [{"label": "display", "lat": 40.679959133333334, "lng": -73.879072}], "distance": 340, "postalCode": "11421", "cc": "US", "city": "Woodhaven", "state": "NY", "country": "United States", "formattedAddress": ["87-19 Jamaica Ave", "Woodhaven, NY 11421", "United States"]}, "categories": [{"id": "4d4ae6fc7a7b7dea34424761", "name": "Fried Chicken Joint", "pluralName": "Fried Chicken Joints", "shortName": "Fried Chicken", "icon": {"prefix": "https://ss3.4sqi.net/img/categories_v2/food/friedchicken_", "suffix": ".png"}, "primary": true}], "photos": {"count": 0, "groups": []}}, "referralId": "e-0-4bcf563f046076b0061d6e71-10"}, {"reasons": {"count": 0, "items": [{"summary": "This spot is popular", "type": "general", "reasonName": "globalInteractionReason"}]}, "venue": {"id": "4da8c312a86e771ea6fb4ebd", "name": "Crown Fried Chicken", "location": {"address": "3149 Fulton St", "crossStreet": "btwn Logan St. & Norwood Ave.", "lat": 40.68181382906068, "lng": -73.8785776308024, "labeledLatLngs": [{"label": "display", "lat": 40.68181382906068, "lng": -73.8785776308024}], "distance": 177, "postalCode": "11208", "cc": "US", "city": "Brooklyn", "state": "NY", "country": "United States", "formattedAddress": ["3149 Fulton St (btwn Logan St. & Norwood Ave.)", "Brooklyn, NY 11208", "United States"]}, "categories": [{"id": "4d4ae6fc7a7b7dea34424761", "name": "Fried Chicken Joint", "pluralName": "Fried Chicken Joints", "shortName": "Fried Chicken", "icon": {"prefix": "https://ss3.4sqi.net/img/categories_v2/food/friedchicken_", "suffix": ".png"}, "primary": true}], "delivery": {"id": "347842", "url": "https://www.seamless.com/menu/crown-fried-chicken-3149-fulton-st-brooklyn/347842?affiliate=1131&utm_source=foursquare-affiliate-network&utm_medium=affiliate&utm_campaign=1131&utm_content=347842", "provider": {"name": "seamless", "icon": {"prefix": "https://fastly.4sqi.net/img/general/cap/", "sizes": [40, 50], "name": "/delivery_provider_seamless_20180129.png"}}}, "photos": {"count": 0, "groups": []}}, "referralId": "e-0-4da8c312a86e771ea6fb4ebd-11"}, {"reasons": {"count": 0, "items": [{"summary": "This spot is popular", "type": "general", "reasonName": "globalInteractionReason"}]}, "venue": {"id": "4d9f9515a77d816eb3240609", "name": "Toribio Restaurant", "location": {"address": "3169 Fulton St", "crossStreet": "Logan St", "lat": 40.6821421, "lng": -73.8781535, "labeledLatLngs": [{"label": "display", "lat": 40.6821421, "lng": -73.8781535}, {"label": "entrance", "lat": 40.682061, "lng": -73.878128}], "distance": 132, "postalCode": "11208", "cc": "US", "city": "Brooklyn", "state": "NY", "country": "United States", "formattedAddress": ["3169 Fulton St (Logan St)", "Brooklyn, NY 11208", "United States"]}, "categories": [{"id": "4bf58dd8d48988d1be941735", "name": "Latin American Restaurant", "pluralName": "Latin American Restaurants", "shortName": "Latin American", "icon": {"prefix": "https://ss3.4sqi.net/img/categories_v2/food/latinamerican_", "suffix": ".png"}, "primary": true}], "delivery": {"id": "320798", "url": "https://www.seamless.com/menu/el-toribio-3169-fulton-st-brooklyn/320798?affiliate=1131&utm_source=foursquare-affiliate-network&utm_medium=affiliate&utm_campaign=1131&utm_content=320798", "provider": {"name": "seamless", "icon": {"prefix": "https://fastly.4sqi.net/img/general/cap/", "sizes": [40, 50], "name": "/delivery_provider_seamless_20180129.png"}}}, "photos": {"count": 0, "groups": []}}, "referralId": "e-0-4d9f9515a77d816eb3240609-12"}, {"reasons": {"count": 0, "items": [{"summary": "This spot is popular", "type": "general", "reasonName": "globalInteractionReason"}]}, "venue": {"id": "4bfec4bb68c7a59389a73f44", "name": "Wendy\u2019s", "location": {"address": "3183 Atlantic Avenue", "lat": 40.680229176755745, "lng": -73.87792021036148, "labeledLatLngs": [{"label": "display", "lat": 40.680229176755745, "lng": -73.87792021036148}, {"label": "entrance", "lat": 40.680166, "lng": -73.87788}], "distance": 264, "postalCode": "11208", "cc": "US", "city": "Brooklyn", "state": "NY", "country": "United States", "formattedAddress": ["3183 Atlantic Avenue", "Brooklyn, NY 11208", "United States"]}, "categories": [{"id": "4bf58dd8d48988d16e941735", "name": "Fast Food Restaurant", "pluralName": "Fast Food Restaurants", "shortName": "Fast Food", "icon": {"prefix": "https://ss3.4sqi.net/img/categories_v2/food/fastfood_", "suffix": ".png"}, "primary": true}], "delivery": {"id": "1681489", "url": "https://www.seamless.com/menu/wendys-3183-atlantic-ave-brooklyn/1681489?affiliate=1131&utm_source=foursquare-affiliate-network&utm_medium=affiliate&utm_campaign=1131&utm_content=1681489", "provider": {"name": "seamless", "icon": {"prefix": "https://fastly.4sqi.net/img/general/cap/", "sizes": [40, 50], "name": "/delivery_provider_seamless_20180129.png"}}}, "photos": {"count": 0, "groups": []}}, "referralId": "e-0-4bfec4bb68c7a59389a73f44-13"}, {"reasons": {"count": 0, "items": [{"summary": "This spot is popular", "type": "general", "reasonName": "globalInteractionReason"}]}, "venue": {"id": "4b760c72f964a5201a392ee3", "name": "MTA Subway - Norwood Ave (J/Z)", "location": {"address": "Norwood Ave", "crossStreet": "Fulton St", "lat": 40.68167191101222, "lng": -73.87924307275753, "labeledLatLngs": [{"label": "display", "lat": 40.68167191101222, "lng": -73.87924307275753}], "distance": 235, "postalCode": "11208", "cc": "US", "city": "Brooklyn", "state": "NY", "country": "United States", "formattedAddress": ["Norwood Ave (Fulton St)", "Brooklyn, NY 11208", "United States"]}, "categories": [{"id": "4bf58dd8d48988d1fd931735", "name": "Metro Station", "pluralName": "Metro Stations", "shortName": "Metro", "icon": {"prefix": "https://ss3.4sqi.net/img/categories_v2/travel/subway_", "suffix": ".png"}, "primary": true}], "photos": {"count": 0, "groups": []}}, "referralId": "e-0-4b760c72f964a5201a392ee3-14"}, {"reasons": {"count": 0, "items": [{"summary": "This spot is popular", "type": "general", "reasonName": "globalInteractionReason"}]}, "venue": {"id": "4c31eaee16adc928663ec19c", "name": "Shell", "location": {"address": "3170 Atlantic Ave", "lat": 40.679499, "lng": -73.877938, "labeledLatLngs": [{"label": "display", "lat": 40.679499, "lng": -73.877938}], "distance": 340, "postalCode": "11208", "cc": "US", "city": "Brooklyn", "state": "NY", "country": "United States", "formattedAddress": ["3170 Atlantic Ave", "Brooklyn, NY 11208", "United States"]}, "categories": [{"id": "4bf58dd8d48988d113951735", "name": "Gas Station", "pluralName": "Gas Stations", "shortName": "Gas Station", "icon": {"prefix": "https://ss3.4sqi.net/img/categories_v2/shops/gas_", "suffix": ".png"}, "primary": true}], "photos": {"count": 0, "groups": []}}, "referralId": "e-0-4c31eaee16adc928663ec19c-15"}, {"reasons": {"count": 0, "items": [{"summary": "This spot is popular", "type": "general", "reasonName": "globalInteractionReason"}]}, "venue": {"id": "4bd351eb462cb7136726de07", "name": "Key Food", "location": {"address": "208 Crescent St", "crossStreet": "at Fulton St.", "lat": 40.68418116173651, "lng": -73.87240741554973, "labeledLatLngs": [{"label": "display", "lat": 40.68418116173651, "lng": -73.87240741554973}, {"label": "entrance", "lat": 40.684244, "lng": -73.872486}], "distance": 407, "postalCode": "11208", "cc": "US", "city": "Brooklyn", "state": "NY", "country": "United States", "formattedAddress": ["208 Crescent St (at Fulton St.)", "Brooklyn, NY 11208", "United States"]}, "categories": [{"id": "52f2ab2ebcbc57f1066b8b46", "name": "Supermarket", "pluralName": "Supermarkets", "shortName": "Supermarket", "icon": {"prefix": "https://ss3.4sqi.net/img/categories_v2/shops/food_grocery_", "suffix": ".png"}, "primary": true}], "photos": {"count": 0, "groups": []}}, "referralId": "e-0-4bd351eb462cb7136726de07-16"}, {"reasons": {"count": 0, "items": [{"summary": "This spot is popular", "type": "general", "reasonName": "globalInteractionReason"}]}, "venue": {"id": "4c857e58e602b1f74d73b87a", "name": "Dunkin'", "location": {"address": "3319 Fulton St", "crossStreet": "at Pine St", "lat": 40.683599079144386, "lng": -73.87304170234165, "labeledLatLngs": [{"label": "display", "lat": 40.683599079144386, "lng": -73.87304170234165}], "distance": 330, "postalCode": "11208", "cc": "US", "city": "Brooklyn", "state": "NY", "country": "United States", "formattedAddress": ["3319 Fulton St (at Pine St)", "Brooklyn, NY 11208", "United States"]}, "categories": [{"id": "4bf58dd8d48988d148941735", "name": "Donut Shop", "pluralName": "Donut Shops", "shortName": "Donuts", "icon": {"prefix": "https://ss3.4sqi.net/img/categories_v2/food/donuts_", "suffix": ".png"}, "primary": true}], "delivery": {"id": "1162214", "url": "https://www.seamless.com/menu/dunkin-3319-fulton-st-brooklyn/1162214?affiliate=1131&utm_source=foursquare-affiliate-network&utm_medium=affiliate&utm_campaign=1131&utm_content=1162214", "provider": {"name": "seamless", "icon": {"prefix": "https://fastly.4sqi.net/img/general/cap/", "sizes": [40, 50], "name": "/delivery_provider_seamless_20180129.png"}}}, "photos": {"count": 0, "groups": []}}, "referralId": "e-0-4c857e58e602b1f74d73b87a-17"}, {"reasons": {"count": 0, "items": [{"summary": "This spot is popular", "type": "general", "reasonName": "globalInteractionReason"}]}, "venue": {"id": "4c2a73052219c928b51aa348", "name": "Cityline Ballpark", "location": {"lat": 40.67973597758609, "lng": -73.8770436275628, "labeledLatLngs": [{"label": "display", "lat": 40.67973597758609, "lng": -73.8770436275628}], "distance": 297, "postalCode": "11208", "cc": "US", "city": "Brooklyn", "state": "NY", "country": "United States", "formattedAddress": ["Brooklyn, NY 11208", "United States"]}, "categories": [{"id": "4bf58dd8d48988d1e8941735", "name": "Baseball Field", "pluralName": "Baseball Fields", "shortName": "Baseball Field", "icon": {"prefix": "https://ss3.4sqi.net/img/categories_v2/parks_outdoors/baseballfield_", "suffix": ".png"}, "primary": true}], "photos": {"count": 0, "groups": []}}, "referralId": "e-0-4c2a73052219c928b51aa348-18"}, {"reasons": {"count": 0, "items": [{"summary": "This spot is popular", "type": "general", "reasonName": "globalInteractionReason"}]}, "venue": {"id": "53b16c7a11d217881a957256", "name": "Rainbow Shops", "location": {"address": "3310 Fulton St", "lat": 40.68314, "lng": -73.873181, "labeledLatLngs": [{"label": "display", "lat": 40.68314, "lng": -73.873181}, {"label": "entrance", "lat": 40.683253, "lng": -73.873212}], "distance": 301, "postalCode": "11208", "cc": "US", "city": "Brooklyn", "state": "NY", "country": "United States", "formattedAddress": ["3310 Fulton St", "Brooklyn, NY 11208", "United States"]}, "categories": [{"id": "4bf58dd8d48988d108951735", "name": "Women's Store", "pluralName": "Women's Stores", "shortName": "Women's Store", "icon": {"prefix": "https://ss3.4sqi.net/img/categories_v2/shops/apparel_women_", "suffix": ".png"}, "primary": true}], "photos": {"count": 0, "groups": []}}, "referralId": "e-0-53b16c7a11d217881a957256-19"}, {"reasons": {"count": 0, "items": [{"summary": "This spot is popular", "type": "general", "reasonName": "globalInteractionReason"}]}, "venue": {"id": "519804a1498e1556a5df2ed3", "name": "Cypress Pizzeria & Italian Restaurant", "location": {"address": "3326 Fulton St", "crossStreet": "Pine St", "lat": 40.683287, "lng": -73.872787, "labeledLatLngs": [{"label": "display", "lat": 40.683287, "lng": -73.872787}, {"label": "entrance", "lat": 40.683369, "lng": -73.872813}], "distance": 338, "postalCode": "11208", "cc": "US", "city": "Brooklyn", "state": "NY", "country": "United States", "formattedAddress": ["3326 Fulton St (Pine St)", "Brooklyn, NY 11208", "United States"]}, "categories": [{"id": "4bf58dd8d48988d1ca941735", "name": "Pizza Place", "pluralName": "Pizza Places", "shortName": "Pizza", "icon": {"prefix": "https://ss3.4sqi.net/img/categories_v2/food/pizza_", "suffix": ".png"}, "primary": true}], "delivery": {"id": "304345", "url": "https://www.seamless.com/menu/cypress-pizzeria-3326-fulton-st-brooklyn/304345?affiliate=1131&utm_source=foursquare-affiliate-network&utm_medium=affiliate&utm_campaign=1131&utm_content=304345", "provider": {"name": "seamless", "icon": {"prefix": "https://fastly.4sqi.net/img/general/cap/", "sizes": [40, 50], "name": "/delivery_provider_seamless_20180129.png"}}}, "photos": {"count": 0, "groups": []}}, "referralId": "e-0-519804a1498e1556a5df2ed3-20"}, {"reasons": {"count": 0, "items": [{"summary": "This spot is popular", "type": "general", "reasonName": "globalInteractionReason"}]}, "venue": {"id": "4c8d6aff5e38b1f78c273af9", "name": "Sing Yee Kitchen", "location": {"address": "3328 Fulton St", "crossStreet": "Crescent Street", "lat": 40.684193359538384, "lng": -73.87243252194615, "labeledLatLngs": [{"label": "display", "lat": 40.684193359538384, "lng": -73.87243252194615}], "distance": 406, "postalCode": "11208", "cc": "US", "city": "Brooklyn", "state": "NY", "country": "United States", "formattedAddress": ["3328 Fulton St (Crescent Street)", "Brooklyn, NY 11208", "United States"]}, "categories": [{"id": "4bf58dd8d48988d145941735", "name": "Chinese Restaurant", "pluralName": "Chinese Restaurants", "shortName": "Chinese", "icon": {"prefix": "https://ss3.4sqi.net/img/categories_v2/food/asian_", "suffix": ".png"}, "primary": true}], "photos": {"count": 0, "groups": []}}, "referralId": "e-0-4c8d6aff5e38b1f78c273af9-21"}, {"reasons": {"count": 0, "items": [{"summary": "This spot is popular", "type": "general", "reasonName": "globalInteractionReason"}]}, "venue": {"id": "52e1be6911d24f191c597eea", "name": "rico pollo 2", "location": {"lat": 40.68362732885206, "lng": -73.87197887057944, "labeledLatLngs": [{"label": "display", "lat": 40.68362732885206, "lng": -73.87197887057944}], "distance": 414, "cc": "US", "city": "Brooklyn", "state": "NY", "country": "United States", "formattedAddress": ["Brooklyn, NY", "United States"]}, "categories": [{"id": "4bf58dd8d48988d150941735", "name": "Spanish Restaurant", "pluralName": "Spanish Restaurants", "shortName": "Spanish", "icon": {"prefix": "https://ss3.4sqi.net/img/categories_v2/food/spanish_", "suffix": ".png"}, "primary": true}], "photos": {"count": 0, "groups": []}}, "referralId": "e-0-52e1be6911d24f191c597eea-22"}, {"reasons": {"count": 0, "items": [{"summary": "This spot is popular", "type": "general", "reasonName": "globalInteractionReason"}]}, "venue": {"id": "518d99b3498ef7014671a2d4", "name": "Brooklyn Meat Market", "location": {"address": "Ridgewood St", "crossStreet": "Chestnut St", "lat": 40.68612897332879, "lng": -73.87731925684199, "labeledLatLngs": [{"label": "display", "lat": 40.68612897332879, "lng": -73.87731925684199}], "distance": 420, "postalCode": "11208", "cc": "US", "city": "Brooklyn", "state": "NY", "country": "United States", "formattedAddress": ["Ridgewood St (Chestnut St)", "Brooklyn, NY 11208", "United States"]}, "categories": [{"id": "4bf58dd8d48988d146941735", "name": "Deli / Bodega", "pluralName": "Delis / Bodegas", "shortName": "Deli / Bodega", "icon": {"prefix": "https://ss3.4sqi.net/img/categories_v2/food/deli_", "suffix": ".png"}, "primary": true}], "photos": {"count": 0, "groups": []}}, "referralId": "e-0-518d99b3498ef7014671a2d4-23"}, {"reasons": {"count": 0, "items": [{"summary": "This spot is popular", "type": "general", "reasonName": "globalInteractionReason"}]}, "venue": {"id": "4cfff7efc00a5941acb99087", "name": "Dance Atlantic Studio", "location": {"address": "3390 Atlantic Ave", "crossStreet": "Crescent Street", "lat": 40.68182992914687, "lng": -73.8712323533888, "labeledLatLngs": [{"label": "display", "lat": 40.68182992914687, "lng": -73.8712323533888}, {"label": "entrance", "lat": 40.681616, "lng": -73.871204}], "distance": 458, "postalCode": "11208", "cc": "US", "city": "Brooklyn", "state": "NY", "country": "United States", "formattedAddress": ["3390 Atlantic Ave (Crescent Street)", "Brooklyn, NY 11208", "United States"]}, "categories": [{"id": "4bf58dd8d48988d134941735", "name": "Dance Studio", "pluralName": "Dance Studios", "shortName": "Dance Studio", "icon": {"prefix": "https://ss3.4sqi.net/img/categories_v2/arts_entertainment/performingarts_dancestudio_", "suffix": ".png"}, "primary": true}], "photos": {"count": 0, "groups": []}}, "referralId": "e-0-4cfff7efc00a5941acb99087-24"}, {"reasons": {"count": 0, "items": [{"summary": "This spot is popular", "type": "general", "reasonName": "globalInteractionReason"}]}, "venue": {"id": "4d708c91b246a0933171205f", "name": "NYC Famous Chicken", "location": {"address": "3367 Fulton St", "lat": 40.683985, "lng": -73.871455, "labeledLatLngs": [{"label": "display", "lat": 40.683985, "lng": -73.871455}, {"label": "entrance", "lat": 40.683955, "lng": -73.871455}], "distance": 470, "postalCode": "11208", "cc": "US", "city": "Brooklyn", "state": "NY", "country": "United States", "formattedAddress": ["3367 Fulton St", "Brooklyn, NY 11208", "United States"]}, "categories": [{"id": "4d4ae6fc7a7b7dea34424761", "name": "Fried Chicken Joint", "pluralName": "Fried Chicken Joints", "shortName": "Fried Chicken", "icon": {"prefix": "https://ss3.4sqi.net/img/categories_v2/food/friedchicken_", "suffix": ".png"}, "primary": true}], "delivery": {"id": "555427", "url": "https://www.seamless.com/menu/nyc-fried-chicken-3367-fulton-st-brooklyn/555427?affiliate=1131&utm_source=foursquare-affiliate-network&utm_medium=affiliate&utm_campaign=1131&utm_content=555427", "provider": {"name": "seamless", "icon": {"prefix": "https://fastly.4sqi.net/img/general/cap/", "sizes": [40, 50], "name": "/delivery_provider_seamless_20180129.png"}}}, "photos": {"count": 0, "groups": []}}, "referralId": "e-0-4d708c91b246a0933171205f-25"}]