[{"reasons": {"count": 0, "items": [{"summary": "This spot is popular", "type": "general", "reasonName": "globalInteractionReason"}]}, "venue": {"id": "4ccc11e772106dcb66ba9899", "name": "Cafe Madeline", "location": {"address": "1603 Cortelyou Rd", "crossStreet": "at E 16th St", "lat": 40.641689196076115, "lng": -73.96334877360515, "labeledLatLngs": [{"label": "display", "lat": 40.641689196076115, "lng": -73.96334877360515}, {"label": "entrance", "lat": 40.641813, "lng": -73.963388}], "distance": 296, "cc": "US", "city": "Brooklyn", "state": "NY", "country": "United States", "formattedAddress": ["1603 Cortelyou Rd (at E 16th St)", "Brooklyn, NY", "United States"]}, "categories": [{"id": "4bf58dd8d48988d1e0931735", "name": "Coffee Shop", "pluralName": "Coffee Shops", "shortName": "Coffee Shop", "icon": {"prefix": "https://ss3.4sqi.net/img/categories_v2/food/coffeeshop_", "suffix": ".png"}, "primary": true}], "photos": {"count": 0, "groups": []}}, "referralId": "e-0-4ccc11e772106dcb66ba9899-0"}, {"reasons": {"count": 0, "items": [{"summary": "This spot is popular", "type": "general", "reasonName": "globalInteractionReason"}]}, "venue": {"id": "58f51678826444025008d538", "name": "Crunch Flatbush", "location": {"address": "1038 Flatbush Ave", "lat": 40.64579776452774, "lng": -73.95814920981692, "labeledLatLngs": [{"label": "display", "lat": 40.64579776452774, "lng": -73.95814920981692}], "distance": 338, "postalCode": "11226", "cc": "US", "city": "Brooklyn", "state": "NY", "country": "United States", "formattedAddress": ["1038 Flatbush Ave", "Brooklyn, NY 11226", "United States"]}, "categories": [{"id": "4bf58dd8d48988d175941735", "name": "Gym / Fitness Center", "pluralName": "Gyms or Fitness Centers", "shortName": "Gym / Fitness", "icon": {"prefix": "https://ss3.4sqi.net/img/categories_v2/building/gym_", "suffix": ".png"}, "primary": true}], "photos": {"count": 0, "groups": []}, "venuePage": {"id": "415548157"}}, "referralId": "e-0-58f51678826444025008d538-1"}, {"reasons": {"count": 0, "items": [{"summary": "This spot is popular", "type": "general", "reasonName": "globalInteractionReason"}]}, "venue": {"id": "5b591073c5b11c002ce6065f", "name": "Pasture Burgers", "location": {"address": "1611 Cortelyou Rd", "crossStreet": "E. 16th St", "lat": 40.64197, "lng": -73.96318199999999, "labeledLatLngs": [{"label": "display", "lat": 40.64197, "lng": -73.96318199999999}], "distance": 263, "postalCode": "11226", "cc": "US", "city": "Brooklyn", "state": "NY", "country": "United States", "formattedAddress": ["1611 Cortelyou Rd (E. 16th St)", "Brooklyn, NY 11226", "United States"]}, "categories": [{"id": "4bf58dd8d48988d16c941735", "name": "Burger Joint", "pluralName": "Burger Joints", "shortName": "Burgers", "icon": {"prefix": "https://ss3.4sqi.net/img/categories_v2/food/burger_", "suffix": ".png"}, "primary": true}], "delivery": {"id": "2112288", "url": "https://www.seamless.com/menu/pasture-burgers-1611-cortelyou-rd-brooklyn/2112288?affiliate=1131&utm_source=foursquare-affiliate-network&utm_medium=affiliate&utm_campaign=1131&utm_content=2112288", "provider": {"name": "seamless", "icon": {"prefix": "https://fastly.4sqi.net/img/general/cap/", "sizes": [40, 50], "name": "/delivery_provider_seamless_20180129.png"}}}, "photos": {"count": 0, "groups": []}}, "referralId": "e-0-5b591073c5b11c002ce6065f-2"}, {"reasons": {"count": 0, "items": [{"summary": "This spot is popular", "type": "general", "reasonName": "globalInteractionReason"}]}, "venue": {"id": "4ea704af6d86f2edb667d8b7", "name": "Kings Theatre", "location": {"address": "1025 Flatbush Ave", "crossStreet": "btwn Tilden Ave & Duryea Pl", "lat": 40.64610998195542, "lng": -73.95717452942507, "labeledLatLngs": [{"label": "display", "lat": 40.64610998195542, "lng": -73.95717452942507}, {"label": "entrance", "lat": 40.64592, "lng": -73.957932}], "distance": 422, "postalCode": "11226", "cc": "US", "city": "Brooklyn", "state": "NY", "country": "United States", "formattedAddress": ["1025 Flatbush Ave (btwn Tilden Ave & Duryea Pl)", "Brooklyn, NY 11226", "United States"]}, "categories": [{"id": "4bf58dd8d48988d137941735", "name": "Theater", "pluralName": "Theaters", "shortName": "Theater", "icon": {"prefix": "https://ss3.4sqi.net/img/categories_v2/arts_entertainment/performingarts_theater_", "suffix": ".png"}, "primary": true}], "photos": {"count": 0, "groups": []}}, "referralId": "e-0-4ea704af6d86f2edb667d8b7-3"}, {"reasons": {"count": 0, "items": [{"summary": "This spot is popular", "type": "general", "reasonName": "globalInteractionReason"}]}, "venue": {"id": "4b6f38bdf964a52020e52ce3", "name": "Kings County Wines", "location": {"address": "1420 Cortelyou Rd", "crossStreet": "Marlborough Rd", "lat": 40.64110034263911, "lng": -73.96448850631714, "labeledLatLngs": [{"label": "display", "lat": 40.64110034263911, "lng": -73.96448850631714}], "distance": 410, "postalCode": "11226", "cc": "US", "city": "Brooklyn", "state": "NY", "country": "United States", "formattedAddress": ["1420 Cortelyou Rd (Marlborough Rd)", "Brooklyn, NY 11226", "United States"]}, "categories": [{"id": "4bf58dd8d48988d119951735", "name": "Wine Shop", "pluralName": "Wine Shops", "shortName": "Wine Shop", "icon": {"prefix": "https://ss3.4sqi.net/img/categories_v2/shops/food_wineshop_", "suffix": ".png"}, "primary": true}], "photos": {"count": 0, "groups": []}}, "referralId": "e-0-4b6f38bdf964a52020e52ce3-4"}, {"reasons": {"count": 0, "items": [{"summary": "This spot is popular", "type": "general", "reasonName": "globalInteractionReason"}]}, "venue": {"id": "4aa2d9f1f964a520534220e3", "name": "Cafe Tibet", "location": {"address": "1510 Cortelyou Rd", "crossStreet": "at E 16th St.", "lat": 40.6412430129767, "lng": -73.96406390793528, "labeledLatLngs": [{"label": "display", "lat": 40.6412430129767, "lng": -73.96406390793528}, {"label": "entrance", "lat": 40.6412, "lng": -73.964102}], "distance": 373, "postalCode": "11226", "cc": "US", "city": "Brooklyn", "state": "NY", "country": "United States", "formattedAddress": ["1510 Cortelyou Rd (at E 16th St.)", "Brooklyn, NY 11226", "United States"]}, "categories": [{"id": "52af39fb3cf9994f4e043be9", "name": "Tibetan Restaurant", "pluralName": "Tibetan Restaurants", "shortName": "Tibetan", "icon": {"prefix": "https://ss3.4sqi.net/img/categories_v2/food/tibetan_", "suffix": ".png"}, "primary": true}], "photos": {"count": 0, "groups": []}, "venuePage": {"id": "80570160"}}, "referralId": "e-0-4aa2d9f1f964a520534220e3-5"}, {"reasons": {"count": 0, "items": [{"summary": "This spot is popular", "type": "general", "reasonName": "globalInteractionReason"}]}, "venue": {"id": "59b5d8d5898bdc4e5f9b73a8", "name": "Ayurvedic Plate", "location": {"address": "1616 Cortelyou Rd", "lat": 40.641686, "lng": -73.962914, "labeledLatLngs": [{"label": "display", "lat": 40.641686, "lng": -73.962914}], "distance": 273, "postalCode": "11226", "cc": "US", "city": "New York", "state": "NY", "country": "United States", "formattedAddress": ["1616 Cortelyou Rd", "New York, NY 11226", "United States"]}, "categories": [{"id": "4bf58dd8d48988d16d941735", "name": "Caf\u00e9", "pluralName": "Caf\u00e9s", "shortName": "Caf\u00e9", "icon": {"prefix": "https://ss3.4sqi.net/img/categories_v2/food/cafe_", "suffix": ".png"}, "primary": true}], "photos": {"count": 0, "groups": []}}, "referralId": "e-0-59b5d8d5898bdc4e5f9b73a8-6"}, {"reasons": {"count": 0, "items": [{"summary": "This spot is popular", "type": "general", "reasonName": "globalInteractionReason"}]}, "venue": {"id": "4c0b3311bbc676b0a94a4bd5", "name": "La Cabana Rodriguez", "location": {"address": "Flatbush ave", "lat": 40.64488046257956, "lng": -73.95800659896858, "labeledLatLngs": [{"label": "display", "lat": 40.64488046257956, "lng": -73.95800659896858}, {"label": "entrance", "lat": 40.644803, "lng": -73.958146}], "distance": 287, "postalCode": "11226", "cc": "US", "neighborhood": "Flatbush", "city": "Brooklyn", "state": "NY", "country": "United States", "formattedAddress": ["Flatbush ave", "Brooklyn, NY 11226", "United States"]}, "categories": [{"id": "4bf58dd8d48988d1be941735", "name": "Latin American Restaurant", "pluralName": "Latin American Restaurants", "shortName": "Latin American", "icon": {"prefix": "https://ss3.4sqi.net/img/categories_v2/food/latinamerican_", "suffix": ".png"}, "primary": true}], "photos": {"count": 0, "groups": []}}, "referralId": "e-0-4c0b3311bbc676b0a94a4bd5-7"}, {"reasons": {"count": 0, "items": [{"summary": "This spot is popular", "type": "general", "reasonName": "globalInteractionReason"}]}, "venue": {"id": "57597fd8498e2922f0ff1b22", "name": "Island Express", "location": {"address": "998 Flatbush Ave", "lat": 40.64711056993405, "lng": -73.95810792209716, "labeledLatLngs": [{"label": "display", "lat": 40.64711056993405, "lng": -73.95810792209716}, {"label": "entrance", "lat": 40.64702, "lng": -73.958266}], "distance": 454, "postalCode": "11226", "cc": "US", "city": "Brooklyn", "state": "NY", "country": "United States", "formattedAddress": ["998 Flatbush Ave", "Brooklyn, NY 11226", "United States"]}, "categories": [{"id": "4bf58dd8d48988d144941735", "name": "Caribbean Restaurant", "pluralName": "Caribbean Restaurants", "shortName": "Caribbean", "icon": {"prefix": "https://ss3.4sqi.net/img/categories_v2/food/caribbean_", "suffix": ".png"}, "primary": true}], "photos": {"count": 0, "groups": []}, "venuePage": {"id": "427533382"}}, "referralId": "e-0-57597fd8498e2922f0ff1b22-8"}, {"reasons": {"count": 0, "items": [{"summary": "This spot is popular", "type": "general", "reasonName": "globalInteractionReason"}]}, "venue": {"id": "4b1726aef964a52011c323e3", "name": "Flatbush Food Coop", "location": {"address": "1415 Cortelyou Rd", "crossStreet": "Marlborough Rd", "lat": 40.641195603869555, "lng": -73.9646754529375, "labeledLatLngs": [{"label": "display", "lat": 40.641195603869555, "lng": -73.9646754529375}], "distance": 414, "postalCode": "11226", "cc": "US", "city": "Brooklyn", "state": "NY", "country": "United States", "formattedAddress": ["1415 Cortelyou Rd (Marlborough Rd)", "Brooklyn, NY 11226", "United States"]}, "categories": [{"id": "50aa9e744b90af0d42d5de0e", "name": "Health Food Store", "pluralName": "Health Food Stores", "shortName": "Health Food Store", "icon": {"prefix": "https://ss3.4sqi.net/img/categories_v2/shops/food_grocery_", "suffix": ".png"}, "primary": true}], "photos": {"count": 0, "groups": []}, "venuePage": {"id": "75645332"}}, "referralId": "e-0-4b1726aef964a52011c323e3-9"}, {"reasons": {"count": 0, "items": [{"summary": "This spot is popular", "type": "general", "reasonName": "globalInteractionReason"}]}, "venue": {"id": "4beffc1dc8d920a186489430", "name": "Cortelyou Greenmarket", "location": {"address": "Cortelyou Rd", "crossStreet": "btwn Rugby & Argyle Rds", "lat": 40.640869668216965, "lng": -73.96537197644436, "labeledLatLngs": [{"label": "display", "lat": 40.640869668216965, "lng": -73.96537197644436}], "distance": 482, "postalCode": "11226", "cc": "US", "city": "Brooklyn", "state": "NY", "country": "United States", "formattedAddress": ["Cortelyou Rd (btwn Rugby & Argyle Rds)", "Brooklyn, NY 11226", "United States"]}, "categories": [{"id": "4bf58dd8d48988d1fa941735", "name": "Farmers Market", "pluralName": "Farmers Markets", "shortName": "Farmer's Market", "icon": {"prefix": "https://ss3.4sqi.net/img/categories_v2/shops/food_farmersmarket_", "suffix": ".png"}, "primary": true}], "photos": {"count": 0, "groups": []}}, "referralId": "e-0-4beffc1dc8d920a186489430-10"}, {"reasons": {"count": 0, "items": [{"summary": "This spot is popular", "type": "general", "reasonName": "globalInteractionReason"}]}, "venue": {"id": "4cc1ce0442d1b60c964e0c13", "name": "Catskill Bagels", "location": {"address": "1416 Cortelyou Rd", "crossStreet": "btwn Marlborough & Rugby Rds", "lat": 40.64105540392066, "lng": -73.96469583005432, "labeledLatLngs": [{"label": "display", "lat": 40.64105540392066, "lng": -73.96469583005432}], "distance": 426, "postalCode": "11226", "cc": "US", "city": "Brooklyn", "state": "NY", "country": "United States", "formattedAddress": ["1416 Cortelyou Rd (btwn Marlborough & Rugby Rds)", "Brooklyn, NY 11226", "United States"]}, "categories": [{"id": "4bf58dd8d48988d179941735", "name": "Bagel Shop", "pluralName": "Bagel Shops", "shortName": "Bagels", "icon": {"prefix": "https://ss3.4sqi.net/img/categories_v2/food/bagels_", "suffix": ".png"}, "primary": true}], "delivery": {"id": "269765", "url": "https://www.seamless.com/menu/catskill-bagel-company-1416-cortelyou-rd-brooklyn/269765?affiliate=1131&utm_source=foursquare-affiliate-network&utm_medium=affiliate&utm_campaign=1131&utm_content=269765", "provider": {"name": "seamless", "icon": {"prefix": "https://fastly.4sqi.net/img/general/cap/", "sizes": [40, 50], "name": "/delivery_provider_seamless_20180129.png"}}}, "photos": {"count": 0, "groups": []}}, "referralId": "e-0-4cc1ce0442d1b60c964e0c13-11"}, {"reasons": {"count": 0, "items": [{"summary": "This spot is popular", "type": "general", "reasonName": "globalInteractionReason"}]}, "venue": {"id": "58c6147d110d0304a1afc619", "name": "FIB Tattoo Bar", "location": {"address": "1051 Flatbush Ave", "lat": 40.645226, "lng": -73.957701, "labeledLatLngs": [{"label": "display", "lat": 40.645226, "lng": -73.957701}, {"label": "entrance", "lat": 40.645217, "lng": -73.95788}], "distance": 328, "postalCode": "11226", "cc": "US", "city": "Brooklyn", "state": "NY", "country": "United States", "formattedAddress": ["1051 Flatbush Ave", "Brooklyn, NY 11226", "United States"]}, "categories": [{"id": "4bf58dd8d48988d116941735", "name": "Bar", "pluralName": "Bars", "shortName": "Bar", "icon": {"prefix": "https://ss3.4sqi.net/img/categories_v2/nightlife/pub_", "suffix": ".png"}, "primary": true}], "photos": {"count": 0, "groups": []}}, "referralId": "e-0-58c6147d110d0304a1afc619-12"}, {"reasons": {"count": 0, "items": [{"summary": "This spot is popular", "type": "general", "reasonName": "globalInteractionReason"}]}, "venue": {"id": "4b9a7fe7f964a5201cbb35e3", "name": "Third Root Community Health Center", "location": {"address": "380 Marlborough Rd", "crossStreet": "btw Cortelyou & Dorchester", "lat": 40.640904213665245, "lng": -73.96440330578696, "labeledLatLngs": [{"label": "display", "lat": 40.640904213665245, "lng": -73.96440330578696}, {"label": "entrance", "lat": 40.640841, "lng": -73.964468}], "distance": 420, "postalCode": "11226", "cc": "US", "city": "Brooklyn", "state": "NY", "country": "United States", "formattedAddress": ["380 Marlborough Rd (btw Cortelyou & Dorchester)", "Brooklyn, NY 11226", "United States"]}, "categories": [{"id": "4bf58dd8d48988d102941735", "name": "Yoga Studio", "pluralName": "Yoga Studios", "shortName": "Yoga Studio", "icon": {"prefix": "https://ss3.4sqi.net/img/categories_v2/shops/gym_yogastudio_", "suffix": ".png"}, "primary": true}], "photos": {"count": 0, "groups": []}}, "referralId": "e-0-4b9a7fe7f964a5201cbb35e3-13"}, {"reasons": {"count": 0, "items": [{"summary": "This spot is popular", "type": "general", "reasonName": "globalInteractionReason"}]}, "venue": {"id": "4b5b3c86f964a52046ed28e3", "name": "San Remo Pizzeria", "location": {"address": "1408 Cortelyou Rd", "crossStreet": "Rugby Rd", "lat": 40.64095313325507, "lng": -73.96499112808877, "labeledLatLngs": [{"label": "display", "lat": 40.64095313325507, "lng": -73.96499112808877}, {"label": "entrance", "lat": 40.640824, "lng": -73.964938}], "distance": 452, "postalCode": "11226", "cc": "US", "city": "Brooklyn", "state": "NY", "country": "United States", "formattedAddress": ["1408 Cortelyou Rd (Rugby Rd)", "Brooklyn, NY 11226", "United States"]}, "categories": [{"id": "4bf58dd8d48988d1ca941735", "name": "Pizza Place", "pluralName": "Pizza Places", "shortName": "Pizza", "icon": {"prefix": "https://ss3.4sqi.net/img/categories_v2/food/pizza_", "suffix": ".png"}, "primary": true}], "delivery": {"id": "374463", "url": "https://www.seamless.com/menu/san-remo-pizzeria-1408-cortelyou-rd-brooklyn/374463?affiliate=1131&utm_source=foursquare-affiliate-network&utm_medium=affiliate&utm_campaign=1131&utm_content=374463", "provider": {"name": "seamless", "icon": {"prefix": "https://fastly.4sqi.net/img/general/cap/", "sizes": [40, 50], "name": "/delivery_provider_seamless_20180129.png"}}}, "photos": {"count": 0, "groups": []}}, "referralId": "e-0-4b5b3c86f964a52046ed28e3-14"}, {"reasons": {"count": 0, "items": [{"summary": "This spot is popular", "type": "general", "reasonName": "globalInteractionReason"}]}, "venue": {"id": "596938a0a22db76efcd439a6", "name": "Los Tres Chiflados", "location": {"address": "1046 Flatbush Ave", "lat": 40.64553362271314, "lng": -73.95811007446534, "labeledLatLngs": [{"label": "display", "lat": 40.64553362271314, "lng": -73.95811007446534}], "distance": 320, "postalCode": "11226", "cc": "US", "city": "New York", "state": "NY", "country": "United States", "formattedAddress": ["1046 Flatbush Ave", "New York, NY 11226", "United States"]}, "categories": [{"id": "4bf58dd8d48988d1c1941735", "name": "Mexican Restaurant", "pluralName": "Mexican Restaurants", "shortName": "Mexican", "icon": {"prefix": "https://ss3.4sqi.net/img/categories_v2/food/mexican_", "suffix": ".png"}, "primary": true}], "delivery": {"id": "462471", "url": "https://www.seamless.com/menu/los-tres-chiflados-1046-flatbush-ave-brooklyn/462471?affiliate=1131&utm_source=foursquare-affiliate-network&utm_medium=affiliate&utm_campaign=1131&utm_content=462471", "provider": {"name": "seamless", "icon": {"prefix": "https://fastly.4sqi.net/img/general/cap/", "sizes": [40, 50], "name": "/delivery_provider_seamless_20180129.png"}}}, "photos": {"count": 0, "groups": []}}, "referralId": "e-0-596938a0a22db76efcd439a6-15"}, {"reasons": {"count": 0, "items": [{"summary": "This spot is popular", "type": "general", "reasonName": "globalInteractionReason"}]}, "venue": {"id": "542deabc498ef7f7cf1a9854", "name": "Gap Factory Store", "location": {"address": "1016 Flatbush Ave", "lat": 40.64624640127911, "lng": -73.9582565465085, "labeledLatLngs": [{"label": "display", "lat": 40.64624640127911, "lng": -73.9582565465085}, {"label": "entrance", "lat": 40.646269, "lng": -73.958255}], "distance": 368, "postalCode": "11226", "cc": "US", "city": "Brooklyn", "state": "NY", "country": "United States", "formattedAddress": ["1016 Flatbush Ave", "Brooklyn, NY 11226", "United States"]}, "categories": [{"id": "4bf58dd8d48988d103951735", "name": "Clothing Store", "pluralName": "Clothing Stores", "shortName": "Apparel", "icon": {"prefix": "https://ss3.4sqi.net/img/categories_v2/shops/apparel_", "suffix": ".png"}, "primary": true}], "photos": {"count": 0, "groups": []}}, "referralId": "e-0-542deabc498ef7f7cf1a9854-16"}, {"reasons": {"count": 0, "items": [{"summary": "This spot is popular", "type": "general", "reasonName": "globalInteractionReason"}]}, "venue": {"id": "573d0dec498ea3536ec446bf", "name": "Manchego", "location": {"address": "1502 Cortelyou Rd", "crossStreet": "at Marlborough Rd", "lat": 40.641104413182404, "lng": -73.964284658432, "labeledLatLngs": [{"label": "display", "lat": 40.641104413182404, "lng": -73.964284658432}], "distance": 397, "postalCode": "11226", "cc": "US", "city": "Brooklyn", "state": "NY", "country": "United States", "formattedAddress": ["1502 Cortelyou Rd (at Marlborough Rd)", "Brooklyn, NY 11226", "United States"]}, "categories": [{"id": "4bf58dd8d48988d1db931735", "name": "Tapas Restaurant", "pluralName": "Tapas Restaurants", "shortName": "Tapas", "icon": {"prefix": "https://ss3.4sqi.net/img/categories_v2/food/tapas_", "suffix": ".png"}, "primary": true}], "delivery": {"id": "2135129", "url": "https://www.seamless.com/menu/manchego-koko-1502-cortelyou-rd-brooklyn/2135129?affiliate=1131&utm_source=foursquare-affiliate-network&utm_medium=affiliate&utm_campaign=1131&utm_content=2135129", "provider": {"name": "seamless", "icon": {"prefix": "https://fastly.4sqi.net/img/general/cap/", "sizes": [40, 50], "name": "/delivery_provider_seamless_20180129.png"}}}, "photos": {"count": 0, "groups": []}, "venuePage": {"id": "359061330"}}, "referralId": "e-0-573d0dec498ea3536ec446bf-17"}, {"reasons": {"count": 0, "items": [{"summary": "This spot is popular", "type": "general", "reasonName": "globalInteractionReason"}]}, "venue": {"id": "4be756a4910020a1db5ad514", "name": "Cam Tak Express Restaurant", "location": {"address": "1073 Flatbush Ave", "crossStreet": "Beverley & Cortelyou Rd", "lat": 40.64437, "lng": -73.957677, "labeledLatLngs": [{"label": "display", "lat": 40.64437, "lng": -73.957677}, {"label": "entrance", "lat": 40.644367, "lng": -73.957792}], "distance": 292, "postalCode": "11226", "cc": "US", "city": "Brooklyn", "state": "NY", "country": "United States", "formattedAddress": ["1073 Flatbush Ave (Beverley & Cortelyou Rd)", "Brooklyn, NY 11226", "United States"]}, "categories": [{"id": "4bf58dd8d48988d145941735", "name": "Chinese Restaurant", "pluralName": "Chinese Restaurants", "shortName": "Chinese", "icon": {"prefix": "https://ss3.4sqi.net/img/categories_v2/food/asian_", "suffix": ".png"}, "primary": true}], "photos": {"count": 0, "groups": []}}, "referralId": "e-0-4be756a4910020a1db5ad514-18"}, {"reasons": {"count": 0, "items": [{"summary": "This spot is popular", "type": "general", "reasonName": "globalInteractionReason"}]}, "venue": {"id": "519e3af5498ec0e0ee15e993", "name": "T-Mobile", "location": {"address": "1056 Flatbush Ave", "crossStreet": "Beverley Rd", "lat": 40.645215798571435, "lng": -73.95830727648905, "labeledLatLngs": [{"label": "display", "lat": 40.645215798571435, "lng": -73.95830727648905}, {"label": "entrance", "lat": 40.645216, "lng": -73.95818}], "distance": 285, "postalCode": "11226", "cc": "US", "city": "Brooklyn", "state": "NY", "country": "United States", "formattedAddress": ["1056 Flatbush Ave (Beverley Rd)", "Brooklyn, NY 11226", "United States"]}, "categories": [{"id": "4f04afc02fb6e1c99f3db0bc", "name": "Mobile Phone Shop", "pluralName": "Mobile Phone Shops", "shortName": "Mobile Phones", "icon": {"prefix": "https://ss3.4sqi.net/img/categories_v2/shops/mobilephoneshop_", "suffix": ".png"}, "primary": true}], "photos": {"count": 0, "groups": []}}, "referralId": "e-0-519e3af5498ec0e0ee15e993-19"}, {"reasons": {"count": 0, "items": [{"summary": "This spot is popular", "type": "general", "reasonName": "globalInteractionReason"}]}, "venue": {"id": "4deeb5b51f6e6d35416ff1f9", "name": "SUBWAY", "location": {"address": "1092 Flatbush Ave", "lat": 40.643754, "lng": -73.958119, "labeledLatLngs": [{"label": "display", "lat": 40.643754, "lng": -73.958119}, {"label": "entrance", "lat": 40.643748, "lng": -73.958002}], "distance": 244, "postalCode": "11226", "cc": "US", "city": "Brooklyn", "state": "NY", "country": "United States", "formattedAddress": ["1092 Flatbush Ave", "Brooklyn, NY 11226", "United States"]}, "categories": [{"id": "4bf58dd8d48988d1c5941735", "name": "Sandwich Place", "pluralName": "Sandwich Places", "shortName": "Sandwiches", "icon": {"prefix": "https://ss3.4sqi.net/img/categories_v2/food/deli_", "suffix": ".png"}, "primary": true}], "photos": {"count": 0, "groups": []}}, "referralId": "e-0-4deeb5b51f6e6d35416ff1f9-20"}, {"reasons": {"count": 0, "items": [{"summary": "This spot is popular", "type": "general", "reasonName": "globalInteractionReason"}]}, "venue": {"id": "573d0d12498e340adb0eee23", "name": "Koko Ramen", "location": {"address": "1502 Cortelyou Rd", "crossStreet": "at Marlborough Rd", "lat": 40.641020197355616, "lng": -73.96440845895775, "labeledLatLngs": [{"label": "display", "lat": 40.641020197355616, "lng": -73.96440845895775}], "distance": 411, "postalCode": "11226", "cc": "US", "city": "Brooklyn", "state": "NY", "country": "United States", "formattedAddress": ["1502 Cortelyou Rd (at Marlborough Rd)", "Brooklyn, NY 11226", "United States"]}, "categories": [{"id": "55a59bace4b013909087cb24", "name": "Ramen Restaurant", "pluralName": "Ramen Restaurants", "shortName": "Ramen", "icon": {"prefix": "https://ss3.4sqi.net/img/categories_v2/food/ramen_", "suffix": ".png"}, "primary": true}], "delivery": {"id": "2128429", "url": "https://www.seamless.com/menu/koko-ramen-375-marlborough-rd-brooklyn/2128429?affiliate=1131&utm_source=foursquare-affiliate-network&utm_medium=affiliate&utm_campaign=1131&utm_content=2128429", "provider": {"name": "seamless", "icon": {"prefix": "https://fastly.4sqi.net/img/general/cap/", "sizes": [40, 50], "name": "/delivery_provider_seamless_20180129.png"}}}, "photos": {"count": 0, "groups": []}}, "referralId": "e-0-573d0d12498e340adb0eee23-21"}, {"reasons": {"count": 0, "items": [{"summary": "This spot is popular", "type": "general", "reasonName": "globalInteractionReason"}]}, "venue": {"id": "4bf6b14abb5176b0010b5bb2", "name": "Kumo Sushi", "location": {"address": "1406 Cortelyou Rd", "crossStreet": "Btwn Marlborough & Rugby Roads", "lat": 40.640899885777394, "lng": -73.96506739041935, "labeledLatLngs": [{"label": "display", "lat": 40.640899885777394, "lng": -73.96506739041935}, {"label": "entrance", "lat": 40.640794, "lng": -73.965005}], "distance": 461, "postalCode": "11226", "cc": "US", "city": "Brooklyn", "state": "NY", "country": "United States", "formattedAddress": ["1406 Cortelyou Rd (Btwn Marlborough & Rugby Roads)", "Brooklyn, NY 11226", "United States"]}, "categories": [{"id": "4bf58dd8d48988d111941735", "name": "Japanese Restaurant", "pluralName": "Japanese Restaurants", "shortName": "Japanese", "icon": {"prefix": "https://ss3.4sqi.net/img/categories_v2/food/japanese_", "suffix": ".png"}, "primary": true}], "delivery": {"id": "313551", "url": "https://www.seamless.com/menu/kumo-sushi-1406-cortelyou-rd-brooklyn/313551?affiliate=1131&utm_source=foursquare-affiliate-network&utm_medium=affiliate&utm_campaign=1131&utm_content=313551", "provider": {"name": "seamless", "icon": {"prefix": "https://fastly.4sqi.net/img/general/cap/", "sizes": [40, 50], "name": "/delivery_provider_seamless_20180129.png"}}}, "photos": {"count": 0, "groups": []}}, "referralId": "e-0-4bf6b14abb5176b0010b5bb2-22"}, {"reasons": {"count": 0, "items": [{"summary": "This spot is popular", "type": "general", "reasonName": "globalInteractionReason"}]}, "venue": {"id": "4ba7da81f964a5200fb939e3", "name": "Angelo's Pizza", "location": {"address": "2117 Cortelyou Rd", "lat": 40.64406822276088, "lng": -73.95820156423142, "labeledLatLngs": [{"label": "display", "lat": 40.64406822276088, "lng": -73.95820156423142}, {"label": "entrance", "lat": 40.644132, "lng": -73.958238}], "distance": 241, "postalCode": "11226", "cc": "US", "city": "Brooklyn", "state": "NY", "country": "United States", "formattedAddress": ["2117 Cortelyou Rd", "Brooklyn, NY 11226", "United States"]}, "categories": [{"id": "4bf58dd8d48988d1ca941735", "name": "Pizza Place", "pluralName": "Pizza Places", "shortName": "Pizza", "icon": {"prefix": "https://ss3.4sqi.net/img/categories_v2/food/pizza_", "suffix": ".png"}, "primary": true}], "delivery": {"id": "339735", "url": "https://www.seamless.com/menu/angelos-pizza-2117-cortelyou-rd-brooklyn/339735?affiliate=1131&utm_source=foursquare-affiliate-network&utm_medium=affiliate&utm_campaign=1131&utm_content=339735", "provider": {"name": "seamless", "icon": {"prefix": "https://fastly.4sqi.net/img/general/cap/", "sizes": [40, 50], "name": "/delivery_provider_seamless_20180129.png"}}}, "photos": {"count": 0, "groups": []}}, "referralId": "e-0-4ba7da81f964a5200fb939e3-23"}, {"reasons": {"count": 0, "items": [{"summary": "This spot is popular", "type": "general", "reasonName": "globalInteractionReason"}]}, "venue": {"id": "4b70a3e1f964a520fd262de3", "name": "Cortelyou Market by Key Food", "location": {"address": "1610 Cortelyou Rd", "crossStreet": "btwn. E. 17th St & E. 16th St", "lat": 40.64167118261627, "lng": -73.9632217280528, "labeledLatLngs": [{"label": "display", "lat": 40.64167118261627, "lng": -73.9632217280528}, {"label": "entrance", "lat": 40.641599, "lng": -73.963223}], "distance": 290, "postalCode": "11226", "cc": "US", "city": "Brooklyn", "state": "NY", "country": "United States", "formattedAddress": ["1610 Cortelyou Rd (btwn. E. 17th St & E. 16th St)", "Brooklyn, NY 11226", "United States"]}, "categories": [{"id": "4bf58dd8d48988d118951735", "name": "Grocery Store", "pluralName": "Grocery Stores", "shortName": "Grocery Store", "icon": {"prefix": "https://ss3.4sqi.net/img/categories_v2/shops/food_grocery_", "suffix": ".png"}, "primary": true}], "photos": {"count": 0, "groups": []}}, "referralId": "e-0-4b70a3e1f964a520fd262de3-24"}, {"reasons": {"count": 0, "items": [{"summary": "This spot is popular", "type": "general", "reasonName": "globalInteractionReason"}]}, "venue": {"id": "4e2ca585bd41ba3e1b8a2106", "name": "Lane Bryant", "location": {"address": "1004 Flatbush Ave", "lat": 40.646770000000004, "lng": -73.958435, "labeledLatLngs": [{"label": "display", "lat": 40.646770000000004, "lng": -73.958435}, {"label": "entrance", "lat": 40.646819, "lng": -73.958258}], "distance": 407, "postalCode": "11226", "cc": "US", "city": "Brooklyn", "state": "NY", "country": "United States", "formattedAddress": ["1004 Flatbush Ave", "Brooklyn, NY 11226", "United States"]}, "categories": [{"id": "4bf58dd8d48988d108951735", "name": "Women's Store", "pluralName": "Women's Stores", "shortName": "Women's Store", "icon": {"prefix": "https://ss3.4sqi.net/img/categories_v2/shops/apparel_women_", "suffix": ".png"}, "primary": true}], "photos": {"count": 0, "groups": []}}, "referralId": "e-0-4e2ca585bd41ba3e1b8a2106-25"}, {"reasons": {"count": 0, "items": [{"summary": "This spot is popular", "type": "general", "reasonName": "globalInteractionReason"}]}, "venue": {"id": "5161661ce4b0531a2ab8ab7c", "name": "Dunkin'", "location": {"address": "1014 Flatbush Ave", "crossStreet": "Regent Pl.", "lat": 40.6465475, "lng": -73.9583809, "labeledLatLngs": [{"label": "display", "lat": 40.6465475, "lng": -73.9583809}], "distance": 389, "postalCode": "11226", "cc": "US", "city": "Brooklyn", "state": "NY", "country": "United States", "formattedAddress": ["1014 Flatbush Ave (Regent Pl.)", "Brooklyn, NY 11226", "United States"]}, "categories": [{"id": "4bf58dd8d48988d148941735", "name": "Donut Shop", "pluralName": "Donut Shops", "shortName": "Donuts", "icon": {"prefix": "https://ss3.4sqi.net/img/categories_v2/food/donuts_", "suffix": ".png"}, "primary": true}], "delivery": {"id": "1160739", "url": "https://www.seamless.com/menu/dunkin-1014-flatbush-ave-brooklyn/1160739?affiliate=1131&utm_source=foursquare-affiliate-network&utm_medium=affiliate&utm_campaign=1131&utm_content=1160739", "provider": {"name": "seamless", "icon": {"prefix": "https://fastly.4sqi.net/img/general/cap/", "sizes": [40, 50], "name": "/delivery_provider_seamless_20180129.png"}}}, "photos": {"count": 0, "groups": []}}, "referralId": "e-0-5161661ce4b0531a2ab8ab7c-26"}, {"reasons": {"count": 0, "items": [{"summary": "This spot is popular", "type": "general", "reasonName": "globalInteractionReason"}]}, "venue": {"id": "4f21c4c4e5e872143c0d843b", "name": "Golden Krust Caribbean Bakery and Grill", "location": {"address": "998 Flatbush Ave", "lat": 40.64706466251207, "lng": -73.9581158447699, "labeledLatLngs": [{"label": "display", "lat": 40.64706466251207, "lng": -73.9581158447699}], "distance": 449, "postalCode": "11226", "cc": "US", "city": "Brooklyn", "state": "NY", "country": "United States", "formattedAddress": ["998 Flatbush Ave", "Brooklyn, NY 11226", "United States"]}, "categories": [{"id": "4bf58dd8d48988d144941735", "name": "Caribbean Restaurant", "pluralName": "Caribbean Restaurants", "shortName": "Caribbean", "icon": {"prefix": "https://ss3.4sqi.net/img/categories_v2/food/caribbean_", "suffix": ".png"}, "primary": true}], "photos": {"count": 0, "groups": []}}, "referralId": "e-0-4f21c4c4e5e872143c0d843b-27"}, {"reasons": {"count": 0, "items": [{"summary": "This spot is popular", "type": "general", "reasonName": "globalInteractionReason"}]}, "venue": {"id": "4e2c1d5345dd3272c819843f", "name": "Dunkin'", "location": {"address": "1506 Cortelyou Rd", "lat": 40.641188259590876, "lng": -73.96418811225112, "labeledLatLngs": [{"label": "display", "lat": 40.641188259590876, "lng": -73.96418811225112}, {"label": "entrance", "lat": 40.641166, "lng": -73.964186}], "distance": 385, "postalCode": "11226", "cc": "US", "city": "Brooklyn", "state": "NY", "country": "United States", "formattedAddress": ["1506 Cortelyou Rd", "Brooklyn, NY 11226", "United States"]}, "categories": [{"id": "4bf58dd8d48988d148941735", "name": "Donut Shop", "pluralName": "Donut Shops", "shortName": "Donuts", "icon": {"prefix": "https://ss3.4sqi.net/img/categories_v2/food/donuts_", "suffix": ".png"}, "primary": true}], "delivery": {"id": "1162421", "url": "https://www.seamless.com/menu/dunkin-1506-cortelyou-rd-brooklyn/1162421?affiliate=1131&utm_source=foursquare-affiliate-network&utm_medium=affiliate&utm_campaign=1131&utm_content=1162421", "provider": {"name": "seamless", "icon": {"prefix": "https://fastly.4sqi.net/img/general/cap/", "sizes": [40, 50], "name": "/delivery_provider_seamless_20180129.png"}}}, "photos": {"count": 0, "groups": []}}, "referralId": "e-0-4e2c1d5345dd3272c819843f-28"}, {"reasons": {"count": 0, "items": [{"summary": "This spot is popular", "type": "general", "reasonName": "globalInteractionReason"}]}, "venue": {"id": "4fd7b7910e1dbab2f37ffa28", "name": "Family Dollar", "location": {"address": "2184 Clarendon Rd", "lat": 40.64233, "lng": -73.956685, "labeledLatLngs": [{"label": "display", "lat": 40.64233, "lng": -73.956685}, {"label": "entrance", "lat": 40.642612, "lng": -73.956795}], "distance": 395, "postalCode": "11226", "cc": "US", "city": "Brooklyn", "state": "NY", "country": "United States", "formattedAddress": ["2184 Clarendon Rd", "Brooklyn, NY 11226", "United States"]}, "categories": [{"id": "52dea92d3cf9994f4e043dbb", "name": "Discount Store", "pluralName": "Discount Stores", "shortName": "Discount Store", "icon": {"prefix": "https://ss3.4sqi.net/img/categories_v2/shops/discountstore_", "suffix": ".png"}, "primary": true}], "photos": {"count": 0, "groups": []}}, "referralId": "e-0-4fd7b7910e1dbab2f37ffa28-29"}, {"reasons": {"count": 0, "items": [{"summary": "This spot is popular", "type": "general", "reasonName": "globalInteractionReason"}]}, "venue": {"id": "4ba23ef7f964a520b3e637e3", "name": "Cookie's Dept. Stores", "location": {"address": "982 Flatbush Ave", "crossStreet": "Corner of Albemarle Rd", "lat": 40.647277, "lng": -73.958443, "labeledLatLngs": [{"label": "display", "lat": 40.647277, "lng": -73.958443}], "distance": 455, "postalCode": "11226", "cc": "US", "city": "Brooklyn", "state": "NY", "country": "United States", "formattedAddress": ["982 Flatbush Ave (Corner of Albemarle Rd)", "Brooklyn, NY 11226", "United States"]}, "categories": [{"id": "4bf58dd8d48988d105951735", "name": "Kids Store", "pluralName": "Kids Stores", "shortName": "Kids Store", "icon": {"prefix": "https://ss3.4sqi.net/img/categories_v2/shops/apparel_kids_", "suffix": ".png"}, "primary": true}], "photos": {"count": 0, "groups": []}}, "referralId": "e-0-4ba23ef7f964a520b3e637e3-30"}, {"reasons": {"count": 0, "items": [{"summary": "This spot is popular", "type": "general", "reasonName": "globalInteractionReason"}]}, "venue": {"id": "4bfd411083bbd13a9af462c5", "name": "Duane Reade", "location": {"address": "1517 Cortelyou Rd", "crossStreet": "at Marlborough Rd.", "lat": 40.6416597, "lng": -73.9637784, "labeledLatLngs": [{"label": "display", "lat": 40.6416597, "lng": -73.9637784}], "distance": 323, "postalCode": "11226", "cc": "US", "city": "Brooklyn", "state": "NY", "country": "United States", "formattedAddress": ["1517 Cortelyou Rd (at Marlborough Rd.)", "Brooklyn, NY 11226", "United States"]}, "categories": [{"id": "4bf58dd8d48988d10f951735", "name": "Pharmacy", "pluralName": "Pharmacies", "shortName": "Pharmacy", "icon": {"prefix": "https://ss3.4sqi.net/img/categories_v2/shops/pharmacy_", "suffix": ".png"}, "primary": true}], "photos": {"count": 0, "groups": []}}, "referralId": "e-0-4bfd411083bbd13a9af462c5-31"}, {"reasons": {"count": 0, "items": [{"summary": "This spot is popular", "type": "general", "reasonName": "globalInteractionReason"}]}, "venue": {"id": "5a5023d251950e051a8388c0", "name": "Taco Bell Cantina", "location": {"address": "1032 Flatbush Ave", "crossStreet": "btwn Beverly Rd & Regent Pl", "lat": 40.64586539975443, "lng": -73.95809913483876, "labeledLatLngs": [{"label": "display", "lat": 40.64586539975443, "lng": -73.95809913483876}], "distance": 346, "postalCode": "11226", "cc": "US", "city": "Brooklyn", "state": "NY", "country": "United States", "formattedAddress": ["1032 Flatbush Ave (btwn Beverly Rd & Regent Pl)", "Brooklyn, NY 11226", "United States"]}, "categories": [{"id": "4bf58dd8d48988d151941735", "name": "Taco Place", "pluralName": "Taco Places", "shortName": "Tacos", "icon": {"prefix": "https://ss3.4sqi.net/img/categories_v2/food/taco_", "suffix": ".png"}, "primary": true}], "delivery": {"id": "923413", "url": "https://www.seamless.com/menu/taco-bell-1034-flatbush-ave-brooklyn/923413?affiliate=1131&utm_source=foursquare-affiliate-network&utm_medium=affiliate&utm_campaign=1131&utm_content=923413", "provider": {"name": "seamless", "icon": {"prefix": "https://fastly.4sqi.net/img/general/cap/", "sizes": [40, 50], "name": "/delivery_provider_seamless_20180129.png"}}}, "photos": {"count": 0, "groups": []}}, "referralId": "e-0-5a5023d251950e051a8388c0-32"}, {"reasons": {"count": 0, "items": [{"summary": "This spot is popular", "type": "general", "reasonName": "globalInteractionReason"}]}, "venue": {"id": "4af378def964a520f8ed21e3", "name": "Bo Bo Kitchen", "location": {"address": "1601 Cortelyou Rd", "crossStreet": "16th St.", "lat": 40.64169629675543, "lng": -73.96339356897623, "labeledLatLngs": [{"label": "display", "lat": 40.64169629675543, "lng": -73.96339356897623}, {"label": "entrance", "lat": 40.641787, "lng": -73.963446}], "distance": 298, "postalCode": "11226", "cc": "US", "city": "Brooklyn", "state": "NY", "country": "United States", "formattedAddress": ["1601 Cortelyou Rd (16th St.)", "Brooklyn, NY 11226", "United States"]}, "categories": [{"id": "4bf58dd8d48988d145941735", "name": "Chinese Restaurant", "pluralName": "Chinese Restaurants", "shortName": "Chinese", "icon": {"prefix": "https://ss3.4sqi.net/img/categories_v2/food/asian_", "suffix": ".png"}, "primary": true}], "delivery": {"id": "2136970", "url": "https://www.seamless.com/menu/bo-bo-kitchen-1601-cortelyou-rd-brooklyn/2136970?affiliate=1131&utm_source=foursquare-affiliate-network&utm_medium=affiliate&utm_campaign=1131&utm_content=2136970", "provider": {"name": "seamless", "icon": {"prefix": "https://fastly.4sqi.net/img/general/cap/", "sizes": [40, 50], "name": "/delivery_provider_seamless_20180129.png"}}}, "photos": {"count": 0, "groups": []}}, "referralId": "e-0-4af378def964a520f8ed21e3-33"}, {"reasons": {"count": 0, "items": [{"summary": "This spot is popular", "type": "general", "reasonName": "globalInteractionReason"}]}, "venue": {"id": "4d8fc1a9d4ec8cfa16ca9389", "name": "Kennedy Fried Chicken", "location": {"address": "1088 Flatbush Ave", "lat": 40.643859, "lng": -73.958166, "labeledLatLngs": [{"label": "display", "lat": 40.643859, "lng": -73.958166}, {"label": "entrance", "lat": 40.643866, "lng": -73.958025}], "distance": 241, "postalCode": "11226", "cc": "US", "city": "Brooklyn", "state": "NY", "country": "United States", "formattedAddress": ["1088 Flatbush Ave", "Brooklyn, NY 11226", "United States"]}, "categories": [{"id": "4d4ae6fc7a7b7dea34424761", "name": "Fried Chicken Joint", "pluralName": "Fried Chicken Joints", "shortName": "Fried Chicken", "icon": {"prefix": "https://ss3.4sqi.net/img/categories_v2/food/friedchicken_", "suffix": ".png"}, "primary": true}], "photos": {"count": 0, "groups": []}}, "referralId": "e-0-4d8fc1a9d4ec8cfa16ca9389-34"}, {"reasons": {"count": 0, "items": [{"summary": "This spot is popular", "type": "general", "reasonName": "globalInteractionReason"}]}, "venue": {"id": "5009b7dbe4b084af1d7f1ea4", "name": "China Tang Kitchen", "location": {"address": "2107 Cortelyou Rd", "crossStreet": "Flatbush Ave", "lat": 40.64373055483183, "lng": -73.95811925837997, "labeledLatLngs": [{"label": "display", "lat": 40.64373055483183, "lng": -73.95811925837997}], "distance": 244, "postalCode": "11226", "cc": "US", "city": "Brooklyn", "state": "NY", "country": "United States", "formattedAddress": ["2107 Cortelyou Rd (Flatbush Ave)", "Brooklyn, NY 11226", "United States"]}, "categories": [{"id": "4bf58dd8d48988d145941735", "name": "Chinese Restaurant", "pluralName": "Chinese Restaurants", "shortName": "Chinese", "icon": {"prefix": "https://ss3.4sqi.net/img/categories_v2/food/asian_", "suffix": ".png"}, "primary": true}], "photos": {"count": 0, "groups": []}}, "referralId": "e-0-5009b7dbe4b084af1d7f1ea4-35"}, {"reasons": {"count": 0, "items": [{"summary": "This spot is popular", "type": "general", "reasonName": "globalInteractionReason"}]}, "venue": {"id": "597d3384033693058a352136", "name": "Cortelyou Gourmet Deli", "location": {"address": "1626 Cortelyou Rd", "crossStreet": "E. 17th St", "lat": 40.641665, "lng": -73.962767, "labeledLatLngs": [{"label": "display", "lat": 40.641665, "lng": -73.962767}, {"label": "entrance", "lat": 40.641803, "lng": -73.962795}], "distance": 268, "postalCode": "11226", "cc": "US", "city": "Brooklyn", "state": "NY", "country": "United States", "formattedAddress": ["1626 Cortelyou Rd (E. 17th St)", "Brooklyn, NY 11226", "United States"]}, "categories": [{"id": "4bf58dd8d48988d146941735", "name": "Deli / Bodega", "pluralName": "Delis / Bodegas", "shortName": "Deli / Bodega", "icon": {"prefix": "https://ss3.4sqi.net/img/categories_v2/food/deli_", "suffix": ".png"}, "primary": true}], "photos": {"count": 0, "groups": []}}, "referralId": "e-0-597d3384033693058a352136-36"}, {"reasons": {"count": 0, "items": [{"summary": "This spot is popular", "type": "general", "reasonName": "globalInteractionReason"}]}, "venue": {"id": "4b37c6a3f964a520f44525e3", "name": "Sears", "location": {"address": "2307 Beverley Rd", "lat": 40.64514791, "lng": -73.95546919, "labeledLatLngs": [{"label": "display", "lat": 40.64514791, "lng": -73.95546919}, {"label": "entrance", "lat": 40.644853, "lng": -73.955357}], "distance": 496, "postalCode": "11226", "cc": "US", "city": "Brooklyn", "state": "NY", "country": "United States", "formattedAddress": ["2307 Beverley Rd", "Brooklyn, NY 11226", "United States"]}, "categories": [{"id": "4bf58dd8d48988d112951735", "name": "Hardware Store", "pluralName": "Hardware Stores", "shortName": "Hardware", "icon": {"prefix": "https://ss3.4sqi.net/img/categories_v2/shops/hardware_", "suffix": ".png"}, "primary": true}], "photos": {"count": 0, "groups": []}}, "referralId": "e-0-4b37c6a3f964a520f44525e3-37"}, {"reasons": {"count": 0, "items": [{"summary": "This spot is popular", "type": "general", "reasonName": "globalInteractionReason"}]}, "venue": {"id": "4cbc4a1a035d236a12a0e44e", "name": "J Boogie's Barbershop", "location": {"address": "2135 Beverley Rd", "crossStreet": "Flatbush Ave & E 22nd St", "lat": 40.64443033465664, "lng": -73.95770598603197, "labeledLatLngs": [{"label": "display", "lat": 40.64443033465664, "lng": -73.95770598603197}, {"label": "entrance", "lat": 40.644705, "lng": -73.957544}], "distance": 291, "postalCode": "11226", "cc": "US", "city": "Brooklyn", "state": "NY", "country": "United States", "formattedAddress": ["2135 Beverley Rd (Flatbush Ave & E 22nd St)", "Brooklyn, NY 11226", "United States"]}, "categories": [{"id": "4bf58dd8d48988d110951735", "name": "Salon / Barbershop", "pluralName": "Salons / Barbershops", "shortName": "Salon / Barbershop", "icon": {"prefix": "https://ss3.4sqi.net/img/categories_v2/shops/salon_barber_", "suffix": ".png"}, "primary": true}], "photos": {"count": 0, "groups": []}}, "referralId": "e-0-4cbc4a1a035d236a12a0e44e-38"}, {"reasons": {"count": 0, "items": [{"summary": "This spot is popular", "type": "general", "reasonName": "globalInteractionReason"}]}, "venue": {"id": "4af0c050f964a520d6de21e3", "name": "MTA Subway - Beverley Rd (Q)", "location": {"address": "Beverley Rd.", "crossStreet": "btw E 16th St & Marlborough Rd", "lat": 40.64432044188826, "lng": -73.9644608858045, "labeledLatLngs": [{"label": "display", "lat": 40.64432044188826, "lng": -73.9644608858045}], "distance": 299, "postalCode": "11226", "cc": "US", "city": "Brooklyn", "state": "NY", "country": "United States", "formattedAddress": ["Beverley Rd. (btw E 16th St & Marlborough Rd)", "Brooklyn, NY 11226", "United States"]}, "categories": [{"id": "4bf58dd8d48988d1fd931735", "name": "Metro Station", "pluralName": "Metro Stations", "shortName": "Metro", "icon": {"prefix": "https://ss3.4sqi.net/img/categories_v2/travel/subway_", "suffix": ".png"}, "primary": true}], "photos": {"count": 0, "groups": []}}, "referralId": "e-0-4af0c050f964a520d6de21e3-39"}, {"reasons": {"count": 0, "items": [{"summary": "This spot is popular", "type": "general", "reasonName": "globalInteractionReason"}]}, "venue": {"id": "51e198b0498e7ce64f33c786", "name": "Bakery St. Marc", "location": {"lat": 40.643144, "lng": -73.957482, "labeledLatLngs": [{"label": "display", "lat": 40.643144, "lng": -73.957482}, {"label": "entrance", "lat": 40.643137, "lng": -73.957582}], "distance": 304, "cc": "US", "state": "New York", "country": "United States", "formattedAddress": ["New York", "United States"]}, "categories": [{"id": "4bf58dd8d48988d16a941735", "name": "Bakery", "pluralName": "Bakeries", "shortName": "Bakery", "icon": {"prefix": "https://ss3.4sqi.net/img/categories_v2/food/bakery_", "suffix": ".png"}, "primary": true}], "photos": {"count": 0, "groups": []}}, "referralId": "e-0-51e198b0498e7ce64f33c786-40"}, {"reasons": {"count": 0, "items": [{"summary": "This spot is popular", "type": "general", "reasonName": "globalInteractionReason"}]}, "venue": {"id": "4ec6e7c87ee537da7ddf9071", "name": "MTA Bus - Cortelyou Rd & E 18 St (B103LTD/BM1/BM2/BM3/BM4)", "location": {"address": "Cortelyou Rd", "crossStreet": "E 18 St", "lat": 40.641260887637394, "lng": -73.96288904600681, "labeledLatLngs": [{"label": "display", "lat": 40.641260887637394, "lng": -73.96288904600681}], "distance": 311, "postalCode": "11226", "cc": "US", "city": "Brooklyn", "state": "NY", "country": "United States", "formattedAddress": ["Cortelyou Rd (E 18 St)", "Brooklyn, NY 11226", "United States"]}, "categories": [{"id": "52f2ab2ebcbc57f1066b8b4f", "name": "Bus Stop", "pluralName": "Bus Stops", "shortName": "Bus Stop", "icon": {"prefix": "https://ss3.4sqi.net/img/categories_v2/travel/busstation_", "suffix": ".png"}, "primary": true}], "photos": {"count": 0, "groups": []}}, "referralId": "e-0-4ec6e7c87ee537da7ddf9071-41"}, {"reasons": {"count": 0, "items": [{"summary": "This spot is popular", "type": "general", "reasonName": "globalInteractionReason"}]}, "venue": {"id": "5313c0f711d2df5dbee923d3", "name": "S&S 99\u00a2 And Up", "location": {"address": "1318 Cortelyou Rd", "crossStreet": "btwn Argyle & Rugby Rds.", "lat": 40.64066709011104, "lng": -73.96123025237219, "labeledLatLngs": [{"label": "display", "lat": 40.64066709011104, "lng": -73.96123025237219}], "distance": 335, "postalCode": "11226", "cc": "US", "city": "Brooklyn", "state": "NY", "country": "United States", "formattedAddress": ["1318 Cortelyou Rd (btwn Argyle & Rugby Rds.)", "Brooklyn, NY 11226", "United States"]}, "categories": [{"id": "52dea92d3cf9994f4e043dbb", "name": "Discount Store", "pluralName": "Discount Stores", "shortName": "Discount Store", "icon": {"prefix": "https://ss3.4sqi.net/img/categories_v2/shops/discountstore_", "suffix": ".png"}, "primary": true}], "photos": {"count": 0, "groups": []}}, "referralId": "e-0-5313c0f711d2df5dbee923d3-42"}, {"reasons": {"count": 0, "items": [{"summary": "This spot is popular", "type": "general", "reasonName": "globalInteractionReason"}]}, "venue": {"id": "585ac9b794c6903fd3e43ab0", "name": "Della Joseph Oncall Child Care", "location": {"address": "Brooklyn", "lat": 40.646798860141395, "lng": -73.96041691303253, "labeledLatLngs": [{"label": "display", "lat": 40.646798860141395, "lng": -73.96041691303253}], "distance": 351, "postalCode": "11226", "cc": "US", "city": "Brooklyn", "state": "NY", "country": "United States", "formattedAddress": ["Brooklyn", "Brooklyn, NY 11226", "United States"]}, "categories": [{"id": "5744ccdfe4b0c0459246b4c7", "name": "Child Care Service", "pluralName": "Child Care Services", "shortName": "Child Care", "icon": {"prefix": "https://ss3.4sqi.net/img/categories_v2/shops/daycare_", "suffix": ".png"}, "primary": true}], "photos": {"count": 0, "groups": []}}, "referralId": "e-0-585ac9b794c6903fd3e43ab0-43"}, {"reasons": {"count": 0, "items": [{"summary": "This spot is popular", "type": "general", "reasonName": "globalInteractionReason"}]}, "venue": {"id": "4f329fb419836c91c7e9da60", "name": "Cortelyou Wine and Liquor Co", "location": {"address": "1524 Cortelyou Rd", "lat": 40.6413, "lng": -73.963898, "labeledLatLngs": [{"label": "display", "lat": 40.6413, "lng": -73.963898}, {"label": "entrance", "lat": 40.641359, "lng": -73.963769}], "distance": 359, "postalCode": "11226", "cc": "US", "city": "Brooklyn", "state": "NY", "country": "United States", "formattedAddress": ["1524 Cortelyou Rd", "Brooklyn, NY 11226", "United States"]}, "categories": [{"id": "4bf58dd8d48988d186941735", "name": "Liquor Store", "pluralName": "Liquor Stores", "shortName": "Liquor Store", "icon": {"prefix": "https://ss3.4sqi.net/img/categories_v2/shops/food_liquor_", "suffix": ".png"}, "primary": true}], "photos": {"count": 0, "groups": []}}, "referralId": "e-0-4f329fb419836c91c7e9da60-44"}, {"reasons": {"count": 0, "items": [{"summary": "This spot is popular", "type": "general", "reasonName": "globalInteractionReason"}]}, "venue": {"id": "4b200f21f964a520ac2c24e3", "name": "MTA Subway - Cortelyou Rd (Q)", "location": {"address": "Cortelyou Rd.", "crossStreet": "btwn Marlborough Rd. & E. 16th St.", "lat": 40.641293136250454, "lng": -73.96393646354768, "labeledLatLngs": [{"label": "display", "lat": 40.641293136250454, "lng": -73.96393646354768}], "distance": 362, "postalCode": "11226", "cc": "US", "city": "Brooklyn", "state": "NY", "country": "United States", "formattedAddress": ["Cortelyou Rd. (btwn Marlborough Rd. & E. 16th St.)", "Brooklyn, NY 11226", "United States"]}, "categories": [{"id": "4bf58dd8d48988d1fd931735", "name": "Metro Station", "pluralName": "Metro Stations", "shortName": "Metro", "icon": {"prefix": "https://ss3.4sqi.net/img/categories_v2/travel/subway_", "suffix": ".png"}, "primary": true}], "photos": {"count": 0, "groups": []}}, "referralId": "e-0-4b200f21f964a520ac2c24e3-45"}, {"reasons": {"count": 0, "items": [{"summary": "This spot is popular", "type": "general", "reasonName": "globalInteractionReason"}]}, "venue": {"id": "4d031fab9d33a1437253b278", "name": "Father And Son Deli", "location": {"address": "1501 Cortelyou Rd", "crossStreet": "Marlborough Road", "lat": 40.64125171117302, "lng": -73.96440197551483, "labeledLatLngs": [{"label": "display", "lat": 40.64125171117302, "lng": -73.96440197551483}, {"label": "entrance", "lat": 40.6414, "lng": -73.964301}], "distance": 393, "postalCode": "11226", "cc": "US", "city": "Brooklyn", "state": "NY", "country": "United States", "formattedAddress": ["1501 Cortelyou Rd (Marlborough Road)", "Brooklyn, NY 11226", "United States"]}, "categories": [{"id": "4bf58dd8d48988d146941735", "name": "Deli / Bodega", "pluralName": "Delis / Bodegas", "shortName": "Deli / Bodega", "icon": {"prefix": "https://ss3.4sqi.net/img/categories_v2/food/deli_", "suffix": ".png"}, "primary": true}], "photos": {"count": 0, "groups": []}}, "referralId": "e-0-4d031fab9d33a1437253b278-46"}, {"reasons": {"count": 0, "items": [{"summary": "This spot is popular", "type": "general", "reasonName": "globalInteractionReason"}]}, "venue": {"id": "4fb7f86ce4b02203b7249b20", "name": "Rainbow Apparel", "location": {"address": "1013 Flatbush Ave", "lat": 40.646273, "lng": -73.957686, "labeledLatLngs": [{"label": "display", "lat": 40.646273, "lng": -73.957686}], "distance": 403, "postalCode": "11226", "cc": "US", "city": "Brooklyn", "state": "NY", "country": "United States", "formattedAddress": ["1013 Flatbush Ave", "Brooklyn, NY 11226", "United States"]}, "categories": [{"id": "4bf58dd8d48988d103951735", "name": "Clothing Store", "pluralName": "Clothing Stores", "shortName": "Apparel", "icon": {"prefix": "https://ss3.4sqi.net/img/categories_v2/shops/apparel_", "suffix": ".png"}, "primary": true}], "photos": {"count": 0, "groups": []}}, "referralId": "e-0-4fb7f86ce4b02203b7249b20-47"}, {"reasons": {"count": 0, "items": [{"summary": "This spot is popular", "type": "general", "reasonName": "globalInteractionReason"}]}, "venue": {"id": "4ee93ee75c5c0575fa2cd02d", "name": "Sneakeasy", "location": {"address": "924 Flatbush Ave", "crossStreet": "Albemere", "lat": 40.64726498273936, "lng": -73.95815943758883, "labeledLatLngs": [{"label": "display", "lat": 40.64726498273936, "lng": -73.95815943758883}], "distance": 466, "postalCode": "11226", "cc": "US", "city": "Brooklyn", "state": "NY", "country": "United States", "formattedAddress": ["924 Flatbush Ave (Albemere)", "Brooklyn, NY 11226", "United States"]}, "categories": [{"id": "4bf58dd8d48988d107951735", "name": "Shoe Store", "pluralName": "Shoe Stores", "shortName": "Shoes", "icon": {"prefix": "https://ss3.4sqi.net/img/categories_v2/shops/apparel_shoestore_", "suffix": ".png"}, "primary": true}], "photos": {"count": 0, "groups": []}}, "referralId": "e-0-4ee93ee75c5c0575fa2cd02d-48"}, {"reasons": {"count": 0, "items": [{"summary": "This spot is popular", "type": "general", "reasonName": "globalInteractionReason"}]}, "venue": {"id": "536543d1498e6cfe82ef5b84", "name": "Edible Arrangements", "location": {"address": "993 Flatbush Ave", "lat": 40.647155231827206, "lng": -73.9579284534633, "labeledLatLngs": [{"label": "display", "lat": 40.647155231827206, "lng": -73.9579284534633}, {"label": "entrance", "lat": 40.647152, "lng": -73.957974}], "distance": 466, "postalCode": "11226", "cc": "US", "city": "Brooklyn", "state": "NY", "country": "United States", "formattedAddress": ["993 Flatbush Ave", "Brooklyn, NY 11226", "United States"]}, "categories": [{"id": "4bf58dd8d48988d128951735", "name": "Gift Shop", "pluralName": "Gift Shops", "shortName": "Gift Shop", "icon": {"prefix": "https://ss3.4sqi.net/img/categories_v2/shops/giftshop_", "suffix": ".png"}, "primary": true}], "photos": {"count": 0, "groups": []}}, "referralId": "e-0-536543d1498e6cfe82ef5b84-49"}]