[{"reasons": {"count": 0, "items": [{"summary": "This spot is popular", "type": "general", "reasonName": "globalInteractionReason"}]}, "venue": {"id": "4ba2e437f964a520d52038e3", "name": "Dyker Park Hot Bagels", "location": {"address": "713 86th St", "crossStreet": "btwn 7th Ave & Dyker Pl", "lat": 40.618768250991714, "lng": -74.02165483966806, "labeledLatLngs": [{"label": "display", "lat": 40.618768250991714, "lng": -74.02165483966806}, {"label": "entrance", "lat": 40.61882, "lng": -74.021504}], "distance": 204, "postalCode": "11228", "cc": "US", "city": "Brooklyn", "state": "NY", "country": "United States", "formattedAddress": ["713 86th St (btwn 7th Ave & Dyker Pl)", "Brooklyn, NY 11228", "United States"]}, "categories": [{"id": "4bf58dd8d48988d179941735", "name": "Bagel Shop", "pluralName": "Bagel Shops", "shortName": "Bagels", "icon": {"prefix": "https://ss3.4sqi.net/img/categories_v2/food/bagels_", "suffix": ".png"}, "primary": true}], "delivery": {"id": "1536191", "url": "https://www.seamless.com/menu/dyker-park-hot-bagels-713-86th-st-brooklyn/1536191?affiliate=1131&utm_source=foursquare-affiliate-network&utm_medium=affiliate&utm_campaign=1131&utm_content=1536191", "provider": {"name": "seamless", "icon": {"prefix": "https://fastly.4sqi.net/img/general/cap/", "sizes": [40, 50], "name": "/delivery_provider_seamless_20180129.png"}}}, "photos": {"count": 0, "groups": []}}, "referralId": "e-0-4ba2e437f964a520d52038e3-0"}, {"reasons": {"count": 0, "items": [{"summary": "This spot is popular", "type": "general", "reasonName": "globalInteractionReason"}]}, "venue": {"id": "5792ab2e498e1f75f8d0ac24", "name": "BurgerFi", "location": {"address": "719 86th St", "lat": 40.61880988, "lng": -74.02133452, "labeledLatLngs": [{"label": "display", "lat": 40.61880988, "lng": -74.02133452}, {"label": "entrance", "lat": 40.618754, "lng": -74.021395}], "distance": 176, "postalCode": "11228", "cc": "US", "city": "Brooklyn", "state": "NY", "country": "United States", "formattedAddress": ["719 86th St", "Brooklyn, NY 11228", "United States"]}, "categories": [{"id": "4bf58dd8d48988d16c941735", "name": "Burger Joint", "pluralName": "Burger Joints", "shortName": "Burgers", "icon": {"prefix": "https://ss3.4sqi.net/img/categories_v2/food/burger_", "suffix": ".png"}, "primary": true}], "delivery": {"id": "1239915", "url": "https://www.grubhub.com/restaurant/burgerfi-719-86th-st-brooklyn/1239915?affiliate=1131&utm_source=foursquare-affiliate-network&utm_medium=affiliate&utm_campaign=1131&utm_content=1239915", "provider": {"name": "grubhub", "icon": {"prefix": "https://fastly.4sqi.net/img/general/cap/", "sizes": [40, 50], "name": "/delivery_provider_grubhub_20180129.png"}}}, "photos": {"count": 0, "groups": []}, "venuePage": {"id": "563867633"}}, "referralId": "e-0-5792ab2e498e1f75f8d0ac24-1"}, {"reasons": {"count": 0, "items": [{"summary": "This spot is popular", "type": "general", "reasonName": "globalInteractionReason"}]}, "venue": {"id": "4a9fc5cdf964a5204a3d20e3", "name": "Dyker Beach Golf Course", "location": {"address": "1030 86th St", "lat": 40.61655026031118, "lng": -74.02040416913387, "labeledLatLngs": [{"label": "display", "lat": 40.61655026031118, "lng": -74.02040416913387}], "distance": 311, "postalCode": "11228", "cc": "US", "city": "Brooklyn", "state": "NY", "country": "United States", "formattedAddress": ["1030 86th St", "Brooklyn, NY 11228", "United States"]}, "categories": [{"id": "4bf58dd8d48988d1e6941735", "name": "Golf Course", "pluralName": "Golf Courses", "shortName": "Golf Course", "icon": {"prefix": "https://ss3.4sqi.net/img/categories_v2/parks_outdoors/golfcourse_", "suffix": ".png"}, "primary": true}], "photos": {"count": 0, "groups": []}}, "referralId": "e-0-4a9fc5cdf964a5204a3d20e3-2"}, {"reasons": {"count": 0, "items": [{"summary": "This spot is popular", "type": "general", "reasonName": "globalInteractionReason"}]}, "venue": {"id": "4d4da04172eba14391e14512", "name": "Green Tea New Nails Spa", "location": {"address": "8111 7th Ave", "lat": 40.621798999999996, "lng": -74.019478, "labeledLatLngs": [{"label": "display", "lat": 40.621798999999996, "lng": -74.019478}, {"label": "entrance", "lat": 40.621838, "lng": -74.019648}], "distance": 287, "postalCode": "11228", "cc": "US", "city": "Brooklyn", "state": "NY", "country": "United States", "formattedAddress": ["8111 7th Ave", "Brooklyn, NY 11228", "United States"]}, "categories": [{"id": "4bf58dd8d48988d10c951735", "name": "Cosmetics Shop", "pluralName": "Cosmetics Shops", "shortName": "Cosmetics", "icon": {"prefix": "https://ss3.4sqi.net/img/categories_v2/shops/beauty_cosmetic_", "suffix": ".png"}, "primary": true}], "photos": {"count": 0, "groups": []}}, "referralId": "e-0-4d4da04172eba14391e14512-3"}]