[{"reasons": {"count": 0, "items": [{"summary": "This spot is popular", "type": "general", "reasonName": "globalInteractionReason"}]}, "venue": {"id": "5a00f3538496ca58fd9e2856", "name": "Evelina Restaurant", "location": {"address": "211 Dekalb Ave", "crossStreet": "Adelphi", "lat": 40.689629, "lng": -73.971018, "labeledLatLngs": [{"label": "display", "lat": 40.689629, "lng": -73.971018}], "distance": 201, "postalCode": "11205", "cc": "US", "city": "Brooklyn", "state": "NY", "country": "United States", "formattedAddress": ["211 Dekalb Ave (Adelphi)", "Brooklyn, NY 11205", "United States"]}, "categories": [{"id": "4bf58dd8d48988d110941735", "name": "Italian Restaurant", "pluralName": "Italian Restaurants", "shortName": "Italian", "icon": {"prefix": "https://ss3.4sqi.net/img/categories_v2/food/italian_", "suffix": ".png"}, "primary": true}], "delivery": {"id": "2031720", "url": "https://www.seamless.com/menu/evelina-211-dekalb-ave-brooklyn/2031720?affiliate=1131&utm_source=foursquare-affiliate-network&utm_medium=affiliate&utm_campaign=1131&utm_content=2031720", "provider": {"name": "seamless", "icon": {"prefix": "https://fastly.4sqi.net/img/general/cap/", "sizes": [40, 50], "name": "/delivery_provider_seamless_20180129.png"}}}, "photos": {"count": 0, "groups": []}}, "referralId": "e-0-5a00f3538496ca58fd9e2856-0"}, {"reasons": {"count": 0, "items": [{"summary": "This spot is popular", "type": "general", "reasonName": "globalInteractionReason"}]}, "venue": {"id": "5914d24b3b83070821fcdd87", "name": "Miss Ada", "location": {"address": "184 Dekalb Ave", "lat": 40.68956047839135, "lng": -73.9723511535792, "labeledLatLngs": [{"label": "display", "lat": 40.68956047839135, "lng": -73.9723511535792}], "distance": 124, "postalCode": "11205", "cc": "US", "city": "New York", "state": "NY", "country": "United States", "formattedAddress": ["184 Dekalb Ave", "New York, NY 11205", "United States"]}, "categories": [{"id": "56aa371be4b08b9a8d573529", "name": "Israeli Restaurant", "pluralName": "Israeli Restaurants", "shortName": "Israeli", "icon": {"prefix": "https://ss3.4sqi.net/img/categories_v2/food/falafel_", "suffix": ".png"}, "primary": true}], "photos": {"count": 0, "groups": []}}, "referralId": "e-0-5914d24b3b83070821fcdd87-1"}, {"reasons": {"count": 0, "items": [{"summary": "This spot is popular", "type": "general", "reasonName": "globalInteractionReason"}]}, "venue": {"id": "4aabd14ef964a520375a20e3", "name": "Fort Greene Park Greenmarket", "location": {"address": "186 DeKalb Ave", "crossStreet": "at Washington Pk", "lat": 40.68972631373066, "lng": -73.97329713840351, "labeledLatLngs": [{"label": "display", "lat": 40.68972631373066, "lng": -73.97329713840351}], "distance": 137, "postalCode": "11205", "cc": "US", "city": "Brooklyn", "state": "NY", "country": "United States", "formattedAddress": ["186 DeKalb Ave (at Washington Pk)", "Brooklyn, NY 11205", "United States"]}, "categories": [{"id": "4bf58dd8d48988d1fa941735", "name": "Farmers Market", "pluralName": "Farmers Markets", "shortName": "Farmer's Market", "icon": {"prefix": "https://ss3.4sqi.net/img/categories_v2/shops/food_farmersmarket_", "suffix": ".png"}, "primary": true}], "photos": {"count": 0, "groups": []}}, "referralId": "e-0-4aabd14ef964a520375a20e3-2"}, {"reasons": {"count": 0, "items": [{"summary": "This spot is popular", "type": "general", "reasonName": "globalInteractionReason"}]}, "venue": {"id": "44fc6a24f964a52084381fe3", "name": "Olea", "location": {"address": "171 Lafayette Ave", "crossStreet": "at Adelphi St", "lat": 40.687716119555226, "lng": -73.97059433405471, "labeledLatLngs": [{"label": "display", "lat": 40.687716119555226, "lng": -73.97059433405471}], "distance": 214, "postalCode": "11238", "cc": "US", "city": "Brooklyn", "state": "NY", "country": "United States", "formattedAddress": ["171 Lafayette Ave (at Adelphi St)", "Brooklyn, NY 11238", "United States"]}, "categories": [{"id": "4bf58dd8d48988d1db931735", "name": "Tapas Restaurant", "pluralName": "Tapas Restaurants", "shortName": "Tapas", "icon": {"prefix": "https://ss3.4sqi.net/img/categories_v2/food/tapas_", "suffix": ".png"}, "primary": true}], "photos": {"count": 0, "groups": []}}, "referralId": "e-0-44fc6a24f964a52084381fe3-3"}, {"reasons": {"count": 0, "items": [{"summary": "This spot is popular", "type": "general", "reasonName": "globalInteractionReason"}]}, "venue": {"id": "4eb4750d93ad23656fc01460", "name": "Dick & Janes", "location": {"address": "266 Adelphi St", "crossStreet": "at Dekalb Ave", "lat": 40.689776850546465, "lng": -73.9712367938648, "labeledLatLngs": [{"label": "display", "lat": 40.689776850546465, "lng": -73.9712367938648}, {"label": "entrance", "lat": 40.689874, "lng": -73.971341}], "distance": 197, "postalCode": "11205", "cc": "US", "city": "Brooklyn", "state": "NY", "country": "United States", "formattedAddress": ["266 Adelphi St (at Dekalb Ave)", "Brooklyn, NY 11205", "United States"]}, "categories": [{"id": "4bf58dd8d48988d11e941735", "name": "Cocktail Bar", "pluralName": "Cocktail Bars", "shortName": "Cocktail", "icon": {"prefix": "https://ss3.4sqi.net/img/categories_v2/nightlife/cocktails_", "suffix": ".png"}, "primary": true}], "photos": {"count": 0, "groups": []}}, "referralId": "e-0-4eb4750d93ad23656fc01460-4"}, {"reasons": {"count": 0, "items": [{"summary": "This spot is popular", "type": "general", "reasonName": "globalInteractionReason"}]}, "venue": {"id": "5739c66c498e7ef6085cec4f", "name": "Karasu", "location": {"address": "166 Dekalb Ave", "lat": 40.68957739999216, "lng": -73.97329032514342, "labeledLatLngs": [{"label": "display", "lat": 40.68957739999216, "lng": -73.97329032514342}], "distance": 121, "postalCode": "11217", "cc": "US", "city": "Brooklyn", "state": "NY", "country": "United States", "formattedAddress": ["166 Dekalb Ave", "Brooklyn, NY 11217", "United States"]}, "categories": [{"id": "4bf58dd8d48988d111941735", "name": "Japanese Restaurant", "pluralName": "Japanese Restaurants", "shortName": "Japanese", "icon": {"prefix": "https://ss3.4sqi.net/img/categories_v2/food/japanese_", "suffix": ".png"}, "primary": true}], "photos": {"count": 0, "groups": []}}, "referralId": "e-0-5739c66c498e7ef6085cec4f-5"}, {"reasons": {"count": 0, "items": [{"summary": "This spot is popular", "type": "general", "reasonName": "globalInteractionReason"}]}, "venue": {"id": "4ec9b936775bf65c061f760e", "name": "Walter's", "location": {"address": "166 Dekalb Ave", "crossStreet": "at Cumberland St", "lat": 40.68962983369858, "lng": -73.97311918839874, "labeledLatLngs": [{"label": "display", "lat": 40.68962983369858, "lng": -73.97311918839874}, {"label": "entrance", "lat": 40.689525, "lng": -73.973269}], "distance": 124, "postalCode": "11217", "cc": "US", "city": "Brooklyn", "state": "NY", "country": "United States", "formattedAddress": ["166 Dekalb Ave (at Cumberland St)", "Brooklyn, NY 11217", "United States"]}, "categories": [{"id": "4bf58dd8d48988d157941735", "name": "New American Restaurant", "pluralName": "New American Restaurants", "shortName": "New American", "icon": {"prefix": "https://ss3.4sqi.net/img/categories_v2/food/newamerican_", "suffix": ".png"}, "primary": true}], "photos": {"count": 0, "groups": []}, "venuePage": {"id": "93168054"}}, "referralId": "e-0-4ec9b936775bf65c061f760e-6"}, {"reasons": {"count": 0, "items": [{"summary": "This spot is popular", "type": "general", "reasonName": "globalInteractionReason"}]}, "venue": {"id": "4c641ea969a1c9b6a9c33ca4", "name": "Melt Massage", "location": {"address": "84 Lafayette Ave", "crossStreet": "South Portland", "lat": 40.68712693815726, "lng": -73.97460695451028, "labeledLatLngs": [{"label": "display", "lat": 40.68712693815726, "lng": -73.97460695451028}, {"label": "entrance", "lat": 40.687129, "lng": -73.97438}], "distance": 211, "postalCode": "11217", "cc": "US", "city": "Brooklyn", "state": "NY", "country": "United States", "formattedAddress": ["84 Lafayette Ave (South Portland)", "Brooklyn, NY 11217", "United States"]}, "categories": [{"id": "52f2ab2ebcbc57f1066b8b3c", "name": "Massage Studio", "pluralName": "Massage Studios", "shortName": "Massage Studio", "icon": {"prefix": "https://ss3.4sqi.net/img/categories_v2/shops/spa_", "suffix": ".png"}, "primary": true}], "photos": {"count": 0, "groups": []}}, "referralId": "e-0-4c641ea969a1c9b6a9c33ca4-7"}, {"reasons": {"count": 0, "items": [{"summary": "This spot is popular", "type": "general", "reasonName": "globalInteractionReason"}]}, "venue": {"id": "52f7d70e11d203df776339da", "name": "Colonia Verde", "location": {"address": "219 Dekalb Ave", "lat": 40.689693418539875, "lng": -73.97073816836266, "labeledLatLngs": [{"label": "display", "lat": 40.689693418539875, "lng": -73.97073816836266}], "distance": 224, "postalCode": "11205", "cc": "US", "city": "Brooklyn", "state": "NY", "country": "United States", "formattedAddress": ["219 Dekalb Ave", "Brooklyn, NY 11205", "United States"]}, "categories": [{"id": "4bf58dd8d48988d1be941735", "name": "Latin American Restaurant", "pluralName": "Latin American Restaurants", "shortName": "Latin American", "icon": {"prefix": "https://ss3.4sqi.net/img/categories_v2/food/latinamerican_", "suffix": ".png"}, "primary": true}], "photos": {"count": 0, "groups": []}, "venuePage": {"id": "82790306"}}, "referralId": "e-0-52f7d70e11d203df776339da-8"}, {"reasons": {"count": 0, "items": [{"summary": "This spot is popular", "type": "general", "reasonName": "globalInteractionReason"}]}, "venue": {"id": "5ae70ca64c954c002c618bff", "name": "Imani Caribbean Kitchen & Bar", "location": {"address": "271 Adelphi St", "crossStreet": "DeKalb Ave", "lat": 40.68949374298435, "lng": -73.97095919400672, "labeledLatLngs": [{"label": "display", "lat": 40.68949374298435, "lng": -73.97095919400672}], "distance": 196, "postalCode": "11205", "cc": "US", "city": "New York", "state": "NY", "country": "United States", "formattedAddress": ["271 Adelphi St (DeKalb Ave)", "New York, NY 11205", "United States"]}, "categories": [{"id": "4bf58dd8d48988d144941735", "name": "Caribbean Restaurant", "pluralName": "Caribbean Restaurants", "shortName": "Caribbean", "icon": {"prefix": "https://ss3.4sqi.net/img/categories_v2/food/caribbean_", "suffix": ".png"}, "primary": true}], "delivery": {"id": "1010530", "url": "https://www.seamless.com/menu/imani-caribbean-kitchen--bar-271-adelphi-st-brooklyn/1010530?affiliate=1131&utm_source=foursquare-affiliate-network&utm_medium=affiliate&utm_campaign=1131&utm_content=1010530", "provider": {"name": "seamless", "icon": {"prefix": "https://fastly.4sqi.net/img/general/cap/", "sizes": [40, 50], "name": "/delivery_provider_seamless_20180129.png"}}}, "photos": {"count": 0, "groups": []}}, "referralId": "e-0-5ae70ca64c954c002c618bff-9"}, {"reasons": {"count": 0, "items": [{"summary": "This spot is popular", "type": "general", "reasonName": "globalInteractionReason"}]}, "venue": {"id": "49b79e04f964a5202b531fe3", "name": "Bittersweet", "location": {"address": "180 Dekalb Ave", "crossStreet": "btwn Washington Pk & Carlton Ave", "lat": 40.689587651946525, "lng": -73.97249488542947, "labeledLatLngs": [{"label": "display", "lat": 40.689587651946525, "lng": -73.97249488542947}, {"label": "entrance", "lat": 40.689498, "lng": -73.972548}], "distance": 123, "postalCode": "11205", "cc": "US", "city": "Brooklyn", "state": "NY", "country": "United States", "formattedAddress": ["180 Dekalb Ave (btwn Washington Pk & Carlton Ave)", "Brooklyn, NY 11205", "United States"]}, "categories": [{"id": "4bf58dd8d48988d1e0931735", "name": "Coffee Shop", "pluralName": "Coffee Shops", "shortName": "Coffee Shop", "icon": {"prefix": "https://ss3.4sqi.net/img/categories_v2/food/coffeeshop_", "suffix": ".png"}, "primary": true}], "photos": {"count": 0, "groups": []}}, "referralId": "e-0-49b79e04f964a5202b531fe3-10"}, {"reasons": {"count": 0, "items": [{"summary": "This spot is popular", "type": "general", "reasonName": "globalInteractionReason"}]}, "venue": {"id": "4ad937aef964a520281921e3", "name": "Greenlight Bookstore", "location": {"address": "686 Fulton St", "crossStreet": "at S Portland Ave", "lat": 40.68635635950454, "lng": -73.97456031947704, "labeledLatLngs": [{"label": "display", "lat": 40.68635635950454, "lng": -73.97456031947704}, {"label": "entrance", "lat": 40.686106, "lng": -73.974527}], "distance": 279, "postalCode": "11217", "cc": "US", "city": "Brooklyn", "state": "NY", "country": "United States", "formattedAddress": ["686 Fulton St (at S Portland Ave)", "Brooklyn, NY 11217", "United States"]}, "categories": [{"id": "4bf58dd8d48988d114951735", "name": "Bookstore", "pluralName": "Bookstores", "shortName": "Bookstore", "icon": {"prefix": "https://ss3.4sqi.net/img/categories_v2/shops/bookstore_", "suffix": ".png"}, "primary": true}], "photos": {"count": 0, "groups": []}, "venuePage": {"id": "81891725"}}, "referralId": "e-0-4ad937aef964a520281921e3-11"}, {"reasons": {"count": 0, "items": [{"summary": "This spot is popular", "type": "general", "reasonName": "globalInteractionReason"}]}, "venue": {"id": "4dc5415ed22dafda2f9f01f9", "name": "Fort Greene Dog Park", "location": {"address": "Washington Pk", "crossStreet": "at DeKalb Ave", "lat": 40.69045012098586, "lng": -73.97421323151809, "labeledLatLngs": [{"label": "display", "lat": 40.69045012098586, "lng": -73.97421323151809}], "distance": 240, "postalCode": "11201", "cc": "US", "city": "Brooklyn", "state": "NY", "country": "United States", "formattedAddress": ["Washington Pk (at DeKalb Ave)", "Brooklyn, NY 11201", "United States"]}, "categories": [{"id": "4bf58dd8d48988d1e5941735", "name": "Dog Run", "pluralName": "Dog Runs", "shortName": "Dog Run", "icon": {"prefix": "https://ss3.4sqi.net/img/categories_v2/parks_outdoors/dogrun_", "suffix": ".png"}, "primary": true}], "photos": {"count": 0, "groups": []}}, "referralId": "e-0-4dc5415ed22dafda2f9f01f9-12"}, {"reasons": {"count": 0, "items": [{"summary": "This spot is popular", "type": "general", "reasonName": "globalInteractionReason"}]}, "venue": {"id": "49f49bb9f964a520266b1fe3", "name": "The Greene Grape Wine & Spirits", "location": {"address": "765 Fulton St", "crossStreet": "btwn So. Portland & So. Oxford", "lat": 40.686163126689756, "lng": -73.9741208569246, "labeledLatLngs": [{"label": "display", "lat": 40.686163126689756, "lng": -73.9741208569246}, {"label": "entrance", "lat": 40.686266, "lng": -73.974037}], "distance": 282, "postalCode": "11217", "cc": "US", "city": "Brooklyn", "state": "NY", "country": "United States", "formattedAddress": ["765 Fulton St (btwn So. Portland & So. Oxford)", "Brooklyn, NY 11217", "United States"]}, "categories": [{"id": "4bf58dd8d48988d119951735", "name": "Wine Shop", "pluralName": "Wine Shops", "shortName": "Wine Shop", "icon": {"prefix": "https://ss3.4sqi.net/img/categories_v2/shops/food_wineshop_", "suffix": ".png"}, "primary": true}], "photos": {"count": 0, "groups": []}, "venuePage": {"id": "72050794"}}, "referralId": "e-0-49f49bb9f964a520266b1fe3-13"}, {"reasons": {"count": 0, "items": [{"summary": "This spot is popular", "type": "general", "reasonName": "globalInteractionReason"}]}, "venue": {"id": "57770116498ec37566d93fea", "name": "Bisou Bisou Lounge", "location": {"address": "264 Carlton Ave", "crossStreet": "Dekalb Ave", "lat": 40.68979876472218, "lng": -73.97225106017368, "labeledLatLngs": [{"label": "display", "lat": 40.68979876472218, "lng": -73.97225106017368}], "distance": 151, "postalCode": "11205", "cc": "US", "city": "Brooklyn", "state": "NY", "country": "United States", "formattedAddress": ["264 Carlton Ave (Dekalb Ave)", "Brooklyn, NY 11205", "United States"]}, "categories": [{"id": "4bf58dd8d48988d157941735", "name": "New American Restaurant", "pluralName": "New American Restaurants", "shortName": "New American", "icon": {"prefix": "https://ss3.4sqi.net/img/categories_v2/food/newamerican_", "suffix": ".png"}, "primary": true}], "photos": {"count": 0, "groups": []}}, "referralId": "e-0-57770116498ec37566d93fea-14"}, {"reasons": {"count": 0, "items": [{"summary": "This spot is popular", "type": "general", "reasonName": "globalInteractionReason"}]}, "venue": {"id": "4a034b75f964a520a8711fe3", "name": "Edmonds Playground", "location": {"address": "196 Dekalb Ave", "crossStreet": "btwn Adelphi St & Carlton Ave", "lat": 40.689432328528866, "lng": -73.97182840898755, "labeledLatLngs": [{"label": "display", "lat": 40.689432328528866, "lng": -73.97182840898755}], "distance": 135, "postalCode": "11205", "cc": "US", "city": "Brooklyn", "state": "NY", "country": "United States", "formattedAddress": ["196 Dekalb Ave (btwn Adelphi St & Carlton Ave)", "Brooklyn, NY 11205", "United States"]}, "categories": [{"id": "4bf58dd8d48988d1e7941735", "name": "Playground", "pluralName": "Playgrounds", "shortName": "Playground", "icon": {"prefix": "https://ss3.4sqi.net/img/categories_v2/parks_outdoors/playground_", "suffix": ".png"}, "primary": true}], "photos": {"count": 0, "groups": []}}, "referralId": "e-0-4a034b75f964a520a8711fe3-15"}, {"reasons": {"count": 0, "items": [{"summary": "This spot is popular", "type": "general", "reasonName": "globalInteractionReason"}]}, "venue": {"id": "57899e45498e6cad27ea2369", "name": "Mr. Mango", "location": {"address": "61 Lafayette Ave", "crossStreet": "btwn S Elliot Pl & Ft Green Pl", "lat": 40.68710060748026, "lng": -73.97611235818754, "labeledLatLngs": [{"label": "display", "lat": 40.68710060748026, "lng": -73.97611235818754}], "distance": 313, "postalCode": "11217", "cc": "US", "neighborhood": "Fort Greene", "city": "New York", "state": "NY", "country": "United States", "formattedAddress": ["61 Lafayette Ave (btwn S Elliot Pl & Ft Green Pl)", "New York, NY 11217", "United States"]}, "categories": [{"id": "4bf58dd8d48988d118951735", "name": "Grocery Store", "pluralName": "Grocery Stores", "shortName": "Grocery Store", "icon": {"prefix": "https://ss3.4sqi.net/img/categories_v2/shops/food_grocery_", "suffix": ".png"}, "primary": true}], "photos": {"count": 0, "groups": []}}, "referralId": "e-0-57899e45498e6cad27ea2369-16"}, {"reasons": {"count": 0, "items": [{"summary": "This spot is popular", "type": "general", "reasonName": "globalInteractionReason"}]}, "venue": {"id": "4c1bde1beac020a1069545c2", "name": "Fort Greene Park Playground", "location": {"address": "DeKalb Ave", "crossStreet": "at Washington Pk", "lat": 40.69017161434123, "lng": -73.97361905520151, "labeledLatLngs": [{"label": "display", "lat": 40.69017161434123, "lng": -73.97361905520151}], "distance": 192, "postalCode": "11201", "cc": "US", "city": "Brooklyn", "state": "NY", "country": "United States", "formattedAddress": ["DeKalb Ave (at Washington Pk)", "Brooklyn, NY 11201", "United States"]}, "categories": [{"id": "4bf58dd8d48988d1e7941735", "name": "Playground", "pluralName": "Playgrounds", "shortName": "Playground", "icon": {"prefix": "https://ss3.4sqi.net/img/categories_v2/parks_outdoors/playground_", "suffix": ".png"}, "primary": true}], "photos": {"count": 0, "groups": []}}, "referralId": "e-0-4c1bde1beac020a1069545c2-17"}, {"reasons": {"count": 0, "items": [{"summary": "This spot is popular", "type": "general", "reasonName": "globalInteractionReason"}]}, "venue": {"id": "4b7736cbf964a52075882ee3", "name": "Stem", "location": {"address": "112 S Oxford St", "lat": 40.686161, "lng": -73.973607, "labeledLatLngs": [{"label": "display", "lat": 40.686161, "lng": -73.973607}, {"label": "entrance", "lat": 40.686211, "lng": -73.973569}], "distance": 269, "postalCode": "11217", "cc": "US", "city": "Brooklyn", "state": "NY", "country": "United States", "formattedAddress": ["112 S Oxford St", "Brooklyn, NY 11217", "United States"]}, "categories": [{"id": "4bf58dd8d48988d11b951735", "name": "Flower Shop", "pluralName": "Flower Shops", "shortName": "Flower Shop", "icon": {"prefix": "https://ss3.4sqi.net/img/categories_v2/shops/flowershop_", "suffix": ".png"}, "primary": true}], "photos": {"count": 0, "groups": []}}, "referralId": "e-0-4b7736cbf964a52075882ee3-18"}, {"reasons": {"count": 0, "items": [{"summary": "This spot is popular", "type": "general", "reasonName": "globalInteractionReason"}]}, "venue": {"id": "4a5e147bf964a52001be1fe3", "name": "Not Ray's Pizza", "location": {"address": "694 Fulton St", "crossStreet": "at S Portland Ave", "lat": 40.68612065515834, "lng": -73.97406226761952, "labeledLatLngs": [{"label": "display", "lat": 40.68612065515834, "lng": -73.97406226761952}], "distance": 285, "postalCode": "11217", "cc": "US", "city": "Brooklyn", "state": "NY", "country": "United States", "formattedAddress": ["694 Fulton St (at S Portland Ave)", "Brooklyn, NY 11217", "United States"]}, "categories": [{"id": "4bf58dd8d48988d1ca941735", "name": "Pizza Place", "pluralName": "Pizza Places", "shortName": "Pizza", "icon": {"prefix": "https://ss3.4sqi.net/img/categories_v2/food/pizza_", "suffix": ".png"}, "primary": true}], "delivery": {"id": "81269", "url": "https://www.seamless.com/menu/not-rays-pizzeria-694-fulton-st-brooklyn/81269?affiliate=1131&utm_source=foursquare-affiliate-network&utm_medium=affiliate&utm_campaign=1131&utm_content=81269", "provider": {"name": "seamless", "icon": {"prefix": "https://fastly.4sqi.net/img/general/cap/", "sizes": [40, 50], "name": "/delivery_provider_seamless_20180129.png"}}}, "photos": {"count": 0, "groups": []}, "venuePage": {"id": "97532011"}}, "referralId": "e-0-4a5e147bf964a52001be1fe3-19"}, {"reasons": {"count": 0, "items": [{"summary": "This spot is popular", "type": "general", "reasonName": "globalInteractionReason"}]}, "venue": {"id": "42d1b680f964a5200b261fe3", "name": "Habana Outpost", "location": {"address": "757 Fulton St", "crossStreet": "at S Portland Ave", "lat": 40.68636414349394, "lng": -73.97438814757908, "labeledLatLngs": [{"label": "display", "lat": 40.68636414349394, "lng": -73.97438814757908}], "distance": 271, "postalCode": "11217", "cc": "US", "neighborhood": "Fort Greene", "city": "Brooklyn", "state": "NY", "country": "United States", "formattedAddress": ["757 Fulton St (at S Portland Ave)", "Brooklyn, NY 11217", "United States"]}, "categories": [{"id": "4bf58dd8d48988d154941735", "name": "Cuban Restaurant", "pluralName": "Cuban Restaurants", "shortName": "Cuban", "icon": {"prefix": "https://ss3.4sqi.net/img/categories_v2/food/cuban_", "suffix": ".png"}, "primary": true}], "photos": {"count": 0, "groups": []}, "venuePage": {"id": "67042106"}}, "referralId": "e-0-42d1b680f964a5200b261fe3-20"}, {"reasons": {"count": 0, "items": [{"summary": "This spot is popular", "type": "general", "reasonName": "globalInteractionReason"}]}, "venue": {"id": "5295f62511d24c029a9ec2d9", "name": "Hungry Ghost", "location": {"address": "781 Fulton St", "crossStreet": "at S. Oxford St", "lat": 40.686019848047394, "lng": -73.97355641043038, "labeledLatLngs": [{"label": "display", "lat": 40.686019848047394, "lng": -73.97355641043038}], "distance": 284, "postalCode": "11217", "cc": "US", "city": "Brooklyn", "state": "NY", "country": "United States", "formattedAddress": ["781 Fulton St (at S. Oxford St)", "Brooklyn, NY 11217", "United States"]}, "categories": [{"id": "4bf58dd8d48988d1e0931735", "name": "Coffee Shop", "pluralName": "Coffee Shops", "shortName": "Coffee Shop", "icon": {"prefix": "https://ss3.4sqi.net/img/categories_v2/food/coffeeshop_", "suffix": ".png"}, "primary": true}], "photos": {"count": 0, "groups": []}, "venuePage": {"id": "94534477"}}, "referralId": "e-0-5295f62511d24c029a9ec2d9-21"}, {"reasons": {"count": 0, "items": [{"summary": "This spot is popular", "type": "general", "reasonName": "globalInteractionReason"}]}, "venue": {"id": "4e22f81ea80968cf3e4f02b1", "name": "Gardell's Greene Garden", "location": {"address": "97 S Portland Ave", "crossStreet": "at Fulton St.", "lat": 40.68656672101174, "lng": -73.97443280082518, "labeledLatLngs": [{"label": "display", "lat": 40.68656672101174, "lng": -73.97443280082518}], "distance": 253, "postalCode": "11217", "cc": "US", "city": "Brooklyn", "state": "NY", "country": "United States", "formattedAddress": ["97 S Portland Ave (at Fulton St.)", "Brooklyn, NY 11217", "United States"]}, "categories": [{"id": "4bf58dd8d48988d11b951735", "name": "Flower Shop", "pluralName": "Flower Shops", "shortName": "Flower Shop", "icon": {"prefix": "https://ss3.4sqi.net/img/categories_v2/shops/flowershop_", "suffix": ".png"}, "primary": true}], "photos": {"count": 0, "groups": []}}, "referralId": "e-0-4e22f81ea80968cf3e4f02b1-22"}, {"reasons": {"count": 0, "items": [{"summary": "This spot is popular", "type": "general", "reasonName": "globalInteractionReason"}]}, "venue": {"id": "5048cd41e4b06d724baedb49", "name": "Fort Greene Park Tennis Courts", "location": {"address": "DeKalb Ave", "crossStreet": "at Washington Pk", "lat": 40.69071838647053, "lng": -73.9752390441259, "labeledLatLngs": [{"label": "display", "lat": 40.69071838647053, "lng": -73.9752390441259}], "distance": 313, "postalCode": "11201", "cc": "US", "city": "Brooklyn", "state": "NY", "country": "United States", "formattedAddress": ["DeKalb Ave (at Washington Pk)", "Brooklyn, NY 11201", "United States"]}, "categories": [{"id": "4e39a956bd410d7aed40cbc3", "name": "Tennis Court", "pluralName": "Tennis Courts", "shortName": "Tennis Court", "icon": {"prefix": "https://ss3.4sqi.net/img/categories_v2/arts_entertainment/stadium_tennis_", "suffix": ".png"}, "primary": true}], "photos": {"count": 0, "groups": []}}, "referralId": "e-0-5048cd41e4b06d724baedb49-23"}, {"reasons": {"count": 0, "items": [{"summary": "This spot is popular", "type": "general", "reasonName": "globalInteractionReason"}]}, "venue": {"id": "5cca3b29f709c1002c980352", "name": "Endswell", "location": {"address": "773 Fulton St", "lat": 40.686125, "lng": -73.973798, "labeledLatLngs": [{"label": "display", "lat": 40.686125, "lng": -73.973798}], "distance": 277, "postalCode": "11217", "cc": "US", "city": "New York", "state": "NY", "country": "United States", "formattedAddress": ["773 Fulton St", "New York, NY 11217", "United States"]}, "categories": [{"id": "4bf58dd8d48988d1c4941735", "name": "Restaurant", "pluralName": "Restaurants", "shortName": "Restaurant", "icon": {"prefix": "https://ss3.4sqi.net/img/categories_v2/food/default_", "suffix": ".png"}, "primary": true}], "delivery": {"id": "1231338", "url": "https://www.seamless.com/menu/endswell-bar--bistro-773-fulton-st-brooklyn/1231338?affiliate=1131&utm_source=foursquare-affiliate-network&utm_medium=affiliate&utm_campaign=1131&utm_content=1231338", "provider": {"name": "seamless", "icon": {"prefix": "https://fastly.4sqi.net/img/general/cap/", "sizes": [40, 50], "name": "/delivery_provider_seamless_20180129.png"}}}, "photos": {"count": 0, "groups": []}}, "referralId": "e-0-5cca3b29f709c1002c980352-24"}, {"reasons": {"count": 0, "items": [{"summary": "This spot is popular", "type": "general", "reasonName": "globalInteractionReason"}]}, "venue": {"id": "4c848884d8086dcbd4608a52", "name": "Brooklyn Public House", "location": {"address": "247 Dekalb Ave", "crossStreet": "at Vanderbilt Ave", "lat": 40.68953711323655, "lng": -73.96939820491572, "labeledLatLngs": [{"label": "display", "lat": 40.68953711323655, "lng": -73.96939820491572}, {"label": "entrance", "lat": 40.68957, "lng": -73.969399}], "distance": 316, "postalCode": "11205", "cc": "US", "neighborhood": "Clinton Hill", "city": "Brooklyn", "state": "NY", "country": "United States", "formattedAddress": ["247 Dekalb Ave (at Vanderbilt Ave)", "Brooklyn, NY 11205", "United States"]}, "categories": [{"id": "4bf58dd8d48988d11e941735", "name": "Cocktail Bar", "pluralName": "Cocktail Bars", "shortName": "Cocktail", "icon": {"prefix": "https://ss3.4sqi.net/img/categories_v2/nightlife/cocktails_", "suffix": ".png"}, "primary": true}], "delivery": {"id": "342030", "url": "https://www.seamless.com/menu/brooklyn-public-house-247-dekalb-ave-brooklyn/342030?affiliate=1131&utm_source=foursquare-affiliate-network&utm_medium=affiliate&utm_campaign=1131&utm_content=342030", "provider": {"name": "seamless", "icon": {"prefix": "https://fastly.4sqi.net/img/general/cap/", "sizes": [40, 50], "name": "/delivery_provider_seamless_20180129.png"}}}, "photos": {"count": 0, "groups": []}, "venuePage": {"id": "59394819"}}, "referralId": "e-0-4c848884d8086dcbd4608a52-25"}, {"reasons": {"count": 0, "items": [{"summary": "This spot is popular", "type": "general", "reasonName": "globalInteractionReason"}]}, "venue": {"id": "583b8d56a6118c60b5cfdc4b", "name": "LuAnne's Wild Ginger", "location": {"address": "235 Dekalb Ave", "crossStreet": "Clermont Ave", "lat": 40.689644, "lng": -73.969824, "labeledLatLngs": [{"label": "display", "lat": 40.689644, "lng": -73.969824}, {"label": "entrance", "lat": 40.689587, "lng": -73.969828}], "distance": 288, "postalCode": "11205", "cc": "US", "city": "Brooklyn", "state": "NY", "country": "United States", "formattedAddress": ["235 Dekalb Ave (Clermont Ave)", "Brooklyn, NY 11205", "United States"]}, "categories": [{"id": "4bf58dd8d48988d1d3941735", "name": "Vegetarian / Vegan Restaurant", "pluralName": "Vegetarian / Vegan Restaurants", "shortName": "Vegetarian / Vegan", "icon": {"prefix": "https://ss3.4sqi.net/img/categories_v2/food/vegetarian_", "suffix": ".png"}, "primary": true}], "delivery": {"id": "348266", "url": "https://www.seamless.com/menu/luannes-wild-ginger-dekalb-235-dekalb-ave-brooklyn/348266?affiliate=1131&utm_source=foursquare-affiliate-network&utm_medium=affiliate&utm_campaign=1131&utm_content=348266", "provider": {"name": "seamless", "icon": {"prefix": "https://fastly.4sqi.net/img/general/cap/", "sizes": [40, 50], "name": "/delivery_provider_seamless_20180129.png"}}}, "photos": {"count": 0, "groups": []}}, "referralId": "e-0-583b8d56a6118c60b5cfdc4b-26"}, {"reasons": {"count": 0, "items": [{"summary": "This spot is popular", "type": "general", "reasonName": "globalInteractionReason"}]}, "venue": {"id": "5250553911d262bb0c732ee8", "name": "Cafe Paulette", "location": {"address": "1 S Elliott Pl", "lat": 40.68974307741666, "lng": -73.97579775071402, "labeledLatLngs": [{"label": "display", "lat": 40.68974307741666, "lng": -73.97579775071402}], "distance": 279, "postalCode": "11217", "cc": "US", "city": "Brooklyn", "state": "NY", "country": "United States", "formattedAddress": ["1 S Elliott Pl", "Brooklyn, NY 11217", "United States"]}, "categories": [{"id": "4bf58dd8d48988d10c941735", "name": "French Restaurant", "pluralName": "French Restaurants", "shortName": "French", "icon": {"prefix": "https://ss3.4sqi.net/img/categories_v2/food/french_", "suffix": ".png"}, "primary": true}], "delivery": {"id": "2035776", "url": "https://www.seamless.com/menu/cafe-paulette-1-s-elliott-pl-brooklyn/2035776?affiliate=1131&utm_source=foursquare-affiliate-network&utm_medium=affiliate&utm_campaign=1131&utm_content=2035776", "provider": {"name": "seamless", "icon": {"prefix": "https://fastly.4sqi.net/img/general/cap/", "sizes": [40, 50], "name": "/delivery_provider_seamless_20180129.png"}}}, "photos": {"count": 0, "groups": []}, "venuePage": {"id": "81824008"}}, "referralId": "e-0-5250553911d262bb0c732ee8-27"}, {"reasons": {"count": 0, "items": [{"summary": "This spot is popular", "type": "general", "reasonName": "globalInteractionReason"}]}, "venue": {"id": "49dbf75ef964a5202f5f1fe3", "name": "Greene Grape Provisions", "location": {"address": "767 Fulton St", "crossStreet": "at S Portland Ave", "lat": 40.68613726952975, "lng": -73.97398517235284, "labeledLatLngs": [{"label": "display", "lat": 40.68613726952975, "lng": -73.97398517235284}, {"label": "entrance", "lat": 40.686243, "lng": -73.973981}], "distance": 281, "postalCode": "11217", "cc": "US", "city": "Brooklyn", "state": "NY", "country": "United States", "formattedAddress": ["767 Fulton St (at S Portland Ave)", "Brooklyn, NY 11217", "United States"]}, "categories": [{"id": "4bf58dd8d48988d1f5941735", "name": "Gourmet Shop", "pluralName": "Gourmet Shops", "shortName": "Gourmet", "icon": {"prefix": "https://ss3.4sqi.net/img/categories_v2/shops/food_gourmet_", "suffix": ".png"}, "primary": true}], "photos": {"count": 0, "groups": []}}, "referralId": "e-0-49dbf75ef964a5202f5f1fe3-28"}, {"reasons": {"count": 0, "items": [{"summary": "This spot is popular", "type": "general", "reasonName": "globalInteractionReason"}]}, "venue": {"id": "5bd49e5c1c675b002c9836ea", "name": "Peaches Hothouse", "location": {"address": "87 S Elliott Pl", "crossStreet": "Fulton St", "lat": 40.68701570501889, "lng": -73.97555014032694, "labeledLatLngs": [{"label": "display", "lat": 40.68701570501889, "lng": -73.97555014032694}], "distance": 279, "postalCode": "11217", "cc": "US", "city": "New York", "state": "NY", "country": "United States", "formattedAddress": ["87 S Elliott Pl (Fulton St)", "New York, NY 11217", "United States"]}, "categories": [{"id": "4bf58dd8d48988d14f941735", "name": "Southern / Soul Food Restaurant", "pluralName": "Southern / Soul Food Restaurants", "shortName": "Southern / Soul", "icon": {"prefix": "https://ss3.4sqi.net/img/categories_v2/food/southern_", "suffix": ".png"}, "primary": true}], "photos": {"count": 0, "groups": []}}, "referralId": "e-0-5bd49e5c1c675b002c9836ea-29"}, {"reasons": {"count": 0, "items": [{"summary": "This spot is popular", "type": "general", "reasonName": "globalInteractionReason"}]}, "venue": {"id": "4afca48af964a520ab2422e3", "name": "Roman\u2019s", "location": {"address": "243 Dekalb Ave", "crossStreet": "at Vanderbilt Ave.", "lat": 40.68952914963263, "lng": -73.96951802846388, "labeledLatLngs": [{"label": "display", "lat": 40.68952914963263, "lng": -73.96951802846388}, {"label": "entrance", "lat": 40.689576, "lng": -73.96954}], "distance": 306, "postalCode": "11205", "cc": "US", "city": "Brooklyn", "state": "NY", "country": "United States", "formattedAddress": ["243 Dekalb Ave (at Vanderbilt Ave.)", "Brooklyn, NY 11205", "United States"]}, "categories": [{"id": "4bf58dd8d48988d110941735", "name": "Italian Restaurant", "pluralName": "Italian Restaurants", "shortName": "Italian", "icon": {"prefix": "https://ss3.4sqi.net/img/categories_v2/food/italian_", "suffix": ".png"}, "primary": true}], "photos": {"count": 0, "groups": []}}, "referralId": "e-0-4afca48af964a520ab2422e3-30"}, {"reasons": {"count": 0, "items": [{"summary": "This spot is popular", "type": "general", "reasonName": "globalInteractionReason"}]}, "venue": {"id": "437fbc80f964a520d62a1fe3", "name": "Graziella's", "location": {"address": "232 Vanderbilt Ave", "crossStreet": "btwn Dekalb & Willoughby", "lat": 40.690500785798285, "lng": -73.96943770796737, "labeledLatLngs": [{"label": "display", "lat": 40.690500785798285, "lng": -73.96943770796737}, {"label": "entrance", "lat": 40.690474, "lng": -73.969449}], "distance": 365, "postalCode": "11205", "cc": "US", "city": "Brooklyn", "state": "NY", "country": "United States", "formattedAddress": ["232 Vanderbilt Ave (btwn Dekalb & Willoughby)", "Brooklyn, NY 11205", "United States"]}, "categories": [{"id": "4bf58dd8d48988d1ca941735", "name": "Pizza Place", "pluralName": "Pizza Places", "shortName": "Pizza", "icon": {"prefix": "https://ss3.4sqi.net/img/categories_v2/food/pizza_", "suffix": ".png"}, "primary": true}], "delivery": {"id": "301629", "url": "https://www.seamless.com/menu/graziellas-italian-restaurant--232-vanderbilt-ave-brooklyn/301629?affiliate=1131&utm_source=foursquare-affiliate-network&utm_medium=affiliate&utm_campaign=1131&utm_content=301629", "provider": {"name": "seamless", "icon": {"prefix": "https://fastly.4sqi.net/img/general/cap/", "sizes": [40, 50], "name": "/delivery_provider_seamless_20180129.png"}}}, "photos": {"count": 0, "groups": []}, "venuePage": {"id": "88979666"}}, "referralId": "e-0-437fbc80f964a520d62a1fe3-31"}, {"reasons": {"count": 0, "items": [{"summary": "This spot is popular", "type": "general", "reasonName": "globalInteractionReason"}]}, "venue": {"id": "57596dad498e732300496b23", "name": "Dosa Royale", "location": {"address": "258 Dekalb Ave", "lat": 40.689466368706604, "lng": -73.96870434089776, "labeledLatLngs": [{"label": "display", "lat": 40.689466368706604, "lng": -73.96870434089776}], "distance": 369, "postalCode": "11205", "cc": "US", "city": "New York", "state": "NY", "country": "United States", "formattedAddress": ["258 Dekalb Ave", "New York, NY 11205", "United States"]}, "categories": [{"id": "4bf58dd8d48988d10f941735", "name": "Indian Restaurant", "pluralName": "Indian Restaurants", "shortName": "Indian", "icon": {"prefix": "https://ss3.4sqi.net/img/categories_v2/food/indian_", "suffix": ".png"}, "primary": true}], "delivery": {"id": "289966", "url": "https://www.seamless.com/menu/dosa-royale-258-dekalb-ave-brooklyn/289966?affiliate=1131&utm_source=foursquare-affiliate-network&utm_medium=affiliate&utm_campaign=1131&utm_content=289966", "provider": {"name": "seamless", "icon": {"prefix": "https://fastly.4sqi.net/img/general/cap/", "sizes": [40, 50], "name": "/delivery_provider_seamless_20180129.png"}}}, "photos": {"count": 0, "groups": []}}, "referralId": "e-0-57596dad498e732300496b23-32"}, {"reasons": {"count": 0, "items": [{"summary": "This spot is popular", "type": "general", "reasonName": "globalInteractionReason"}]}, "venue": {"id": "5b2e75b32db4a9002cdb3e24", "name": "Thirst Wine Merchants", "location": {"address": "11 Greene Ave", "crossStreet": "Fulton Street", "lat": 40.686053, "lng": -73.972895, "labeledLatLngs": [{"label": "display", "lat": 40.686053, "lng": -73.972895}], "distance": 275, "postalCode": "11238", "cc": "US", "city": "Brooklyn", "state": "NY", "country": "United States", "formattedAddress": ["11 Greene Ave (Fulton Street)", "Brooklyn, NY 11238", "United States"]}, "categories": [{"id": "4bf58dd8d48988d186941735", "name": "Liquor Store", "pluralName": "Liquor Stores", "shortName": "Liquor Store", "icon": {"prefix": "https://ss3.4sqi.net/img/categories_v2/shops/food_liquor_", "suffix": ".png"}, "primary": true}], "photos": {"count": 0, "groups": []}}, "referralId": "e-0-5b2e75b32db4a9002cdb3e24-33"}, {"reasons": {"count": 0, "items": [{"summary": "This spot is popular", "type": "general", "reasonName": "globalInteractionReason"}]}, "venue": {"id": "592f635bb399f77e5738c416", "name": "Mekong BK", "location": {"address": "250 Dekalb Ave", "crossStreet": "Vanderbilt", "lat": 40.68939840185402, "lng": -73.96905826518169, "labeledLatLngs": [{"label": "display", "lat": 40.68939840185402, "lng": -73.96905826518169}], "distance": 338, "postalCode": "11205", "cc": "US", "neighborhood": "Clinton Hill", "city": "Brooklyn", "state": "NY", "country": "United States", "formattedAddress": ["250 Dekalb Ave (Vanderbilt)", "Brooklyn, NY 11205", "United States"]}, "categories": [{"id": "4bf58dd8d48988d14a941735", "name": "Vietnamese Restaurant", "pluralName": "Vietnamese Restaurants", "shortName": "Vietnamese", "icon": {"prefix": "https://ss3.4sqi.net/img/categories_v2/food/vietnamese_", "suffix": ".png"}, "primary": true}], "photos": {"count": 0, "groups": []}}, "referralId": "e-0-592f635bb399f77e5738c416-34"}, {"reasons": {"count": 0, "items": [{"summary": "This spot is popular", "type": "general", "reasonName": "globalInteractionReason"}]}, "venue": {"id": "4a4f8105f964a52060af1fe3", "name": "DSK Brooklyn - Die Stammkneipe", "location": {"address": "710 Fulton St", "crossStreet": "at S Oxford St.", "lat": 40.685821, "lng": -73.973639, "labeledLatLngs": [{"label": "display", "lat": 40.685821, "lng": -73.973639}, {"label": "entrance", "lat": 40.685824, "lng": -73.973544}], "distance": 307, "postalCode": "11217", "cc": "US", "city": "Brooklyn", "state": "NY", "country": "United States", "formattedAddress": ["710 Fulton St (at S Oxford St.)", "Brooklyn, NY 11217", "United States"]}, "categories": [{"id": "4bf58dd8d48988d117941735", "name": "Beer Garden", "pluralName": "Beer Gardens", "shortName": "Beer Garden", "icon": {"prefix": "https://ss3.4sqi.net/img/categories_v2/nightlife/beergarden_", "suffix": ".png"}, "primary": true}], "photos": {"count": 0, "groups": []}, "venuePage": {"id": "68783518"}}, "referralId": "e-0-4a4f8105f964a52060af1fe3-35"}, {"reasons": {"count": 0, "items": [{"summary": "This spot is popular", "type": "general", "reasonName": "globalInteractionReason"}]}, "venue": {"id": "41196180f964a5200b0c1fe3", "name": "Fort Greene Park", "location": {"address": "Washington Pk", "crossStreet": "btwn Myrtle & DeKalb Ave", "lat": 40.69162107498688, "lng": -73.97564649581909, "labeledLatLngs": [{"label": "display", "lat": 40.69162107498688, "lng": -73.97564649581909}], "distance": 414, "postalCode": "11217", "cc": "US", "city": "Brooklyn", "state": "NY", "country": "United States", "formattedAddress": ["Washington Pk (btwn Myrtle & DeKalb Ave)", "Brooklyn, NY 11217", "United States"]}, "categories": [{"id": "4bf58dd8d48988d163941735", "name": "Park", "pluralName": "Parks", "shortName": "Park", "icon": {"prefix": "https://ss3.4sqi.net/img/categories_v2/parks_outdoors/park_", "suffix": ".png"}, "primary": true}], "photos": {"count": 0, "groups": []}}, "referralId": "e-0-41196180f964a5200b0c1fe3-36"}, {"reasons": {"count": 0, "items": [{"summary": "This spot is popular", "type": "general", "reasonName": "globalInteractionReason"}]}, "venue": {"id": "5324631311d2d2f5f8761a71", "name": "baba cool cafe", "location": {"address": "64 Lafayette Ave Ste B", "crossStreet": "South Elliott And Lafayette Ave", "lat": 40.687014, "lng": -73.975255, "labeledLatLngs": [{"label": "display", "lat": 40.687014, "lng": -73.975255}], "distance": 260, "postalCode": "11217", "cc": "US", "city": "Brooklyn", "state": "NY", "country": "United States", "formattedAddress": ["64 Lafayette Ave Ste B (South Elliott And Lafayette Ave)", "Brooklyn, NY 11217", "United States"]}, "categories": [{"id": "4bf58dd8d48988d16d941735", "name": "Caf\u00e9", "pluralName": "Caf\u00e9s", "shortName": "Caf\u00e9", "icon": {"prefix": "https://ss3.4sqi.net/img/categories_v2/food/cafe_", "suffix": ".png"}, "primary": true}], "delivery": {"id": "2044038", "url": "https://www.seamless.com/menu/baba-cool-64-lafayette-ave-ste-b-brooklyn/2044038?affiliate=1131&utm_source=foursquare-affiliate-network&utm_medium=affiliate&utm_campaign=1131&utm_content=2044038", "provider": {"name": "seamless", "icon": {"prefix": "https://fastly.4sqi.net/img/general/cap/", "sizes": [40, 50], "name": "/delivery_provider_seamless_20180129.png"}}}, "photos": {"count": 0, "groups": []}, "venuePage": {"id": "82918347"}}, "referralId": "e-0-5324631311d2d2f5f8761a71-37"}, {"reasons": {"count": 0, "items": [{"summary": "This spot is popular", "type": "general", "reasonName": "globalInteractionReason"}]}, "venue": {"id": "4aec8e12f964a520a5c821e3", "name": "Thistle & Clover", "location": {"address": "221 Dekalb Ave.", "lat": 40.6895714801075, "lng": -73.97062690782748, "labeledLatLngs": [{"label": "display", "lat": 40.6895714801075, "lng": -73.97062690782748}], "distance": 224, "cc": "US", "city": "New York", "state": "NY", "country": "United States", "formattedAddress": ["221 Dekalb Ave.", "New York, NY", "United States"]}, "categories": [{"id": "4bf58dd8d48988d104951735", "name": "Boutique", "pluralName": "Boutiques", "shortName": "Boutique", "icon": {"prefix": "https://ss3.4sqi.net/img/categories_v2/shops/apparel_boutique_", "suffix": ".png"}, "primary": true}], "photos": {"count": 0, "groups": []}}, "referralId": "e-0-4aec8e12f964a520a5c821e3-38"}, {"reasons": {"count": 0, "items": [{"summary": "This spot is popular", "type": "general", "reasonName": "globalInteractionReason"}]}, "venue": {"id": "4c2d1eb17d85a593fa1452f3", "name": "Dino", "location": {"address": "222 Dekalb Ave", "lat": 40.68953531738243, "lng": -73.97046641110853, "labeledLatLngs": [{"label": "display", "lat": 40.68953531738243, "lng": -73.97046641110853}], "distance": 234, "postalCode": "11205", "cc": "US", "city": "Brooklyn", "state": "NY", "country": "United States", "formattedAddress": ["222 Dekalb Ave", "Brooklyn, NY 11205", "United States"]}, "categories": [{"id": "4bf58dd8d48988d110941735", "name": "Italian Restaurant", "pluralName": "Italian Restaurants", "shortName": "Italian", "icon": {"prefix": "https://ss3.4sqi.net/img/categories_v2/food/italian_", "suffix": ".png"}, "primary": true}], "delivery": {"id": "300896", "url": "https://www.seamless.com/menu/dino-222-dekalb-ave-brooklyn/300896?affiliate=1131&utm_source=foursquare-affiliate-network&utm_medium=affiliate&utm_campaign=1131&utm_content=300896", "provider": {"name": "seamless", "icon": {"prefix": "https://fastly.4sqi.net/img/general/cap/", "sizes": [40, 50], "name": "/delivery_provider_seamless_20180129.png"}}}, "photos": {"count": 0, "groups": []}}, "referralId": "e-0-4c2d1eb17d85a593fa1452f3-39"}, {"reasons": {"count": 0, "items": [{"summary": "This spot is popular", "type": "general", "reasonName": "globalInteractionReason"}]}, "venue": {"id": "49bca8d2f964a52044541fe3", "name": "Peque\u00f1a", "location": {"address": "86 S Portland Ave", "crossStreet": "Lafayette", "lat": 40.68694396630805, "lng": -73.97462756433839, "labeledLatLngs": [{"label": "display", "lat": 40.68694396630805, "lng": -73.97462756433839}], "distance": 228, "postalCode": "11217", "cc": "US", "city": "Brooklyn", "state": "NY", "country": "United States", "formattedAddress": ["86 S Portland Ave (Lafayette)", "Brooklyn, NY 11217", "United States"]}, "categories": [{"id": "4bf58dd8d48988d1c1941735", "name": "Mexican Restaurant", "pluralName": "Mexican Restaurants", "shortName": "Mexican", "icon": {"prefix": "https://ss3.4sqi.net/img/categories_v2/food/mexican_", "suffix": ".png"}, "primary": true}], "delivery": {"id": "91623", "url": "https://www.seamless.com/menu/pequena-86-s-portland-ave-brooklyn/91623?affiliate=1131&utm_source=foursquare-affiliate-network&utm_medium=affiliate&utm_campaign=1131&utm_content=91623", "provider": {"name": "seamless", "icon": {"prefix": "https://fastly.4sqi.net/img/general/cap/", "sizes": [40, 50], "name": "/delivery_provider_seamless_20180129.png"}}}, "photos": {"count": 0, "groups": []}, "venuePage": {"id": "69237317"}}, "referralId": "e-0-49bca8d2f964a52044541fe3-40"}, {"reasons": {"count": 0, "items": [{"summary": "This spot is popular", "type": "general", "reasonName": "globalInteractionReason"}]}, "venue": {"id": "527c5b5d11d28f92bd96bc33", "name": "Black Forest Brooklyn", "location": {"address": "733 Fulton St", "lat": 40.686648454820435, "lng": -73.97519389439196, "labeledLatLngs": [{"label": "display", "lat": 40.686648454820435, "lng": -73.97519389439196}, {"label": "entrance", "lat": 40.686715, "lng": -73.975169}], "distance": 284, "postalCode": "11217", "cc": "US", "neighborhood": "Fort Greene", "city": "Brooklyn", "state": "NY", "country": "United States", "formattedAddress": ["733 Fulton St", "Brooklyn, NY 11217", "United States"]}, "categories": [{"id": "4bf58dd8d48988d10d941735", "name": "German Restaurant", "pluralName": "German Restaurants", "shortName": "German", "icon": {"prefix": "https://ss3.4sqi.net/img/categories_v2/food/german_", "suffix": ".png"}, "primary": true}], "delivery": {"id": "316921", "url": "https://www.seamless.com/menu/black-forest-brooklyn-733-fulton-st-brooklyn/316921?affiliate=1131&utm_source=foursquare-affiliate-network&utm_medium=affiliate&utm_campaign=1131&utm_content=316921", "provider": {"name": "seamless", "icon": {"prefix": "https://fastly.4sqi.net/img/general/cap/", "sizes": [40, 50], "name": "/delivery_provider_seamless_20180129.png"}}}, "photos": {"count": 0, "groups": []}, "venuePage": {"id": "76879008"}}, "referralId": "e-0-527c5b5d11d28f92bd96bc33-41"}, {"reasons": {"count": 0, "items": [{"summary": "This spot is popular", "type": "general", "reasonName": "globalInteractionReason"}]}, "venue": {"id": "439ab2a9f964a520d12b1fe3", "name": "BAM Rose Cinemas", "location": {"address": "30 Lafayette Ave", "crossStreet": "btwn Ashland Pl & St. Felix St", "lat": 40.68633844980032, "lng": -73.97743839568813, "labeledLatLngs": [{"label": "display", "lat": 40.68633844980032, "lng": -73.97743839568813}, {"label": "entrance", "lat": 40.686734, "lng": -73.977743}], "distance": 453, "postalCode": "11217", "cc": "US", "city": "Brooklyn", "state": "NY", "country": "United States", "formattedAddress": ["30 Lafayette Ave (btwn Ashland Pl & St. Felix St)", "Brooklyn, NY 11217", "United States"]}, "categories": [{"id": "4bf58dd8d48988d17e941735", "name": "Indie Movie Theater", "pluralName": "Indie Movie Theaters", "shortName": "Indie Movies", "icon": {"prefix": "https://ss3.4sqi.net/img/categories_v2/arts_entertainment/movietheater_", "suffix": ".png"}, "primary": true}], "photos": {"count": 0, "groups": []}}, "referralId": "e-0-439ab2a9f964a520d12b1fe3-42"}, {"reasons": {"count": 0, "items": [{"summary": "This spot is popular", "type": "general", "reasonName": "globalInteractionReason"}]}, "venue": {"id": "422b9980f964a520d21f1fe3", "name": "Maison May", "location": {"address": "246 Dekalb Ave", "crossStreet": "at Vanderbilt Avenue", "lat": 40.68946565224471, "lng": -73.96929148484402, "labeledLatLngs": [{"label": "display", "lat": 40.68946565224471, "lng": -73.96929148484402}, {"label": "entrance", "lat": 40.689373, "lng": -73.96934}], "distance": 322, "postalCode": "11205", "cc": "US", "city": "Brooklyn", "state": "NY", "country": "United States", "formattedAddress": ["246 Dekalb Ave (at Vanderbilt Avenue)", "Brooklyn, NY 11205", "United States"]}, "categories": [{"id": "4bf58dd8d48988d10c941735", "name": "French Restaurant", "pluralName": "French Restaurants", "shortName": "French", "icon": {"prefix": "https://ss3.4sqi.net/img/categories_v2/food/french_", "suffix": ".png"}, "primary": true}], "photos": {"count": 0, "groups": []}, "venuePage": {"id": "46200085"}}, "referralId": "e-0-422b9980f964a520d21f1fe3-43"}, {"reasons": {"count": 0, "items": [{"summary": "This spot is popular", "type": "general", "reasonName": "globalInteractionReason"}]}, "venue": {"id": "49ce4f5bf964a520315a1fe3", "name": "BAMcaf\u00e9", "location": {"address": "30 Lafayette Ave Fl 2", "crossStreet": "btw Ashland Pl & St Felix St", "lat": 40.68661791010818, "lng": -73.97757232189178, "labeledLatLngs": [{"label": "display", "lat": 40.68661791010818, "lng": -73.97757232189178}], "distance": 447, "postalCode": "11217", "cc": "US", "city": "Brooklyn", "state": "NY", "country": "United States", "formattedAddress": ["30 Lafayette Ave Fl 2 (btw Ashland Pl & St Felix St)", "Brooklyn, NY 11217", "United States"]}, "categories": [{"id": "4bf58dd8d48988d121941735", "name": "Lounge", "pluralName": "Lounges", "shortName": "Lounge", "icon": {"prefix": "https://ss3.4sqi.net/img/categories_v2/nightlife/default_", "suffix": ".png"}, "primary": true}], "photos": {"count": 0, "groups": []}}, "referralId": "e-0-49ce4f5bf964a520315a1fe3-44"}, {"reasons": {"count": 0, "items": [{"summary": "This spot is popular", "type": "general", "reasonName": "globalInteractionReason"}]}, "venue": {"id": "5d8d4ace99072e000894b23c", "name": "Rhodora", "location": {"address": "197 Adelphi St", "crossStreet": "Willoughby Avenue", "lat": 40.691742, "lng": -73.971411, "labeledLatLngs": [{"label": "display", "lat": 40.691742, "lng": -73.971411}], "distance": 379, "postalCode": "11205", "cc": "US", "city": "New York", "state": "NY", "country": "United States", "formattedAddress": ["197 Adelphi St (Willoughby Avenue)", "New York, NY 11205", "United States"]}, "categories": [{"id": "4bf58dd8d48988d123941735", "name": "Wine Bar", "pluralName": "Wine Bars", "shortName": "Wine Bar", "icon": {"prefix": "https://ss3.4sqi.net/img/categories_v2/food/winery_", "suffix": ".png"}, "primary": true}], "photos": {"count": 0, "groups": []}}, "referralId": "e-0-5d8d4ace99072e000894b23c-45"}, {"reasons": {"count": 0, "items": [{"summary": "This spot is popular", "type": "general", "reasonName": "globalInteractionReason"}]}, "venue": {"id": "44127a5ff964a520d2301fe3", "name": "Brooklyn Academy of Music (BAM)", "location": {"address": "30 Lafayette Ave", "crossStreet": "btwn Ashland Pl & Saint Felix St", "lat": 40.686414521476856, "lng": -73.97765815258026, "labeledLatLngs": [{"label": "display", "lat": 40.686414521476856, "lng": -73.97765815258026}], "distance": 465, "postalCode": "11217", "cc": "US", "city": "Brooklyn", "state": "NY", "country": "United States", "formattedAddress": ["30 Lafayette Ave (btwn Ashland Pl & Saint Felix St)", "Brooklyn, NY 11217", "United States"]}, "categories": [{"id": "4bf58dd8d48988d136941735", "name": "Opera House", "pluralName": "Opera Houses", "shortName": "Opera House", "icon": {"prefix": "https://ss3.4sqi.net/img/categories_v2/arts_entertainment/performingarts_operahouse_", "suffix": ".png"}, "primary": true}], "photos": {"count": 0, "groups": []}}, "referralId": "e-0-44127a5ff964a520d2301fe3-46"}, {"reasons": {"count": 0, "items": [{"summary": "This spot is popular", "type": "general", "reasonName": "globalInteractionReason"}]}, "venue": {"id": "4ca6342076d3a093b22fff6a", "name": "Mo's Fort Greene", "location": {"address": "80 Lafayette Ave", "crossStreet": "So.Portland", "lat": 40.687086786502725, "lng": -73.97468663141946, "labeledLatLngs": [{"label": "display", "lat": 40.687086786502725, "lng": -73.97468663141946}, {"label": "entrance", "lat": 40.687085, "lng": -73.97476}], "distance": 219, "postalCode": "11217", "cc": "US", "city": "Brooklyn", "state": "NY", "country": "United States", "formattedAddress": ["80 Lafayette Ave (So.Portland)", "Brooklyn, NY 11217", "United States"]}, "categories": [{"id": "4bf58dd8d48988d116941735", "name": "Bar", "pluralName": "Bars", "shortName": "Bar", "icon": {"prefix": "https://ss3.4sqi.net/img/categories_v2/nightlife/pub_", "suffix": ".png"}, "primary": true}], "photos": {"count": 0, "groups": []}, "venuePage": {"id": "41230289"}}, "referralId": "e-0-4ca6342076d3a093b22fff6a-47"}, {"reasons": {"count": 0, "items": [{"summary": "This spot is popular", "type": "general", "reasonName": "globalInteractionReason"}]}, "venue": {"id": "4cae5172cbab236a20768f73", "name": "BAM Howard Gilman Opera House", "location": {"address": "30 Lafayette Ave", "crossStreet": "btwn Ashland Pl & St Felix St", "lat": 40.68653655473017, "lng": -73.97785663604736, "labeledLatLngs": [{"label": "display", "lat": 40.68653655473017, "lng": -73.97785663604736}], "distance": 473, "postalCode": "11217", "cc": "US", "city": "Brooklyn", "state": "NY", "country": "United States", "formattedAddress": ["30 Lafayette Ave (btwn Ashland Pl & St Felix St)", "Brooklyn, NY 11217", "United States"]}, "categories": [{"id": "4bf58dd8d48988d136941735", "name": "Opera House", "pluralName": "Opera Houses", "shortName": "Opera House", "icon": {"prefix": "https://ss3.4sqi.net/img/categories_v2/arts_entertainment/performingarts_operahouse_", "suffix": ".png"}, "primary": true}], "photos": {"count": 0, "groups": []}}, "referralId": "e-0-4cae5172cbab236a20768f73-48"}, {"reasons": {"count": 0, "items": [{"summary": "This spot is popular", "type": "general", "reasonName": "globalInteractionReason"}]}, "venue": {"id": "4b8712faf964a52018af31e3", "name": "Saffron", "location": {"address": "31 Hanson Pl", "lat": 40.685327, "lng": -73.97663, "labeledLatLngs": [{"label": "display", "lat": 40.685327, "lng": -73.97663}, {"label": "entrance", "lat": 40.685361, "lng": -73.976539}], "distance": 475, "postalCode": "11217", "cc": "US", "city": "Brooklyn", "state": "NY", "country": "United States", "formattedAddress": ["31 Hanson Pl", "Brooklyn, NY 11217", "United States"]}, "categories": [{"id": "4bf58dd8d48988d11b951735", "name": "Flower Shop", "pluralName": "Flower Shops", "shortName": "Flower Shop", "icon": {"prefix": "https://ss3.4sqi.net/img/categories_v2/shops/flowershop_", "suffix": ".png"}, "primary": true}], "photos": {"count": 0, "groups": []}}, "referralId": "e-0-4b8712faf964a52018af31e3-49"}, {"reasons": {"count": 0, "items": [{"summary": "This spot is popular", "type": "general", "reasonName": "globalInteractionReason"}]}, "venue": {"id": "49b6a827f964a5200e531fe3", "name": "BAM Harvey Theater", "location": {"address": "651 Fulton St", "crossStreet": "at Rockwell Pl", "lat": 40.68858644784374, "lng": -73.978708667925, "labeledLatLngs": [{"label": "display", "lat": 40.68858644784374, "lng": -73.978708667925}], "distance": 489, "postalCode": "11217", "cc": "US", "city": "Brooklyn", "state": "NY", "country": "United States", "formattedAddress": ["651 Fulton St (at Rockwell Pl)", "Brooklyn, NY 11217", "United States"]}, "categories": [{"id": "4bf58dd8d48988d137941735", "name": "Theater", "pluralName": "Theaters", "shortName": "Theater", "icon": {"prefix": "https://ss3.4sqi.net/img/categories_v2/arts_entertainment/performingarts_theater_", "suffix": ".png"}, "primary": true}], "photos": {"count": 0, "groups": []}}, "referralId": "e-0-49b6a827f964a5200e531fe3-50"}, {"reasons": {"count": 0, "items": [{"summary": "This spot is popular", "type": "general", "reasonName": "globalInteractionReason"}]}, "venue": {"id": "4dfb5298b0fb73bb4d795e81", "name": "BAM Fisher", "location": {"address": "321 Ashland Pl", "crossStreet": "btwn Lafayette Ave. & Hanson Pl.", "lat": 40.68599147113545, "lng": -73.97778689861296, "labeledLatLngs": [{"label": "display", "lat": 40.68599147113545, "lng": -73.97778689861296}, {"label": "entrance", "lat": 40.686002, "lng": -73.977968}], "distance": 499, "postalCode": "11217", "cc": "US", "city": "Brooklyn", "state": "NY", "country": "United States", "formattedAddress": ["321 Ashland Pl (btwn Lafayette Ave. & Hanson Pl.)", "Brooklyn, NY 11217", "United States"]}, "categories": [{"id": "4bf58dd8d48988d1f2931735", "name": "Performing Arts Venue", "pluralName": "Performing Arts Venues", "shortName": "Performing Arts", "icon": {"prefix": "https://ss3.4sqi.net/img/categories_v2/arts_entertainment/performingarts_", "suffix": ".png"}, "primary": true}], "photos": {"count": 0, "groups": []}}, "referralId": "e-0-4dfb5298b0fb73bb4d795e81-51"}, {"reasons": {"count": 0, "items": [{"summary": "This spot is popular", "type": "general", "reasonName": "globalInteractionReason"}]}, "venue": {"id": "4a034bdaf964a520a9711fe3", "name": "Black Iris", "location": {"address": "228 Dekalb Ave", "crossStreet": "at Clermont Ave", "lat": 40.68950163002157, "lng": -73.9702977639014, "labeledLatLngs": [{"label": "display", "lat": 40.68950163002157, "lng": -73.9702977639014}, {"label": "entrance", "lat": 40.689413, "lng": -73.97032}], "distance": 245, "postalCode": "11205", "cc": "US", "city": "Brooklyn", "state": "NY", "country": "United States", "formattedAddress": ["228 Dekalb Ave (at Clermont Ave)", "Brooklyn, NY 11205", "United States"]}, "categories": [{"id": "4bf58dd8d48988d115941735", "name": "Middle Eastern Restaurant", "pluralName": "Middle Eastern Restaurants", "shortName": "Middle Eastern", "icon": {"prefix": "https://ss3.4sqi.net/img/categories_v2/food/middleeastern_", "suffix": ".png"}, "primary": true}], "delivery": {"id": "294590", "url": "https://www.seamless.com/menu/black-iris-228-dekalb-ave-brooklyn/294590?affiliate=1131&utm_source=foursquare-affiliate-network&utm_medium=affiliate&utm_campaign=1131&utm_content=294590", "provider": {"name": "seamless", "icon": {"prefix": "https://fastly.4sqi.net/img/general/cap/", "sizes": [40, 50], "name": "/delivery_provider_seamless_20180129.png"}}}, "photos": {"count": 0, "groups": []}}, "referralId": "e-0-4a034bdaf964a520a9711fe3-52"}, {"reasons": {"count": 0, "items": [{"summary": "This spot is popular", "type": "general", "reasonName": "globalInteractionReason"}]}, "venue": {"id": "5208fa5911d228eef08a38af", "name": "Theatre For A New Audience at Polonsky Shakespeare Center", "location": {"address": "262 Ashland Pl", "crossStreet": "Fulton Street", "lat": 40.687462396400065, "lng": -73.97832887283509, "labeledLatLngs": [{"label": "display", "lat": 40.687462396400065, "lng": -73.97832887283509}, {"label": "entrance", "lat": 40.687462, "lng": -73.978515}], "distance": 472, "postalCode": "11217", "cc": "US", "city": "Brooklyn", "state": "NY", "country": "United States", "formattedAddress": ["262 Ashland Pl (Fulton Street)", "Brooklyn, NY 11217", "United States"]}, "categories": [{"id": "4bf58dd8d48988d137941735", "name": "Theater", "pluralName": "Theaters", "shortName": "Theater", "icon": {"prefix": "https://ss3.4sqi.net/img/categories_v2/arts_entertainment/performingarts_theater_", "suffix": ".png"}, "primary": true}], "photos": {"count": 0, "groups": []}, "venuePage": {"id": "69298375"}}, "referralId": "e-0-5208fa5911d228eef08a38af-53"}, {"reasons": {"count": 0, "items": [{"summary": "This spot is popular", "type": "general", "reasonName": "globalInteractionReason"}]}, "venue": {"id": "55f95130498eae76adcd3b50", "name": "Brooklyn Yoga Club", "location": {"address": "206 Vanderbilt", "lat": 40.69124911948249, "lng": -73.96943482807488, "labeledLatLngs": [{"label": "display", "lat": 40.69124911948249, "lng": -73.96943482807488}], "distance": 421, "cc": "US", "city": "Brooklyn", "state": "NY", "country": "United States", "formattedAddress": ["206 Vanderbilt", "Brooklyn, NY", "United States"]}, "categories": [{"id": "4bf58dd8d48988d102941735", "name": "Yoga Studio", "pluralName": "Yoga Studios", "shortName": "Yoga Studio", "icon": {"prefix": "https://ss3.4sqi.net/img/categories_v2/shops/gym_yogastudio_", "suffix": ".png"}, "primary": true}], "photos": {"count": 0, "groups": []}}, "referralId": "e-0-55f95130498eae76adcd3b50-54"}, {"reasons": {"count": 0, "items": [{"summary": "This spot is popular", "type": "general", "reasonName": "globalInteractionReason"}]}, "venue": {"id": "5989f6089411f2393deae87d", "name": "Peckish", "location": {"address": "49 Willoughby Ave.", "lat": 40.691659382649384, "lng": -73.97124307813642, "labeledLatLngs": [{"label": "display", "lat": 40.691659382649384, "lng": -73.97124307813642}], "distance": 375, "postalCode": "11205", "cc": "US", "neighborhood": "Fort Greene", "city": "Brooklyn", "state": "NY", "country": "United States", "formattedAddress": ["49 Willoughby Ave.", "Brooklyn, NY 11205", "United States"]}, "categories": [{"id": "4bf58dd8d48988d1c5941735", "name": "Sandwich Place", "pluralName": "Sandwich Places", "shortName": "Sandwiches", "icon": {"prefix": "https://ss3.4sqi.net/img/categories_v2/food/deli_", "suffix": ".png"}, "primary": true}], "photos": {"count": 0, "groups": []}}, "referralId": "e-0-5989f6089411f2393deae87d-55"}, {"reasons": {"count": 0, "items": [{"summary": "This spot is popular", "type": "general", "reasonName": "globalInteractionReason"}]}, "venue": {"id": "513a8547e4b02357d79bf21a", "name": "Heritage Wines", "location": {"address": "237 Dekalb Ave", "crossStreet": "Clermont & Vanderbilt", "lat": 40.6895399765545, "lng": -73.9697503937935, "labeledLatLngs": [{"label": "display", "lat": 40.6895399765545, "lng": -73.9697503937935}], "distance": 289, "postalCode": "11205", "cc": "US", "city": "Brooklyn", "state": "NY", "country": "United States", "formattedAddress": ["237 Dekalb Ave (Clermont & Vanderbilt)", "Brooklyn, NY 11205", "United States"]}, "categories": [{"id": "4bf58dd8d48988d119951735", "name": "Wine Shop", "pluralName": "Wine Shops", "shortName": "Wine Shop", "icon": {"prefix": "https://ss3.4sqi.net/img/categories_v2/shops/food_wineshop_", "suffix": ".png"}, "primary": true}], "photos": {"count": 0, "groups": []}}, "referralId": "e-0-513a8547e4b02357d79bf21a-56"}, {"reasons": {"count": 0, "items": [{"summary": "This spot is popular", "type": "general", "reasonName": "globalInteractionReason"}]}, "venue": {"id": "4dd4606fd4c0e6b33e3b6a01", "name": "Cesar's Empanadas", "location": {"address": "Hanson Pl.", "crossStreet": "Ashland Pl.", "lat": 40.68649264908078, "lng": -73.97656637453203, "labeledLatLngs": [{"label": "display", "lat": 40.68649264908078, "lng": -73.97656637453203}], "distance": 383, "postalCode": "11217", "cc": "US", "city": "Brooklyn", "state": "NY", "country": "United States", "formattedAddress": ["Hanson Pl. (Ashland Pl.)", "Brooklyn, NY 11217", "United States"]}, "categories": [{"id": "4bf58dd8d48988d1cb941735", "name": "Food Truck", "pluralName": "Food Trucks", "shortName": "Food Truck", "icon": {"prefix": "https://ss3.4sqi.net/img/categories_v2/food/streetfood_", "suffix": ".png"}, "primary": true}], "photos": {"count": 0, "groups": []}}, "referralId": "e-0-4dd4606fd4c0e6b33e3b6a01-57"}, {"reasons": {"count": 0, "items": [{"summary": "This spot is popular", "type": "general", "reasonName": "globalInteractionReason"}]}, "venue": {"id": "4af4dd11f964a52005f721e3", "name": "Elly's Market", "location": {"address": "230 Dekalb Ave", "crossStreet": "at Clermont Ave.", "lat": 40.689506713265665, "lng": -73.96991810279246, "labeledLatLngs": [{"label": "display", "lat": 40.689506713265665, "lng": -73.96991810279246}, {"label": "entrance", "lat": 40.689399, "lng": -73.969814}], "distance": 274, "postalCode": "11205", "cc": "US", "city": "Brooklyn", "state": "NY", "country": "United States", "formattedAddress": ["230 Dekalb Ave (at Clermont Ave.)", "Brooklyn, NY 11205", "United States"]}, "categories": [{"id": "4bf58dd8d48988d118951735", "name": "Grocery Store", "pluralName": "Grocery Stores", "shortName": "Grocery Store", "icon": {"prefix": "https://ss3.4sqi.net/img/categories_v2/shops/food_grocery_", "suffix": ".png"}, "primary": true}], "photos": {"count": 0, "groups": []}}, "referralId": "e-0-4af4dd11f964a52005f721e3-58"}, {"reasons": {"count": 0, "items": [{"summary": "This spot is popular", "type": "general", "reasonName": "globalInteractionReason"}]}, "venue": {"id": "4c955fb358d4b60cb9ff3129", "name": "National", "location": {"address": "723 Fulton St", "crossStreet": "at Flatbush Ave", "lat": 40.687221, "lng": -73.976353, "labeledLatLngs": [{"label": "display", "lat": 40.687221, "lng": -73.976353}, {"label": "entrance", "lat": 40.687196, "lng": -73.97634}], "distance": 325, "postalCode": "11217", "cc": "US", "neighborhood": "Fort Greene", "city": "Brooklyn", "state": "NY", "country": "United States", "formattedAddress": ["723 Fulton St (at Flatbush Ave)", "Brooklyn, NY 11217", "United States"]}, "categories": [{"id": "4bf58dd8d48988d149941735", "name": "Thai Restaurant", "pluralName": "Thai Restaurants", "shortName": "Thai", "icon": {"prefix": "https://ss3.4sqi.net/img/categories_v2/food/thai_", "suffix": ".png"}, "primary": true}], "delivery": {"id": "609871", "url": "https://www.seamless.com/menu/national-thai-restaurant-723-fulton-st-brooklyn/609871?affiliate=1131&utm_source=foursquare-affiliate-network&utm_medium=affiliate&utm_campaign=1131&utm_content=609871", "provider": {"name": "seamless", "icon": {"prefix": "https://fastly.4sqi.net/img/general/cap/", "sizes": [40, 50], "name": "/delivery_provider_seamless_20180129.png"}}}, "photos": {"count": 0, "groups": []}}, "referralId": "e-0-4c955fb358d4b60cb9ff3129-59"}, {"reasons": {"count": 0, "items": [{"summary": "This spot is popular", "type": "general", "reasonName": "globalInteractionReason"}]}, "venue": {"id": "4a947f02f964a520ce2120e3", "name": "Deniz", "location": {"address": "662 Fulton St", "crossStreet": "at S Elliott Pl", "lat": 40.68680227698253, "lng": -73.97556515066572, "labeledLatLngs": [{"label": "display", "lat": 40.68680227698253, "lng": -73.97556515066572}], "distance": 295, "postalCode": "11217", "cc": "US", "city": "New York", "state": "NY", "country": "United States", "formattedAddress": ["662 Fulton St (at S Elliott Pl)", "New York, NY 11217", "United States"]}, "categories": [{"id": "4f04af1f2fb6e1c99f3db0bb", "name": "Turkish Restaurant", "pluralName": "Turkish Restaurants", "shortName": "Turkish", "icon": {"prefix": "https://ss3.4sqi.net/img/categories_v2/food/turkish_", "suffix": ".png"}, "primary": true}], "delivery": {"id": "73358", "url": "https://www.seamless.com/menu/deniz-turkish--mediterranean-662-fulton-st-brooklyn/73358?affiliate=1131&utm_source=foursquare-affiliate-network&utm_medium=affiliate&utm_campaign=1131&utm_content=73358", "provider": {"name": "seamless", "icon": {"prefix": "https://fastly.4sqi.net/img/general/cap/", "sizes": [40, 50], "name": "/delivery_provider_seamless_20180129.png"}}}, "photos": {"count": 0, "groups": []}, "venuePage": {"id": "69016854"}}, "referralId": "e-0-4a947f02f964a520ce2120e3-60"}, {"reasons": {"count": 0, "items": [{"summary": "This spot is popular", "type": "general", "reasonName": "globalInteractionReason"}]}, "venue": {"id": "4b1c0c97f964a5203b0124e3", "name": "Best Buy Wines & Spirits", "location": {"address": "701 Fulton St", "crossStreet": "at St. Felix St.", "lat": 40.68749102433983, "lng": -73.97757563618589, "labeledLatLngs": [{"label": "display", "lat": 40.68749102433983, "lng": -73.97757563618589}, {"label": "entrance", "lat": 40.687613, "lng": -73.977388}], "distance": 410, "postalCode": "11217", "cc": "US", "city": "Brooklyn", "state": "NY", "country": "United States", "formattedAddress": ["701 Fulton St (at St. Felix St.)", "Brooklyn, NY 11217", "United States"]}, "categories": [{"id": "4bf58dd8d48988d119951735", "name": "Wine Shop", "pluralName": "Wine Shops", "shortName": "Wine Shop", "icon": {"prefix": "https://ss3.4sqi.net/img/categories_v2/shops/food_wineshop_", "suffix": ".png"}, "primary": true}], "photos": {"count": 0, "groups": []}}, "referralId": "e-0-4b1c0c97f964a5203b0124e3-61"}, {"reasons": {"count": 0, "items": [{"summary": "This spot is popular", "type": "general", "reasonName": "globalInteractionReason"}]}, "venue": {"id": "4a08da93f964a5201f741fe3", "name": "Crunch Fitness - Ft. Greene", "location": {"address": "691 Fulton Street", "lat": 40.6879399210819, "lng": -73.9778620004654, "labeledLatLngs": [{"label": "display", "lat": 40.6879399210819, "lng": -73.9778620004654}], "distance": 423, "postalCode": "11217", "cc": "US", "city": "Brooklyn", "state": "NY", "country": "United States", "formattedAddress": ["691 Fulton Street", "Brooklyn, NY 11217", "United States"]}, "categories": [{"id": "4bf58dd8d48988d175941735", "name": "Gym / Fitness Center", "pluralName": "Gyms or Fitness Centers", "shortName": "Gym / Fitness", "icon": {"prefix": "https://ss3.4sqi.net/img/categories_v2/building/gym_", "suffix": ".png"}, "primary": true}], "photos": {"count": 0, "groups": []}, "venuePage": {"id": "533484773"}}, "referralId": "e-0-4a08da93f964a5201f741fe3-62"}, {"reasons": {"count": 0, "items": [{"summary": "This spot is popular", "type": "general", "reasonName": "globalInteractionReason"}]}, "venue": {"id": "4ee1408877c8f9d3890f5297", "name": "Kickstarter Presents: Girl Walk // All Day", "location": {"address": "317 Clermont Ave", "crossStreet": "Lafayette Ave", "lat": 40.68783103005613, "lng": -73.96948197285573, "labeledLatLngs": [{"label": "display", "lat": 40.68783103005613, "lng": -73.96948197285573}, {"label": "entrance", "lat": 40.688044, "lng": -73.969708}], "distance": 299, "postalCode": "11205", "cc": "US", "city": "Brooklyn", "state": "NY", "country": "United States", "formattedAddress": ["317 Clermont Ave (Lafayette Ave)", "Brooklyn, NY 11205", "United States"]}, "categories": [{"id": "5032792091d4c4b30a586d5c", "name": "Concert Hall", "pluralName": "Concert Halls", "shortName": "Concert Hall", "icon": {"prefix": "https://ss3.4sqi.net/img/categories_v2/arts_entertainment/musicvenue_", "suffix": ".png"}, "primary": true}], "photos": {"count": 0, "groups": []}}, "referralId": "e-0-4ee1408877c8f9d3890f5297-63"}]