[{"reasons": {"count": 0, "items": [{"summary": "This spot is popular", "type": "general", "reasonName": "globalInteractionReason"}]}, "venue": {"id": "4b92aeccf964a520141134e3", "name": "Gerritsen Beach Bagels", "location": {"address": "2712 Gerritsen Ave", "crossStreet": "btwn Everett Ave. & Florence Ave.", "lat": 40.59305539598851, "lng": -73.92559432081805, "labeledLatLngs": [{"label": "display", "lat": 40.59305539598851, "lng": -73.92559432081805}, {"label": "entrance", "lat": 40.592981, "lng": -73.925522}], "distance": 453, "postalCode": "11229", "cc": "US", "city": "Brooklyn", "state": "NY", "country": "United States", "formattedAddress": ["2712 Gerritsen Ave (btwn Everett Ave. & Florence Ave.)", "Brooklyn, NY 11229", "United States"]}, "categories": [{"id": "4bf58dd8d48988d179941735", "name": "Bagel Shop", "pluralName": "Bagel Shops", "shortName": "Bagels", "icon": {"prefix": "https://ss3.4sqi.net/img/categories_v2/food/bagels_", "suffix": ".png"}, "primary": true}], "photos": {"count": 0, "groups": []}}, "referralId": "e-0-4b92aeccf964a520141134e3-0"}, {"reasons": {"count": 0, "items": [{"summary": "This spot is popular", "type": "general", "reasonName": "globalInteractionReason"}]}, "venue": {"id": "4e18ddb67d8b8af913926744", "name": "Baile na nGael - Home of the Irish", "location": {"address": "2750 Gerritsen Ave", "lat": 40.592448991313, "lng": -73.92494386925192, "labeledLatLngs": [{"label": "display", "lat": 40.592448991313, "lng": -73.92494386925192}, {"label": "entrance", "lat": 40.592323, "lng": -73.924797}], "distance": 471, "postalCode": "11229", "cc": "US", "city": "Brooklyn", "state": "NY", "country": "United States", "formattedAddress": ["2750 Gerritsen Ave", "Brooklyn, NY 11229", "United States"]}, "categories": [{"id": "4bf58dd8d48988d171941735", "name": "Event Space", "pluralName": "Event Spaces", "shortName": "Event Space", "icon": {"prefix": "https://ss3.4sqi.net/img/categories_v2/building/eventspace_", "suffix": ".png"}, "primary": true}], "photos": {"count": 0, "groups": []}}, "referralId": "e-0-4e18ddb67d8b8af913926744-1"}, {"reasons": {"count": 0, "items": [{"summary": "This spot is popular", "type": "general", "reasonName": "globalInteractionReason"}]}, "venue": {"id": "4bb7a73553649c74d50b46fb", "name": "7-Eleven", "location": {"address": "2702 Knapp St", "crossStreet": "at Voorhies Ave", "lat": 40.5878761223971, "lng": -73.9322027564048, "labeledLatLngs": [{"label": "display", "lat": 40.5878761223971, "lng": -73.9322027564048}, {"label": "entrance", "lat": 40.587862, "lng": -73.932148}], "distance": 375, "postalCode": "11235", "cc": "US", "city": "Brooklyn", "state": "NY", "country": "United States", "formattedAddress": ["2702 Knapp St (at Voorhies Ave)", "Brooklyn, NY 11235", "United States"]}, "categories": [{"id": "4d954b0ea243a5684a65b473", "name": "Convenience Store", "pluralName": "Convenience Stores", "shortName": "Convenience Store", "icon": {"prefix": "https://ss3.4sqi.net/img/categories_v2/shops/conveniencestore_", "suffix": ".png"}, "primary": true}], "photos": {"count": 0, "groups": []}}, "referralId": "e-0-4bb7a73553649c74d50b46fb-2"}, {"reasons": {"count": 0, "items": [{"summary": "This spot is popular", "type": "general", "reasonName": "globalInteractionReason"}]}, "venue": {"id": "4c59953704f9be9a67a0ef60", "name": "Gerritsen Beach", "location": {"lat": 40.59237692175247, "lng": -73.92500875306413, "labeledLatLngs": [{"label": "display", "lat": 40.59237692175247, "lng": -73.92500875306413}], "distance": 462, "postalCode": "11229", "cc": "US", "city": "Brooklyn", "state": "NY", "country": "United States", "formattedAddress": ["Brooklyn, NY 11229", "United States"]}, "categories": [{"id": "4f2a25ac4b909258e854f55f", "name": "Neighborhood", "pluralName": "Neighborhoods", "shortName": "Neighborhood", "icon": {"prefix": "https://ss3.4sqi.net/img/categories_v2/parks_outdoors/neighborhood_", "suffix": ".png"}, "primary": true}], "photos": {"count": 0, "groups": []}}, "referralId": "e-0-4c59953704f9be9a67a0ef60-3"}, {"reasons": {"count": 0, "items": [{"summary": "This spot is popular", "type": "general", "reasonName": "globalInteractionReason"}]}, "venue": {"id": "459cc684f964a5209a401fe3", "name": "Jordan's Lobster Dock", "location": {"address": "3165 Harkness Ave", "crossStreet": "at Knapp St.", "lat": 40.5866550290315, "lng": -73.9291793661188, "labeledLatLngs": [{"label": "display", "lat": 40.5866550290315, "lng": -73.9291793661188}, {"label": "entrance", "lat": 40.586695, "lng": -73.929061}], "distance": 473, "postalCode": "11235", "cc": "US", "city": "Brooklyn", "state": "NY", "country": "United States", "formattedAddress": ["3165 Harkness Ave (at Knapp St.)", "Brooklyn, NY 11235", "United States"]}, "categories": [{"id": "4bf58dd8d48988d1ce941735", "name": "Seafood Restaurant", "pluralName": "Seafood Restaurants", "shortName": "Seafood", "icon": {"prefix": "https://ss3.4sqi.net/img/categories_v2/food/seafood_", "suffix": ".png"}, "primary": true}], "photos": {"count": 0, "groups": []}}, "referralId": "e-0-459cc684f964a5209a401fe3-4"}, {"reasons": {"count": 0, "items": [{"summary": "This spot is popular", "type": "general", "reasonName": "globalInteractionReason"}]}, "venue": {"id": "4fe3c46be4b0ef61f4cdd739", "name": "the gather inn again", "location": {"address": "2720 Gerritsen Avenue", "crossStreet": "Gerritsen Avenue", "lat": 40.59279871182426, "lng": -73.92542049159972, "labeledLatLngs": [{"label": "display", "lat": 40.59279871182426, "lng": -73.92542049159972}, {"label": "entrance", "lat": 40.59285, "lng": -73.925376}], "distance": 451, "postalCode": "11229", "cc": "US", "neighborhood": "Gerritsen Beach", "city": "Brooklyn", "state": "NY", "country": "United States", "formattedAddress": ["2720 Gerritsen Avenue (Gerritsen Avenue)", "Brooklyn, NY 11229", "United States"]}, "categories": [{"id": "4bf58dd8d48988d116941735", "name": "Bar", "pluralName": "Bars", "shortName": "Bar", "icon": {"prefix": "https://ss3.4sqi.net/img/categories_v2/nightlife/pub_", "suffix": ".png"}, "primary": true}], "delivery": {"id": "275289", "url": "https://www.seamless.com/menu/the-gather-inn-again-2718-gerritsen-ave-brooklyn/275289?affiliate=1131&utm_source=foursquare-affiliate-network&utm_medium=affiliate&utm_campaign=1131&utm_content=275289", "provider": {"name": "seamless", "icon": {"prefix": "https://fastly.4sqi.net/img/general/cap/", "sizes": [40, 50], "name": "/delivery_provider_seamless_20180129.png"}}}, "photos": {"count": 0, "groups": []}}, "referralId": "e-0-4fe3c46be4b0ef61f4cdd739-5"}, {"reasons": {"count": 0, "items": [{"summary": "This spot is popular", "type": "general", "reasonName": "globalInteractionReason"}]}, "venue": {"id": "4baf60b1f964a52071fb3be3", "name": "Knapp Street Bagels", "location": {"address": "2771 Knapp St", "crossStreet": "at Harkness Ave.", "lat": 40.58645907030092, "lng": -73.9313031735248, "labeledLatLngs": [{"label": "display", "lat": 40.58645907030092, "lng": -73.9313031735248}], "distance": 499, "postalCode": "11235", "cc": "US", "city": "Brooklyn", "state": "NY", "country": "United States", "formattedAddress": ["2771 Knapp St (at Harkness Ave.)", "Brooklyn, NY 11235", "United States"]}, "categories": [{"id": "4bf58dd8d48988d146941735", "name": "Deli / Bodega", "pluralName": "Delis / Bodegas", "shortName": "Deli / Bodega", "icon": {"prefix": "https://ss3.4sqi.net/img/categories_v2/food/deli_", "suffix": ".png"}, "primary": true}], "photos": {"count": 0, "groups": []}}, "referralId": "e-0-4baf60b1f964a52071fb3be3-6"}, {"reasons": {"count": 0, "items": [{"summary": "This spot is popular", "type": "general", "reasonName": "globalInteractionReason"}]}, "venue": {"id": "4ce59daa023676ebb741ebb9", "name": "Marshalls", "location": {"address": "Erskine Street", "lat": 40.586859885473324, "lng": -73.93229377939214, "labeledLatLngs": [{"label": "display", "lat": 40.586859885473324, "lng": -73.93229377939214}], "distance": 481, "postalCode": "11236", "cc": "US", "city": "Brooklyn", "state": "NY", "country": "United States", "formattedAddress": ["Erskine Street", "Brooklyn, NY 11236", "United States"]}, "categories": [{"id": "4bf58dd8d48988d1f6941735", "name": "Department Store", "pluralName": "Department Stores", "shortName": "Department Store", "icon": {"prefix": "https://ss3.4sqi.net/img/categories_v2/shops/departmentstore_", "suffix": ".png"}, "primary": true}], "photos": {"count": 0, "groups": []}}, "referralId": "e-0-4ce59daa023676ebb741ebb9-7"}, {"reasons": {"count": 0, "items": [{"summary": "This spot is popular", "type": "general", "reasonName": "globalInteractionReason"}]}, "venue": {"id": "4bb3d62d2397b713d8b138b3", "name": "Victoria's Pizzeria", "location": {"address": "2716 Gerritsen Ave", "lat": 40.59291248688142, "lng": -73.92547297694043, "labeledLatLngs": [{"label": "display", "lat": 40.59291248688142, "lng": -73.92547297694043}, {"label": "entrance", "lat": 40.592891, "lng": -73.925422}], "distance": 453, "postalCode": "11229", "cc": "US", "city": "Brooklyn", "state": "NY", "country": "United States", "formattedAddress": ["2716 Gerritsen Ave", "Brooklyn, NY 11229", "United States"]}, "categories": [{"id": "4bf58dd8d48988d1ca941735", "name": "Pizza Place", "pluralName": "Pizza Places", "shortName": "Pizza", "icon": {"prefix": "https://ss3.4sqi.net/img/categories_v2/food/pizza_", "suffix": ".png"}, "primary": true}], "delivery": {"id": "342796", "url": "https://www.seamless.com/menu/victoria-pizzeria-2716-gerritsen-ave-brooklyn/342796?affiliate=1131&utm_source=foursquare-affiliate-network&utm_medium=affiliate&utm_campaign=1131&utm_content=342796", "provider": {"name": "seamless", "icon": {"prefix": "https://fastly.4sqi.net/img/general/cap/", "sizes": [40, 50], "name": "/delivery_provider_seamless_20180129.png"}}}, "photos": {"count": 0, "groups": []}}, "referralId": "e-0-4bb3d62d2397b713d8b138b3-8"}, {"reasons": {"count": 0, "items": [{"summary": "This spot is popular", "type": "general", "reasonName": "globalInteractionReason"}]}, "venue": {"id": "4c462929cd5ca59350feff86", "name": "Shell", "location": {"address": "2472 Knapp St", "lat": 40.59276720292601, "lng": -73.93292373385441, "labeledLatLngs": [{"label": "display", "lat": 40.59276720292601, "lng": -73.93292373385441}], "distance": 320, "postalCode": "11235", "cc": "US", "city": "Brooklyn", "state": "NY", "country": "United States", "formattedAddress": ["2472 Knapp St", "Brooklyn, NY 11235", "United States"]}, "categories": [{"id": "4bf58dd8d48988d113951735", "name": "Gas Station", "pluralName": "Gas Stations", "shortName": "Gas Station", "icon": {"prefix": "https://ss3.4sqi.net/img/categories_v2/shops/gas_", "suffix": ".png"}, "primary": true}], "photos": {"count": 0, "groups": []}}, "referralId": "e-0-4c462929cd5ca59350feff86-9"}, {"reasons": {"count": 0, "items": [{"summary": "This spot is popular", "type": "general", "reasonName": "globalInteractionReason"}]}, "venue": {"id": "4bd7877e5cf276b014919b00", "name": "Tamaqua Bar & Marina", "location": {"address": "84 Ebony Ct", "lat": 40.59442275844327, "lng": -73.92998920159911, "labeledLatLngs": [{"label": "display", "lat": 40.59442275844327, "lng": -73.92998920159911}], "distance": 398, "postalCode": "11229", "cc": "US", "city": "Brooklyn", "state": "NY", "country": "United States", "formattedAddress": ["84 Ebony Ct", "Brooklyn, NY 11229", "United States"]}, "categories": [{"id": "4bf58dd8d48988d116941735", "name": "Bar", "pluralName": "Bars", "shortName": "Bar", "icon": {"prefix": "https://ss3.4sqi.net/img/categories_v2/nightlife/pub_", "suffix": ".png"}, "primary": true}], "photos": {"count": 0, "groups": []}}, "referralId": "e-0-4bd7877e5cf276b014919b00-10"}, {"reasons": {"count": 0, "items": [{"summary": "This spot is popular", "type": "general", "reasonName": "globalInteractionReason"}]}, "venue": {"id": "4c40f595ff711b8db7401105", "name": "Brooklyn Yacht Club", "location": {"address": "3147 Voorhies Ave", "lat": 40.58856, "lng": -73.930679, "labeledLatLngs": [{"label": "display", "lat": 40.58856, "lng": -73.930679}, {"label": "entrance", "lat": 40.588354, "lng": -73.930602}], "distance": 259, "postalCode": "11235", "cc": "US", "city": "Brooklyn", "state": "NY", "country": "United States", "formattedAddress": ["3147 Voorhies Ave", "Brooklyn, NY 11235", "United States"]}, "categories": [{"id": "4bf58dd8d48988d1e0941735", "name": "Harbor / Marina", "pluralName": "Harbors / Marinas", "shortName": "Harbor / Marina", "icon": {"prefix": "https://ss3.4sqi.net/img/categories_v2/parks_outdoors/harbor_", "suffix": ".png"}, "primary": true}], "photos": {"count": 0, "groups": []}}, "referralId": "e-0-4c40f595ff711b8db7401105-11"}, {"reasons": {"count": 0, "items": [{"summary": "This spot is popular", "type": "general", "reasonName": "globalInteractionReason"}]}, "venue": {"id": "51c66045498ec87603306569", "name": "Brooklyn Yatch Club", "location": {"lat": 40.58843184972799, "lng": -73.9304969464528, "labeledLatLngs": [{"label": "display", "lat": 40.58843184972799, "lng": -73.9304969464528}], "distance": 271, "cc": "US", "city": "New York", "state": "NY", "country": "United States", "formattedAddress": ["New York, NY", "United States"]}, "categories": [{"id": "4bf58dd8d48988d1e0941735", "name": "Harbor / Marina", "pluralName": "Harbors / Marinas", "shortName": "Harbor / Marina", "icon": {"prefix": "https://ss3.4sqi.net/img/categories_v2/parks_outdoors/harbor_", "suffix": ".png"}, "primary": true}], "photos": {"count": 0, "groups": []}}, "referralId": "e-0-51c66045498ec87603306569-12"}, {"reasons": {"count": 0, "items": [{"summary": "This spot is popular", "type": "general", "reasonName": "globalInteractionReason"}]}, "venue": {"id": "4a4e253df964a52027ae1fe3", "name": "TGI Fridays", "location": {"address": "3181 Harkness Ave", "crossStreet": "at Plumb 3rd St", "lat": 40.586918, "lng": -73.928955, "labeledLatLngs": [{"label": "display", "lat": 40.586918, "lng": -73.928955}, {"label": "entrance", "lat": 40.586786, "lng": -73.928916}], "distance": 448, "postalCode": "11235", "cc": "US", "city": "Brooklyn", "state": "NY", "country": "United States", "formattedAddress": ["3181 Harkness Ave (at Plumb 3rd St)", "Brooklyn, NY 11235", "United States"]}, "categories": [{"id": "4bf58dd8d48988d1c4941735", "name": "Restaurant", "pluralName": "Restaurants", "shortName": "Restaurant", "icon": {"prefix": "https://ss3.4sqi.net/img/categories_v2/food/default_", "suffix": ".png"}, "primary": true}], "photos": {"count": 0, "groups": []}}, "referralId": "e-0-4a4e253df964a52027ae1fe3-13"}, {"reasons": {"count": 0, "items": [{"summary": "This spot is popular", "type": "general", "reasonName": "globalInteractionReason"}]}, "venue": {"id": "4d8ed64afa943704be670dc6", "name": "Boat sweet boat", "location": {"address": "2771 Knapp St", "lat": 40.58697740442025, "lng": -73.9307942935657, "labeledLatLngs": [{"label": "display", "lat": 40.58697740442025, "lng": -73.9307942935657}, {"label": "entrance", "lat": 40.586482, "lng": -73.931288}], "distance": 434, "postalCode": "11235", "cc": "US", "city": "Brooklyn", "state": "NY", "country": "United States", "formattedAddress": ["2771 Knapp St", "Brooklyn, NY 11235", "United States"]}, "categories": [{"id": "4bf58dd8d48988d12d951735", "name": "Boat or Ferry", "pluralName": "Boats or Ferries", "shortName": "Boat / Ferry", "icon": {"prefix": "https://ss3.4sqi.net/img/categories_v2/travel/boat_", "suffix": ".png"}, "primary": true}], "photos": {"count": 0, "groups": []}}, "referralId": "e-0-4d8ed64afa943704be670dc6-14"}, {"reasons": {"count": 0, "items": [{"summary": "This spot is popular", "type": "general", "reasonName": "globalInteractionReason"}]}, "venue": {"id": "4bf873614a67c9282d7925cf", "name": "Ice Cream U Scream", "location": {"address": "2714 Gerritsen Ave", "lat": 40.592890999999995, "lng": -73.925535, "labeledLatLngs": [{"label": "display", "lat": 40.592890999999995, "lng": -73.925535}, {"label": "entrance", "lat": 40.592934, "lng": -73.925469}], "distance": 448, "postalCode": "11229", "cc": "US", "city": "Brooklyn", "state": "NY", "country": "United States", "formattedAddress": ["2714 Gerritsen Ave", "Brooklyn, NY 11229", "United States"]}, "categories": [{"id": "4bf58dd8d48988d1c9941735", "name": "Ice Cream Shop", "pluralName": "Ice Cream Shops", "shortName": "Ice Cream", "icon": {"prefix": "https://ss3.4sqi.net/img/categories_v2/food/icecream_", "suffix": ".png"}, "primary": true}], "photos": {"count": 0, "groups": []}}, "referralId": "e-0-4bf873614a67c9282d7925cf-15"}, {"reasons": {"count": 0, "items": [{"summary": "This spot is popular", "type": "general", "reasonName": "globalInteractionReason"}]}, "venue": {"id": "4a75fecbf964a520e8e11fe3", "name": "Cold Stone Creamery", "location": {"address": "3165 Harkness Avenue", "lat": 40.586698, "lng": -73.929318, "labeledLatLngs": [{"label": "display", "lat": 40.586698, "lng": -73.929318}], "distance": 466, "postalCode": "11235", "cc": "US", "city": "Brooklyn", "state": "NY", "country": "United States", "formattedAddress": ["3165 Harkness Avenue", "Brooklyn, NY 11235", "United States"]}, "categories": [{"id": "4bf58dd8d48988d1c9941735", "name": "Ice Cream Shop", "pluralName": "Ice Cream Shops", "shortName": "Ice Cream", "icon": {"prefix": "https://ss3.4sqi.net/img/categories_v2/food/icecream_", "suffix": ".png"}, "primary": true}], "delivery": {"id": "805442", "url": "https://www.seamless.com/menu/cold-stone-creamery-3165-harkness-ave-brooklyn/805442?affiliate=1131&utm_source=foursquare-affiliate-network&utm_medium=affiliate&utm_campaign=1131&utm_content=805442", "provider": {"name": "seamless", "icon": {"prefix": "https://fastly.4sqi.net/img/general/cap/", "sizes": [40, 50], "name": "/delivery_provider_seamless_20180129.png"}}}, "photos": {"count": 0, "groups": []}}, "referralId": "e-0-4a75fecbf964a520e8e11fe3-16"}, {"reasons": {"count": 0, "items": [{"summary": "This spot is popular", "type": "general", "reasonName": "globalInteractionReason"}]}, "venue": {"id": "4bbb61f3b35776b004e3cb01", "name": "Gerritsen Avenue Park", "location": {"address": "Next to P.S. 277", "lat": 40.594562746203074, "lng": -73.92743138475485, "labeledLatLngs": [{"label": "display", "lat": 40.594562746203074, "lng": -73.92743138475485}], "distance": 471, "postalCode": "11229", "cc": "US", "city": "Brooklyn", "state": "NY", "country": "United States", "formattedAddress": ["Next to P.S. 277", "Brooklyn, NY 11229", "United States"]}, "categories": [{"id": "4bf58dd8d48988d163941735", "name": "Park", "pluralName": "Parks", "shortName": "Park", "icon": {"prefix": "https://ss3.4sqi.net/img/categories_v2/parks_outdoors/park_", "suffix": ".png"}, "primary": true}], "photos": {"count": 0, "groups": []}}, "referralId": "e-0-4bbb61f3b35776b004e3cb01-17"}, {"reasons": {"count": 0, "items": [{"summary": "This spot is popular", "type": "general", "reasonName": "globalInteractionReason"}]}, "venue": {"id": "4d3875c7803ba35d67339cfc", "name": "Venezia Pizzeria & Restaurant", "location": {"address": "2771 Knapp St", "lat": 40.586577, "lng": -73.931115, "labeledLatLngs": [{"label": "display", "lat": 40.586577, "lng": -73.931115}], "distance": 483, "postalCode": "11235", "cc": "US", "city": "Brooklyn", "state": "NY", "country": "United States", "formattedAddress": ["2771 Knapp St", "Brooklyn, NY 11235", "United States"]}, "categories": [{"id": "4bf58dd8d48988d1ca941735", "name": "Pizza Place", "pluralName": "Pizza Places", "shortName": "Pizza", "icon": {"prefix": "https://ss3.4sqi.net/img/categories_v2/food/pizza_", "suffix": ".png"}, "primary": true}], "photos": {"count": 0, "groups": []}}, "referralId": "e-0-4d3875c7803ba35d67339cfc-18"}]