[{"reasons": {"count": 0, "items": [{"summary": "This spot is popular", "type": "general", "reasonName": "globalInteractionReason"}]}, "venue": {"id": "57aa52be498e78ef8a881ebb", "name": "Big Reuse", "location": {"address": "65 9th St", "lat": 40.67387827488131, "lng": -73.99508175947157, "labeledLatLngs": [{"label": "display", "lat": 40.67387827488131, "lng": -73.99508175947157}], "distance": 54, "postalCode": "11215", "cc": "US", "city": "Brooklyn", "state": "NY", "country": "United States", "formattedAddress": ["65 9th St", "Brooklyn, NY 11215", "United States"]}, "categories": [{"id": "4bf58dd8d48988d1f8941735", "name": "Furniture / Home Store", "pluralName": "Furniture / Home Stores", "shortName": "Furniture / Home", "icon": {"prefix": "https://ss3.4sqi.net/img/categories_v2/shops/furniture_", "suffix": ".png"}, "primary": true}], "photos": {"count": 0, "groups": []}}, "referralId": "e-0-57aa52be498e78ef8a881ebb-0"}, {"reasons": {"count": 0, "items": [{"summary": "This spot is popular", "type": "general", "reasonName": "globalInteractionReason"}]}, "venue": {"id": "4a20534ef964a5206d7c1fe3", "name": "King Killer Studios", "location": {"address": "69 2nd Ave", "crossStreet": "9th Street", "lat": 40.67275337123803, "lng": -73.99303288583457, "labeledLatLngs": [{"label": "display", "lat": 40.67275337123803, "lng": -73.99303288583457}], "distance": 176, "postalCode": "11215", "cc": "US", "city": "Brooklyn", "state": "NY", "country": "United States", "formattedAddress": ["69 2nd Ave (9th Street)", "Brooklyn, NY 11215", "United States"]}, "categories": [{"id": "4bf58dd8d48988d1f2931735", "name": "Performing Arts Venue", "pluralName": "Performing Arts Venues", "shortName": "Performing Arts", "icon": {"prefix": "https://ss3.4sqi.net/img/categories_v2/arts_entertainment/performingarts_", "suffix": ".png"}, "primary": true}], "photos": {"count": 0, "groups": []}}, "referralId": "e-0-4a20534ef964a5206d7c1fe3-1"}, {"reasons": {"count": 0, "items": [{"summary": "This spot is popular", "type": "general", "reasonName": "globalInteractionReason"}]}, "venue": {"id": "4901ef67f964a5205b521fe3", "name": "The Bell House", "location": {"address": "149 7th St", "crossStreet": "btwn 2nd & 3rd Ave", "lat": 40.673703858503, "lng": -73.99169824616679, "labeledLatLngs": [{"label": "display", "lat": 40.673703858503, "lng": -73.99169824616679}], "distance": 232, "postalCode": "11215", "cc": "US", "city": "Brooklyn", "state": "NY", "country": "United States", "formattedAddress": ["149 7th St (btwn 2nd & 3rd Ave)", "Brooklyn, NY 11215", "United States"]}, "categories": [{"id": "4bf58dd8d48988d1e9931735", "name": "Rock Club", "pluralName": "Rock Clubs", "shortName": "Rock Club", "icon": {"prefix": "https://ss3.4sqi.net/img/categories_v2/arts_entertainment/musicvenue_rockclub_", "suffix": ".png"}, "primary": true}], "photos": {"count": 0, "groups": []}, "venuePage": {"id": "54966797"}}, "referralId": "e-0-4901ef67f964a5205b521fe3-2"}, {"reasons": {"count": 0, "items": [{"summary": "This spot is popular", "type": "general", "reasonName": "globalInteractionReason"}]}, "venue": {"id": "52eab90a498ee70cbe1ee103", "name": "Other Half Brewing Company", "location": {"address": "195 Centre St", "crossStreet": "Smith & Court St", "lat": 40.673789976521334, "lng": -73.99913388740788, "labeledLatLngs": [{"label": "display", "lat": 40.673789976521334, "lng": -73.99913388740788}, {"label": "entrance", "lat": 40.673761, "lng": -73.999168}], "distance": 396, "postalCode": "11231", "cc": "US", "neighborhood": "Carroll Gardens", "city": "Brooklyn", "state": "NY", "country": "United States", "formattedAddress": ["195 Centre St (Smith & Court St)", "Brooklyn, NY 11231", "United States"]}, "categories": [{"id": "50327c8591d4c4b30a586d5d", "name": "Brewery", "pluralName": "Breweries", "shortName": "Brewery", "icon": {"prefix": "https://ss3.4sqi.net/img/categories_v2/food/brewery_", "suffix": ".png"}, "primary": true}], "photos": {"count": 0, "groups": []}, "venuePage": {"id": "563078020"}}, "referralId": "e-0-52eab90a498ee70cbe1ee103-3"}, {"reasons": {"count": 0, "items": [{"summary": "This spot is popular", "type": "general", "reasonName": "globalInteractionReason"}]}, "venue": {"id": "4bbfa8ba461576b08ef27832", "name": "Four & Twenty Blackbirds", "location": {"address": "439 3rd Ave", "crossStreet": "at 8th St", "lat": 40.67207184871795, "lng": -73.99041118791499, "labeledLatLngs": [{"label": "display", "lat": 40.67207184871795, "lng": -73.99041118791499}, {"label": "entrance", "lat": 40.672143, "lng": -73.990286}], "distance": 398, "postalCode": "11215", "cc": "US", "city": "Brooklyn", "state": "NY", "country": "United States", "formattedAddress": ["439 3rd Ave (at 8th St)", "Brooklyn, NY 11215", "United States"]}, "categories": [{"id": "52e81612bcbc57f1066b7a0a", "name": "Pie Shop", "pluralName": "Pie Shops", "shortName": "Pie Shop", "icon": {"prefix": "https://ss3.4sqi.net/img/categories_v2/food/pieshop_", "suffix": ".png"}, "primary": true}], "delivery": {"id": "312502", "url": "https://www.seamless.com/menu/four--twenty-blackbirds-439-3rd-ave-brooklyn/312502?affiliate=1131&utm_source=foursquare-affiliate-network&utm_medium=affiliate&utm_campaign=1131&utm_content=312502", "provider": {"name": "seamless", "icon": {"prefix": "https://fastly.4sqi.net/img/general/cap/", "sizes": [40, 50], "name": "/delivery_provider_seamless_20180129.png"}}}, "photos": {"count": 0, "groups": []}, "venuePage": {"id": "79411569"}}, "referralId": "e-0-4bbfa8ba461576b08ef27832-4"}, {"reasons": {"count": 0, "items": [{"summary": "This spot is popular", "type": "general", "reasonName": "globalInteractionReason"}]}, "venue": {"id": "5b2aa0d02619ee002c85184e", "name": "nerd be cool.", "location": {"address": "518 Court St", "crossStreet": "btwn Huntington & Nelson St", "lat": 40.67615624798502, "lng": -73.99889198473417, "labeledLatLngs": [{"label": "display", "lat": 40.67615624798502, "lng": -73.99889198473417}], "distance": 450, "postalCode": "11231", "cc": "US", "city": "New York", "state": "NY", "country": "United States", "formattedAddress": ["518 Court St (btwn Huntington & Nelson St)", "New York, NY 11231", "United States"]}, "categories": [{"id": "4bf58dd8d48988d1e0931735", "name": "Coffee Shop", "pluralName": "Coffee Shops", "shortName": "Coffee Shop", "icon": {"prefix": "https://ss3.4sqi.net/img/categories_v2/food/coffeeshop_", "suffix": ".png"}, "primary": true}], "photos": {"count": 0, "groups": []}}, "referralId": "e-0-5b2aa0d02619ee002c85184e-5"}, {"reasons": {"count": 0, "items": [{"summary": "This spot is popular", "type": "general", "reasonName": "globalInteractionReason"}]}, "venue": {"id": "52a329bb11d2bbaf61c8502e", "name": "Battalion Studios", "location": {"address": "175 6th Street", "crossStreet": "3rd Ave", "lat": 40.67389, "lng": -73.99055, "labeledLatLngs": [{"label": "display", "lat": 40.67389, "lng": -73.99055}], "distance": 328, "postalCode": "11215", "cc": "US", "city": "Brooklyn", "state": "NY", "country": "United States", "formattedAddress": ["175 6th Street (3rd Ave)", "Brooklyn, NY 11215", "United States"]}, "categories": [{"id": "4bf58dd8d48988d1e5931735", "name": "Music Venue", "pluralName": "Music Venues", "shortName": "Music Venue", "icon": {"prefix": "https://ss3.4sqi.net/img/categories_v2/arts_entertainment/musicvenue_", "suffix": ".png"}, "primary": true}], "photos": {"count": 0, "groups": []}, "venuePage": {"id": "109014663"}}, "referralId": "e-0-52a329bb11d2bbaf61c8502e-6"}, {"reasons": {"count": 0, "items": [{"summary": "This spot is popular", "type": "general", "reasonName": "globalInteractionReason"}]}, "venue": {"id": "4c5dbf402815c928c8c3b567", "name": "Court Street Grocers", "location": {"address": "485 Court St", "crossStreet": "btwn Nelson and Huntington St", "lat": 40.676287344436915, "lng": -73.99880699967053, "labeledLatLngs": [{"label": "display", "lat": 40.676287344436915, "lng": -73.99880699967053}, {"label": "entrance", "lat": 40.676235, "lng": -73.99871}], "distance": 452, "postalCode": "11231", "cc": "US", "city": "Brooklyn", "state": "NY", "country": "United States", "formattedAddress": ["485 Court St (btwn Nelson and Huntington St)", "Brooklyn, NY 11231", "United States"]}, "categories": [{"id": "4bf58dd8d48988d1f9941735", "name": "Food & Drink Shop", "pluralName": "Food & Drink Shops", "shortName": "Food & Drink", "icon": {"prefix": "https://ss3.4sqi.net/img/categories_v2/shops/foodanddrink_", "suffix": ".png"}, "primary": true}], "delivery": {"id": "1455092", "url": "https://www.seamless.com/menu/court-street-grocers-485-court-st-brooklyn/1455092?affiliate=1131&utm_source=foursquare-affiliate-network&utm_medium=affiliate&utm_campaign=1131&utm_content=1455092", "provider": {"name": "seamless", "icon": {"prefix": "https://fastly.4sqi.net/img/general/cap/", "sizes": [40, 50], "name": "/delivery_provider_seamless_20180129.png"}}}, "photos": {"count": 0, "groups": []}, "venuePage": {"id": "48106530"}}, "referralId": "e-0-4c5dbf402815c928c8c3b567-7"}, {"reasons": {"count": 0, "items": [{"summary": "This spot is popular", "type": "general", "reasonName": "globalInteractionReason"}]}, "venue": {"id": "4b89d2c1f964a520194f32e3", "name": "Brooklyn Art Space", "location": {"address": "168 7th St Fl 3", "lat": 40.67292233643336, "lng": -73.99097545995053, "labeledLatLngs": [{"label": "display", "lat": 40.67292233643336, "lng": -73.99097545995053}], "distance": 313, "postalCode": "11215", "cc": "US", "city": "Brooklyn", "state": "NY", "country": "United States", "formattedAddress": ["168 7th St Fl 3", "Brooklyn, NY 11215", "United States"]}, "categories": [{"id": "4bf58dd8d48988d1e2931735", "name": "Art Gallery", "pluralName": "Art Galleries", "shortName": "Art Gallery", "icon": {"prefix": "https://ss3.4sqi.net/img/categories_v2/arts_entertainment/artgallery_", "suffix": ".png"}, "primary": true}], "photos": {"count": 0, "groups": []}, "venuePage": {"id": "39945769"}}, "referralId": "e-0-4b89d2c1f964a520194f32e3-8"}, {"reasons": {"count": 0, "items": [{"summary": "This spot is popular", "type": "general", "reasonName": "globalInteractionReason"}]}, "venue": {"id": "53618528498ea17aeb165d57", "name": "Table 87", "location": {"address": "473 3rd Ave", "crossStreet": "at 10th St", "lat": 40.670784223623315, "lng": -73.99148945604801, "labeledLatLngs": [{"label": "display", "lat": 40.670784223623315, "lng": -73.99148945604801}, {"label": "entrance", "lat": 40.670713, "lng": -73.991484}], "distance": 429, "postalCode": "11215", "cc": "US", "city": "Brooklyn", "state": "NY", "country": "United States", "formattedAddress": ["473 3rd Ave (at 10th St)", "Brooklyn, NY 11215", "United States"]}, "categories": [{"id": "4bf58dd8d48988d1ca941735", "name": "Pizza Place", "pluralName": "Pizza Places", "shortName": "Pizza", "icon": {"prefix": "https://ss3.4sqi.net/img/categories_v2/food/pizza_", "suffix": ".png"}, "primary": true}], "delivery": {"id": "291838", "url": "https://www.seamless.com/menu/table-87-473-3rd-ave-brooklyn-/291838?affiliate=1131&utm_source=foursquare-affiliate-network&utm_medium=affiliate&utm_campaign=1131&utm_content=291838", "provider": {"name": "seamless", "icon": {"prefix": "https://fastly.4sqi.net/img/general/cap/", "sizes": [40, 50], "name": "/delivery_provider_seamless_20180129.png"}}}, "photos": {"count": 0, "groups": []}}, "referralId": "e-0-53618528498ea17aeb165d57-9"}, {"reasons": {"count": 0, "items": [{"summary": "This spot is popular", "type": "general", "reasonName": "globalInteractionReason"}]}, "venue": {"id": "4ea7e903d5fbe8dfe8a46187", "name": "Lucey's Lounge", "location": {"address": "475 3rd Ave", "crossStreet": "at 10th St", "lat": 40.67074568186629, "lng": -73.99153662368684, "labeledLatLngs": [{"label": "display", "lat": 40.67074568186629, "lng": -73.99153662368684}, {"label": "entrance", "lat": 40.670671, "lng": -73.991518}], "distance": 431, "postalCode": "11215", "cc": "US", "city": "Brooklyn", "state": "NY", "country": "United States", "formattedAddress": ["475 3rd Ave (at 10th St)", "Brooklyn, NY 11215", "United States"]}, "categories": [{"id": "4bf58dd8d48988d11e941735", "name": "Cocktail Bar", "pluralName": "Cocktail Bars", "shortName": "Cocktail", "icon": {"prefix": "https://ss3.4sqi.net/img/categories_v2/nightlife/cocktails_", "suffix": ".png"}, "primary": true}], "photos": {"count": 0, "groups": []}, "venuePage": {"id": "81413468"}}, "referralId": "e-0-4ea7e903d5fbe8dfe8a46187-10"}, {"reasons": {"count": 0, "items": [{"summary": "This spot is popular", "type": "general", "reasonName": "globalInteractionReason"}]}, "venue": {"id": "49c7bfecf964a520bb571fe3", "name": "Buttermilk Channel", "location": {"address": "524 Court St", "crossStreet": "at Huntington St", "lat": 40.67592444896118, "lng": -73.99906984462297, "labeledLatLngs": [{"label": "display", "lat": 40.67592444896118, "lng": -73.99906984462297}, {"label": "entrance", "lat": 40.675965, "lng": -73.999119}], "distance": 449, "postalCode": "11231", "cc": "US", "city": "Brooklyn", "state": "NY", "country": "United States", "formattedAddress": ["524 Court St (at Huntington St)", "Brooklyn, NY 11231", "United States"]}, "categories": [{"id": "4bf58dd8d48988d14e941735", "name": "American Restaurant", "pluralName": "American Restaurants", "shortName": "American", "icon": {"prefix": "https://ss3.4sqi.net/img/categories_v2/food/default_", "suffix": ".png"}, "primary": true}], "photos": {"count": 0, "groups": []}, "venuePage": {"id": "54293339"}}, "referralId": "e-0-49c7bfecf964a520bb571fe3-11"}, {"reasons": {"count": 0, "items": [{"summary": "This spot is popular", "type": "general", "reasonName": "globalInteractionReason"}]}, "venue": {"id": "4d55eb2db4deb1f72e760a7a", "name": "Halyards", "location": {"address": "406 3rd Ave", "crossStreet": "at 6th Street", "lat": 40.673213, "lng": -73.98975, "labeledLatLngs": [{"label": "display", "lat": 40.673213, "lng": -73.98975}], "distance": 404, "postalCode": "11215", "cc": "US", "city": "Brooklyn", "state": "NY", "country": "United States", "formattedAddress": ["406 3rd Ave (at 6th Street)", "Brooklyn, NY 11215", "United States"]}, "categories": [{"id": "4bf58dd8d48988d116941735", "name": "Bar", "pluralName": "Bars", "shortName": "Bar", "icon": {"prefix": "https://ss3.4sqi.net/img/categories_v2/nightlife/pub_", "suffix": ".png"}, "primary": true}], "photos": {"count": 0, "groups": []}, "venuePage": {"id": "58163424"}}, "referralId": "e-0-4d55eb2db4deb1f72e760a7a-12"}, {"reasons": {"count": 0, "items": [{"summary": "This spot is popular", "type": "general", "reasonName": "globalInteractionReason"}]}, "venue": {"id": "501830b5e4b06ec2736b417c", "name": "Gowanus Wine Merchants", "location": {"address": "493 3rd Ave", "crossStreet": "11th Street", "lat": 40.6703150108719, "lng": -73.99193198655011, "labeledLatLngs": [{"label": "display", "lat": 40.6703150108719, "lng": -73.99193198655011}, {"label": "entrance", "lat": 40.670291, "lng": -73.991837}], "distance": 454, "postalCode": "11215", "cc": "US", "city": "Brooklyn", "state": "NY", "country": "United States", "formattedAddress": ["493 3rd Ave (11th Street)", "Brooklyn, NY 11215", "United States"]}, "categories": [{"id": "4bf58dd8d48988d119951735", "name": "Wine Shop", "pluralName": "Wine Shops", "shortName": "Wine Shop", "icon": {"prefix": "https://ss3.4sqi.net/img/categories_v2/shops/food_wineshop_", "suffix": ".png"}, "primary": true}], "photos": {"count": 0, "groups": []}}, "referralId": "e-0-501830b5e4b06ec2736b417c-13"}, {"reasons": {"count": 0, "items": [{"summary": "This spot is popular", "type": "general", "reasonName": "globalInteractionReason"}]}, "venue": {"id": "52781665498e79b52476d279", "name": "Whole Foods Market", "location": {"address": "214 3rd Street", "crossStreet": "at 3rd Ave", "lat": 40.67526187880738, "lng": -73.98886312774594, "labeledLatLngs": [{"label": "display", "lat": 40.67526187880738, "lng": -73.98886312774594}], "distance": 493, "postalCode": "11215", "cc": "US", "city": "Brooklyn", "state": "NY", "country": "United States", "formattedAddress": ["214 3rd Street (at 3rd Ave)", "Brooklyn, NY 11215", "United States"]}, "categories": [{"id": "4bf58dd8d48988d118951735", "name": "Grocery Store", "pluralName": "Grocery Stores", "shortName": "Grocery Store", "icon": {"prefix": "https://ss3.4sqi.net/img/categories_v2/shops/food_grocery_", "suffix": ".png"}, "primary": true}], "photos": {"count": 0, "groups": []}}, "referralId": "e-0-52781665498e79b52476d279-14"}, {"reasons": {"count": 0, "items": [{"summary": "This spot is popular", "type": "general", "reasonName": "globalInteractionReason"}]}, "venue": {"id": "41abb800f964a520561e1fe3", "name": "Frankies 457 Spuntino", "location": {"address": "457 Court St", "crossStreet": "btwn 4th Pl & Luquer St", "lat": 40.67735978455962, "lng": -73.99804694982672, "labeledLatLngs": [{"label": "display", "lat": 40.67735978455962, "lng": -73.99804694982672}], "distance": 488, "postalCode": "11231", "cc": "US", "city": "Brooklyn", "state": "NY", "country": "United States", "formattedAddress": ["457 Court St (btwn 4th Pl & Luquer St)", "Brooklyn, NY 11231", "United States"]}, "categories": [{"id": "4bf58dd8d48988d110941735", "name": "Italian Restaurant", "pluralName": "Italian Restaurants", "shortName": "Italian", "icon": {"prefix": "https://ss3.4sqi.net/img/categories_v2/food/italian_", "suffix": ".png"}, "primary": true}], "delivery": {"id": "383168", "url": "https://www.seamless.com/menu/frankies-457-457-court-st-brooklyn/383168?affiliate=1131&utm_source=foursquare-affiliate-network&utm_medium=affiliate&utm_campaign=1131&utm_content=383168", "provider": {"name": "seamless", "icon": {"prefix": "https://fastly.4sqi.net/img/general/cap/", "sizes": [40, 50], "name": "/delivery_provider_seamless_20180129.png"}}}, "photos": {"count": 0, "groups": []}}, "referralId": "e-0-41abb800f964a520561e1fe3-15"}, {"reasons": {"count": 0, "items": [{"summary": "This spot is popular", "type": "general", "reasonName": "globalInteractionReason"}]}, "venue": {"id": "59985da3da5e5606a926b53d", "name": "Ugly Baby", "location": {"address": "407 Smith St", "lat": 40.67801930527555, "lng": -73.99613921080501, "labeledLatLngs": [{"label": "display", "lat": 40.67801930527555, "lng": -73.99613921080501}], "distance": 477, "postalCode": "11231", "cc": "US", "neighborhood": "Carroll Gardens", "city": "Brooklyn", "state": "NY", "country": "United States", "formattedAddress": ["407 Smith St", "Brooklyn, NY 11231", "United States"]}, "categories": [{"id": "4bf58dd8d48988d149941735", "name": "Thai Restaurant", "pluralName": "Thai Restaurants", "shortName": "Thai", "icon": {"prefix": "https://ss3.4sqi.net/img/categories_v2/food/thai_", "suffix": ".png"}, "primary": true}], "photos": {"count": 0, "groups": []}, "venuePage": {"id": "449866574"}}, "referralId": "e-0-59985da3da5e5606a926b53d-16"}, {"reasons": {"count": 0, "items": [{"summary": "This spot is popular", "type": "general", "reasonName": "globalInteractionReason"}]}, "venue": {"id": "54dbf48d498ee59bad9ceeb6", "name": "El Mate", "location": {"address": "550 Court St", "crossStreet": "9th Street", "lat": 40.67501593578613, "lng": -73.99960212756113, "labeledLatLngs": [{"label": "display", "lat": 40.67501593578613, "lng": -73.99960212756113}], "distance": 452, "postalCode": "11231", "cc": "US", "city": "Brooklyn", "state": "NY", "country": "United States", "formattedAddress": ["550 Court St (9th Street)", "Brooklyn, NY 11231", "United States"]}, "categories": [{"id": "4bf58dd8d48988d107941735", "name": "Argentinian Restaurant", "pluralName": "Argentinian Restaurants", "shortName": "Argentinian", "icon": {"prefix": "https://ss3.4sqi.net/img/categories_v2/food/argentinian_", "suffix": ".png"}, "primary": true}], "photos": {"count": 0, "groups": []}, "venuePage": {"id": "141965868"}}, "referralId": "e-0-54dbf48d498ee59bad9ceeb6-17"}, {"reasons": {"count": 0, "items": [{"summary": "This spot is popular", "type": "general", "reasonName": "globalInteractionReason"}]}, "venue": {"id": "4aabde7ff964a5208d5a20e3", "name": "Cut Brooklyn", "location": {"address": "461 3rd Ave", "crossStreet": "at 9th St", "lat": 40.671114, "lng": -73.991035, "labeledLatLngs": [{"label": "display", "lat": 40.671114, "lng": -73.991035}, {"label": "entrance", "lat": 40.671153, "lng": -73.991115}], "distance": 425, "postalCode": "11215", "cc": "US", "city": "Brooklyn", "state": "NY", "country": "United States", "formattedAddress": ["461 3rd Ave (at 9th St)", "Brooklyn, NY 11215", "United States"]}, "categories": [{"id": "4bf58dd8d48988d1f8941735", "name": "Furniture / Home Store", "pluralName": "Furniture / Home Stores", "shortName": "Furniture / Home", "icon": {"prefix": "https://ss3.4sqi.net/img/categories_v2/shops/furniture_", "suffix": ".png"}, "primary": true}], "photos": {"count": 0, "groups": []}}, "referralId": "e-0-4aabde7ff964a5208d5a20e3-18"}, {"reasons": {"count": 0, "items": [{"summary": "This spot is popular", "type": "general", "reasonName": "globalInteractionReason"}]}, "venue": {"id": "52f18573498ec2c34e830ffd", "name": "Kanan's Indian Restaurant", "location": {"address": "452 3rd Ave", "crossStreet": "9th Street", "lat": 40.671890999999995, "lng": -73.99094000000001, "labeledLatLngs": [{"label": "display", "lat": 40.671890999999995, "lng": -73.99094000000001}, {"label": "entrance", "lat": 40.671842, "lng": -73.990867}], "distance": 372, "postalCode": "11215", "cc": "US", "city": "Brooklyn", "state": "NY", "country": "United States", "formattedAddress": ["452 3rd Ave (9th Street)", "Brooklyn, NY 11215", "United States"]}, "categories": [{"id": "4bf58dd8d48988d10f941735", "name": "Indian Restaurant", "pluralName": "Indian Restaurants", "shortName": "Indian", "icon": {"prefix": "https://ss3.4sqi.net/img/categories_v2/food/indian_", "suffix": ".png"}, "primary": true}], "delivery": {"id": "288581", "url": "https://www.seamless.com/menu/kanan-indian-restaurant-452-3rd-ave-brooklyn/288581?affiliate=1131&utm_source=foursquare-affiliate-network&utm_medium=affiliate&utm_campaign=1131&utm_content=288581", "provider": {"name": "seamless", "icon": {"prefix": "https://fastly.4sqi.net/img/general/cap/", "sizes": [40, 50], "name": "/delivery_provider_seamless_20180129.png"}}}, "photos": {"count": 0, "groups": []}}, "referralId": "e-0-52f18573498ec2c34e830ffd-19"}, {"reasons": {"count": 0, "items": [{"summary": "This spot is popular", "type": "general", "reasonName": "globalInteractionReason"}]}, "venue": {"id": "502bc1d0e4b040e2ae32962e", "name": "La Slowteria", "location": {"address": "548 Court St", "crossStreet": "W 9th St", "lat": 40.67504725633692, "lng": -73.99940439700218, "labeledLatLngs": [{"label": "display", "lat": 40.67504725633692, "lng": -73.99940439700218}, {"label": "entrance", "lat": 40.67509, "lng": -73.999538}], "distance": 437, "postalCode": "11231", "cc": "US", "city": "Brooklyn", "state": "NY", "country": "United States", "formattedAddress": ["548 Court St (W 9th St)", "Brooklyn, NY 11231", "United States"]}, "categories": [{"id": "4bf58dd8d48988d1c1941735", "name": "Mexican Restaurant", "pluralName": "Mexican Restaurants", "shortName": "Mexican", "icon": {"prefix": "https://ss3.4sqi.net/img/categories_v2/food/mexican_", "suffix": ".png"}, "primary": true}], "photos": {"count": 0, "groups": []}, "venuePage": {"id": "59530749"}}, "referralId": "e-0-502bc1d0e4b040e2ae32962e-20"}, {"reasons": {"count": 0, "items": [{"summary": "This spot is popular", "type": "general", "reasonName": "globalInteractionReason"}]}, "venue": {"id": "5d56bcea6ac2400008de14d9", "name": "F&F Pizzeria", "location": {"address": "459 Court St", "crossStreet": "Luquer St", "lat": 40.677342, "lng": -73.998162, "labeledLatLngs": [{"label": "display", "lat": 40.677342, "lng": -73.998162}, {"label": "entrance", "lat": 40.677319, "lng": -73.998179}], "distance": 492, "postalCode": "11231", "cc": "US", "city": "Brooklyn", "state": "NY", "country": "United States", "formattedAddress": ["459 Court St (Luquer St)", "Brooklyn, NY 11231", "United States"]}, "categories": [{"id": "4bf58dd8d48988d1ca941735", "name": "Pizza Place", "pluralName": "Pizza Places", "shortName": "Pizza", "icon": {"prefix": "https://ss3.4sqi.net/img/categories_v2/food/pizza_", "suffix": ".png"}, "primary": true}], "photos": {"count": 0, "groups": []}}, "referralId": "e-0-5d56bcea6ac2400008de14d9-21"}, {"reasons": {"count": 0, "items": [{"summary": "This spot is popular", "type": "general", "reasonName": "globalInteractionReason"}]}, "venue": {"id": "591f17e0c9f9074efb17166c", "name": "Za-Ya Ramen", "location": {"address": "545 Court St", "crossStreet": "btwn Hamilton Ave & Garnet St", "lat": 40.67422356225874, "lng": -73.99987668381874, "labeledLatLngs": [{"label": "display", "lat": 40.67422356225874, "lng": -73.99987668381874}], "distance": 460, "postalCode": "11231", "cc": "US", "city": "New York", "state": "NY", "country": "United States", "formattedAddress": ["545 Court St (btwn Hamilton Ave & Garnet St)", "New York, NY 11231", "United States"]}, "categories": [{"id": "55a59bace4b013909087cb24", "name": "Ramen Restaurant", "pluralName": "Ramen Restaurants", "shortName": "Ramen", "icon": {"prefix": "https://ss3.4sqi.net/img/categories_v2/food/ramen_", "suffix": ".png"}, "primary": true}], "photos": {"count": 0, "groups": []}}, "referralId": "e-0-591f17e0c9f9074efb17166c-22"}, {"reasons": {"count": 0, "items": [{"summary": "This spot is popular", "type": "general", "reasonName": "globalInteractionReason"}]}, "venue": {"id": "4b01c3d9f964a5203e4522e3", "name": "Prema Yoga", "location": {"address": "498 Court St", "crossStreet": "btwn Nelson & Luquer St", "lat": 40.676820434702826, "lng": -73.99865162505674, "labeledLatLngs": [{"label": "display", "lat": 40.676820434702826, "lng": -73.99865162505674}], "distance": 479, "postalCode": "11231", "cc": "US", "city": "Brooklyn", "state": "NY", "country": "United States", "formattedAddress": ["498 Court St (btwn Nelson & Luquer St)", "Brooklyn, NY 11231", "United States"]}, "categories": [{"id": "4bf58dd8d48988d102941735", "name": "Yoga Studio", "pluralName": "Yoga Studios", "shortName": "Yoga Studio", "icon": {"prefix": "https://ss3.4sqi.net/img/categories_v2/shops/gym_yogastudio_", "suffix": ".png"}, "primary": true}], "photos": {"count": 0, "groups": []}}, "referralId": "e-0-4b01c3d9f964a5203e4522e3-23"}, {"reasons": {"count": 0, "items": [{"summary": "This spot is popular", "type": "general", "reasonName": "globalInteractionReason"}]}, "venue": {"id": "4c012c1d9a950f4798a508c6", "name": "Black Gold Brooklyn", "location": {"address": "461 Court St", "lat": 40.677310990918016, "lng": -73.99830846112506, "labeledLatLngs": [{"label": "display", "lat": 40.677310990918016, "lng": -73.99830846112506}, {"label": "entrance", "lat": 40.677268, "lng": -73.998205}], "distance": 498, "postalCode": "11231", "cc": "US", "city": "Brooklyn", "state": "NY", "country": "United States", "formattedAddress": ["461 Court St", "Brooklyn, NY 11231", "United States"]}, "categories": [{"id": "4bf58dd8d48988d10d951735", "name": "Record Shop", "pluralName": "Record Shops", "shortName": "Record Shop", "icon": {"prefix": "https://ss3.4sqi.net/img/categories_v2/shops/record_shop_", "suffix": ".png"}, "primary": true}], "photos": {"count": 0, "groups": []}, "venuePage": {"id": "81440579"}}, "referralId": "e-0-4c012c1d9a950f4798a508c6-24"}, {"reasons": {"count": 0, "items": [{"summary": "This spot is popular", "type": "general", "reasonName": "globalInteractionReason"}]}, "venue": {"id": "49c28427f964a520fa551fe3", "name": "Fat Cat Wine", "location": {"address": "538 Court St", "crossStreet": "btwn Huntington & W Ninth St.", "lat": 40.675324102623875, "lng": -73.99929460764679, "labeledLatLngs": [{"label": "display", "lat": 40.675324102623875, "lng": -73.99929460764679}, {"label": "entrance", "lat": 40.675481, "lng": -73.999351}], "distance": 438, "postalCode": "11231", "cc": "US", "city": "Brooklyn", "state": "NY", "country": "United States", "formattedAddress": ["538 Court St (btwn Huntington & W Ninth St.)", "Brooklyn, NY 11231", "United States"]}, "categories": [{"id": "4bf58dd8d48988d119951735", "name": "Wine Shop", "pluralName": "Wine Shops", "shortName": "Wine Shop", "icon": {"prefix": "https://ss3.4sqi.net/img/categories_v2/shops/food_wineshop_", "suffix": ".png"}, "primary": true}], "photos": {"count": 0, "groups": []}, "venuePage": {"id": "80200672"}}, "referralId": "e-0-49c28427f964a520fa551fe3-25"}, {"reasons": {"count": 0, "items": [{"summary": "This spot is popular", "type": "general", "reasonName": "globalInteractionReason"}]}, "venue": {"id": "4c2145649a67a59394b8da87", "name": "Gowanus Ballroom", "location": {"address": "55 9th Street, Building 61", "lat": 40.67406457535923, "lng": -73.99535881703562, "labeledLatLngs": [{"label": "display", "lat": 40.67406457535923, "lng": -73.99535881703562}], "distance": 78, "cc": "US", "city": "Brooklyn", "state": "NY", "country": "United States", "formattedAddress": ["55 9th Street, Building 61", "Brooklyn, NY", "United States"]}, "categories": [{"id": "4bf58dd8d48988d1e2931735", "name": "Art Gallery", "pluralName": "Art Galleries", "shortName": "Art Gallery", "icon": {"prefix": "https://ss3.4sqi.net/img/categories_v2/arts_entertainment/artgallery_", "suffix": ".png"}, "primary": true}], "photos": {"count": 0, "groups": []}}, "referralId": "e-0-4c2145649a67a59394b8da87-26"}, {"reasons": {"count": 0, "items": [{"summary": "This spot is popular", "type": "general", "reasonName": "globalInteractionReason"}]}, "venue": {"id": "49d10b5af964a520545b1fe3", "name": "Bar Tano", "location": {"address": "457 3rd Ave", "crossStreet": "at 9th St", "lat": 40.67136258535797, "lng": -73.99103934276492, "labeledLatLngs": [{"label": "display", "lat": 40.67136258535797, "lng": -73.99103934276492}, {"label": "entrance", "lat": 40.671249, "lng": -73.991036}], "distance": 405, "postalCode": "11215", "cc": "US", "city": "Brooklyn", "state": "NY", "country": "United States", "formattedAddress": ["457 3rd Ave (at 9th St)", "Brooklyn, NY 11215", "United States"]}, "categories": [{"id": "4bf58dd8d48988d110941735", "name": "Italian Restaurant", "pluralName": "Italian Restaurants", "shortName": "Italian", "icon": {"prefix": "https://ss3.4sqi.net/img/categories_v2/food/italian_", "suffix": ".png"}, "primary": true}], "delivery": {"id": "1388701", "url": "https://www.seamless.com/menu/bar-tano-457-3rd-ave-brooklyn/1388701?affiliate=1131&utm_source=foursquare-affiliate-network&utm_medium=affiliate&utm_campaign=1131&utm_content=1388701", "provider": {"name": "seamless", "icon": {"prefix": "https://fastly.4sqi.net/img/general/cap/", "sizes": [40, 50], "name": "/delivery_provider_seamless_20180129.png"}}}, "photos": {"count": 0, "groups": []}, "venuePage": {"id": "83232802"}}, "referralId": "e-0-49d10b5af964a520545b1fe3-27"}, {"reasons": {"count": 0, "items": [{"summary": "This spot is popular", "type": "general", "reasonName": "globalInteractionReason"}]}, "venue": {"id": "4cdeda8941ed224bf29bdb3c", "name": "Framing By Nadia", "location": {"address": "528 Court St", "lat": 40.675758, "lng": -73.999326, "labeledLatLngs": [{"label": "display", "lat": 40.675758, "lng": -73.999326}, {"label": "entrance", "lat": 40.675732, "lng": -73.99923}], "distance": 459, "postalCode": "11231", "cc": "US", "city": "Brooklyn", "state": "NY", "country": "United States", "formattedAddress": ["528 Court St", "Brooklyn, NY 11231", "United States"]}, "categories": [{"id": "4bf58dd8d48988d1f8941735", "name": "Furniture / Home Store", "pluralName": "Furniture / Home Stores", "shortName": "Furniture / Home", "icon": {"prefix": "https://ss3.4sqi.net/img/categories_v2/shops/furniture_", "suffix": ".png"}, "primary": true}], "photos": {"count": 0, "groups": []}}, "referralId": "e-0-4cdeda8941ed224bf29bdb3c-28"}, {"reasons": {"count": 0, "items": [{"summary": "This spot is popular", "type": "general", "reasonName": "globalInteractionReason"}]}, "venue": {"id": "5c034c3ff5e9d7002c2a78b1", "name": "Franks Wine Bar", "location": {"address": "465 Court St", "crossStreet": "Luquer Street", "lat": 40.67718059828416, "lng": -73.9983236384829, "labeledLatLngs": [{"label": "display", "lat": 40.67718059828416, "lng": -73.9983236384829}], "distance": 488, "postalCode": "11231", "cc": "US", "city": "Brooklyn", "state": "NY", "country": "United States", "formattedAddress": ["465 Court St (Luquer Street)", "Brooklyn, NY 11231", "United States"]}, "categories": [{"id": "4bf58dd8d48988d110941735", "name": "Italian Restaurant", "pluralName": "Italian Restaurants", "shortName": "Italian", "icon": {"prefix": "https://ss3.4sqi.net/img/categories_v2/food/italian_", "suffix": ".png"}, "primary": true}], "photos": {"count": 0, "groups": []}}, "referralId": "e-0-5c034c3ff5e9d7002c2a78b1-29"}, {"reasons": {"count": 0, "items": [{"summary": "This spot is popular", "type": "general", "reasonName": "globalInteractionReason"}]}, "venue": {"id": "5ab6635edb1d812e09c3bc11", "name": "Bklyn Habit", "location": {"address": "405 Smith St", "crossStreet": "at 4th St", "lat": 40.67808968531469, "lng": -73.99609214717839, "labeledLatLngs": [{"label": "display", "lat": 40.67808968531469, "lng": -73.99609214717839}], "distance": 483, "postalCode": "11231", "cc": "US", "city": "New York", "state": "NY", "country": "United States", "formattedAddress": ["405 Smith St (at 4th St)", "New York, NY 11231", "United States"]}, "categories": [{"id": "4bf58dd8d48988d1e0931735", "name": "Coffee Shop", "pluralName": "Coffee Shops", "shortName": "Coffee Shop", "icon": {"prefix": "https://ss3.4sqi.net/img/categories_v2/food/coffeeshop_", "suffix": ".png"}, "primary": true}], "photos": {"count": 0, "groups": []}}, "referralId": "e-0-5ab6635edb1d812e09c3bc11-30"}, {"reasons": {"count": 0, "items": [{"summary": "This spot is popular", "type": "general", "reasonName": "globalInteractionReason"}]}, "venue": {"id": "4b9e48b9f964a5203fd736e3", "name": "Line Bagels", "location": {"address": "476 Smith St", "crossStreet": "9th", "lat": 40.67467189685598, "lng": -73.99772045930038, "labeledLatLngs": [{"label": "display", "lat": 40.67467189685598, "lng": -73.99772045930038}, {"label": "entrance", "lat": 40.674876, "lng": -73.997819}], "distance": 288, "postalCode": "11231", "cc": "US", "city": "Brooklyn", "state": "NY", "country": "United States", "formattedAddress": ["476 Smith St (9th)", "Brooklyn, NY 11231", "United States"]}, "categories": [{"id": "4bf58dd8d48988d179941735", "name": "Bagel Shop", "pluralName": "Bagel Shops", "shortName": "Bagels", "icon": {"prefix": "https://ss3.4sqi.net/img/categories_v2/food/bagels_", "suffix": ".png"}, "primary": true}], "delivery": {"id": "446808", "url": "https://www.seamless.com/menu/line-bagels---bk-11231-476-smith-st-brooklyn/446808?affiliate=1131&utm_source=foursquare-affiliate-network&utm_medium=affiliate&utm_campaign=1131&utm_content=446808", "provider": {"name": "seamless", "icon": {"prefix": "https://fastly.4sqi.net/img/general/cap/", "sizes": [40, 50], "name": "/delivery_provider_seamless_20180129.png"}}}, "photos": {"count": 0, "groups": []}}, "referralId": "e-0-4b9e48b9f964a5203fd736e3-31"}, {"reasons": {"count": 0, "items": [{"summary": "This spot is popular", "type": "general", "reasonName": "globalInteractionReason"}]}, "venue": {"id": "52a93a2711d23c836a9cd926", "name": "The Roof", "location": {"address": "214 3rd Street", "crossStreet": "at 3rd Ave", "lat": 40.67479556589227, "lng": -73.98913632404678, "labeledLatLngs": [{"label": "display", "lat": 40.67479556589227, "lng": -73.98913632404678}], "distance": 458, "postalCode": "11215", "cc": "US", "city": "Brooklyn", "state": "NY", "country": "United States", "formattedAddress": ["214 3rd Street (at 3rd Ave)", "Brooklyn, NY 11215", "United States"]}, "categories": [{"id": "4bf58dd8d48988d116941735", "name": "Bar", "pluralName": "Bars", "shortName": "Bar", "icon": {"prefix": "https://ss3.4sqi.net/img/categories_v2/nightlife/pub_", "suffix": ".png"}, "primary": true}], "photos": {"count": 0, "groups": []}}, "referralId": "e-0-52a93a2711d23c836a9cd926-32"}, {"reasons": {"count": 0, "items": [{"summary": "This spot is popular", "type": "general", "reasonName": "globalInteractionReason"}]}, "venue": {"id": "5865b3b5375c4a72ef33f73f", "name": "Water Shed", "location": {"address": "517 Court St", "crossStreet": "W 9th", "lat": 40.6751440142129, "lng": -73.99931077983175, "labeledLatLngs": [{"label": "display", "lat": 40.6751440142129, "lng": -73.99931077983175}, {"label": "entrance", "lat": 40.675072, "lng": -73.999271}], "distance": 432, "postalCode": "11231", "cc": "US", "city": "Brooklyn", "state": "NY", "country": "United States", "formattedAddress": ["517 Court St (W 9th)", "Brooklyn, NY 11231", "United States"]}, "categories": [{"id": "4bf58dd8d48988d116941735", "name": "Bar", "pluralName": "Bars", "shortName": "Bar", "icon": {"prefix": "https://ss3.4sqi.net/img/categories_v2/nightlife/pub_", "suffix": ".png"}, "primary": true}], "photos": {"count": 0, "groups": []}}, "referralId": "e-0-5865b3b5375c4a72ef33f73f-33"}, {"reasons": {"count": 0, "items": [{"summary": "This spot is popular", "type": "general", "reasonName": "globalInteractionReason"}]}, "venue": {"id": "56f761d1498ef7a12c6f8360", "name": "Analog BKNY", "location": {"address": "177 2nd Ave", "lat": 40.66966792713886, "lng": -73.99584025510393, "labeledLatLngs": [{"label": "display", "lat": 40.66966792713886, "lng": -73.99584025510393}, {"label": "entrance", "lat": 40.669679, "lng": -73.99565}], "distance": 489, "cc": "US", "city": "Brooklyn", "state": "NY", "country": "United States", "formattedAddress": ["177 2nd Ave", "Brooklyn, NY", "United States"]}, "categories": [{"id": "4bf58dd8d48988d11f941735", "name": "Nightclub", "pluralName": "Nightclubs", "shortName": "Nightclub", "icon": {"prefix": "https://ss3.4sqi.net/img/categories_v2/nightlife/nightclub_", "suffix": ".png"}, "primary": true}], "photos": {"count": 0, "groups": []}}, "referralId": "e-0-56f761d1498ef7a12c6f8360-34"}, {"reasons": {"count": 0, "items": [{"summary": "This spot is popular", "type": "general", "reasonName": "globalInteractionReason"}]}, "venue": {"id": "4c157075a1010f4720174e18", "name": "St. Mary's Playground", "location": {"address": "Smith Street", "crossStreet": "Nelson Street", "lat": 40.67581101889814, "lng": -73.99745919980272, "labeledLatLngs": [{"label": "display", "lat": 40.67581101889814, "lng": -73.99745919980272}], "distance": 329, "postalCode": "11231", "cc": "US", "city": "Brooklyn", "state": "NY", "country": "United States", "formattedAddress": ["Smith Street (Nelson Street)", "Brooklyn, NY 11231", "United States"]}, "categories": [{"id": "4bf58dd8d48988d1e7941735", "name": "Playground", "pluralName": "Playgrounds", "shortName": "Playground", "icon": {"prefix": "https://ss3.4sqi.net/img/categories_v2/parks_outdoors/playground_", "suffix": ".png"}, "primary": true}], "photos": {"count": 0, "groups": []}}, "referralId": "e-0-4c157075a1010f4720174e18-35"}, {"reasons": {"count": 0, "items": [{"summary": "This spot is popular", "type": "general", "reasonName": "globalInteractionReason"}]}, "venue": {"id": "49f2403cf964a520146a1fe3", "name": "Le Petit Cafe", "location": {"address": "502 Court St", "crossStreet": "Nelson St", "lat": 40.67675795434453, "lng": -73.99883109007006, "labeledLatLngs": [{"label": "display", "lat": 40.67675795434453, "lng": -73.99883109007006}, {"label": "entrance", "lat": 40.676717, "lng": -73.998769}], "distance": 486, "postalCode": "11231", "cc": "US", "neighborhood": "Carroll Gardens", "city": "Brooklyn", "state": "NY", "country": "United States", "formattedAddress": ["502 Court St (Nelson St)", "Brooklyn, NY 11231", "United States"]}, "categories": [{"id": "4bf58dd8d48988d143941735", "name": "Breakfast Spot", "pluralName": "Breakfast Spots", "shortName": "Breakfast", "icon": {"prefix": "https://ss3.4sqi.net/img/categories_v2/food/breakfast_", "suffix": ".png"}, "primary": true}], "delivery": {"id": "2031616", "url": "https://www.seamless.com/menu/le-petit-cafe-502-court-street-brooklyn/2031616?affiliate=1131&utm_source=foursquare-affiliate-network&utm_medium=affiliate&utm_campaign=1131&utm_content=2031616", "provider": {"name": "seamless", "icon": {"prefix": "https://fastly.4sqi.net/img/general/cap/", "sizes": [40, 50], "name": "/delivery_provider_seamless_20180129.png"}}}, "photos": {"count": 0, "groups": []}, "venuePage": {"id": "98266929"}}, "referralId": "e-0-49f2403cf964a520146a1fe3-36"}, {"reasons": {"count": 0, "items": [{"summary": "This spot is popular", "type": "general", "reasonName": "globalInteractionReason"}]}, "venue": {"id": "547a4309498eaea3bed1e5fc", "name": "Travel Bar", "location": {"address": "520 Court St", "lat": 40.67606465179206, "lng": -73.9989999506794, "labeledLatLngs": [{"label": "display", "lat": 40.67606465179206, "lng": -73.9989999506794}, {"label": "entrance", "lat": 40.676123, "lng": -73.999045}], "distance": 452, "postalCode": "11231", "cc": "US", "city": "Brooklyn", "state": "NY", "country": "United States", "formattedAddress": ["520 Court St", "Brooklyn, NY 11231", "United States"]}, "categories": [{"id": "4bf58dd8d48988d116941735", "name": "Bar", "pluralName": "Bars", "shortName": "Bar", "icon": {"prefix": "https://ss3.4sqi.net/img/categories_v2/nightlife/pub_", "suffix": ".png"}, "primary": true}], "photos": {"count": 0, "groups": []}, "venuePage": {"id": "106553919"}}, "referralId": "e-0-547a4309498eaea3bed1e5fc-37"}, {"reasons": {"count": 0, "items": [{"summary": "This spot is popular", "type": "general", "reasonName": "globalInteractionReason"}]}, "venue": {"id": "5734e0d138fa1621cb8bb512", "name": "Bison & Bourbon", "location": {"address": "191 7th St", "crossStreet": "2nd and 3rd Avenue", "lat": 40.6731325792418, "lng": -73.99056063833396, "labeledLatLngs": [{"label": "display", "lat": 40.6731325792418, "lng": -73.99056063833396}, {"label": "entrance", "lat": 40.673168, "lng": -73.990556}], "distance": 339, "postalCode": "11215", "cc": "US", "city": "Brooklyn", "state": "NY", "country": "United States", "formattedAddress": ["191 7th St (2nd and 3rd Avenue)", "Brooklyn, NY 11215", "United States"]}, "categories": [{"id": "4bf58dd8d48988d1cc941735", "name": "Steakhouse", "pluralName": "Steakhouses", "shortName": "Steakhouse", "icon": {"prefix": "https://ss3.4sqi.net/img/categories_v2/food/steakhouse_", "suffix": ".png"}, "primary": true}], "photos": {"count": 0, "groups": []}}, "referralId": "e-0-5734e0d138fa1621cb8bb512-38"}, {"reasons": {"count": 0, "items": [{"summary": "This spot is popular", "type": "general", "reasonName": "globalInteractionReason"}]}, "venue": {"id": "4a89b19cf964a520bc0820e3", "name": "The Mac Support Store", "location": {"address": "168 7th St", "crossStreet": "Btwn 3rd and 2nd Ave", "lat": 40.672881, "lng": -73.991197, "labeledLatLngs": [{"label": "display", "lat": 40.672881, "lng": -73.991197}, {"label": "entrance", "lat": 40.673045, "lng": -73.990998}], "distance": 297, "postalCode": "11215", "cc": "US", "city": "Brooklyn", "state": "NY", "country": "United States", "formattedAddress": ["168 7th St (Btwn 3rd and 2nd Ave)", "Brooklyn, NY 11215", "United States"]}, "categories": [{"id": "52f2ab2ebcbc57f1066b8b2f", "name": "Other Repair Shop", "pluralName": "Other Repair Shops", "shortName": "Other Repair", "icon": {"prefix": "https://ss3.4sqi.net/img/categories_v2/shops/default_", "suffix": ".png"}, "primary": true}], "photos": {"count": 0, "groups": []}, "venuePage": {"id": "81131191"}}, "referralId": "e-0-4a89b19cf964a520bc0820e3-39"}, {"reasons": {"count": 0, "items": [{"summary": "This spot is popular", "type": "general", "reasonName": "globalInteractionReason"}]}, "venue": {"id": "500f4976011c45bfb43c5e3f", "name": "Kumo Sushi II", "location": {"address": "512 Court St", "crossStreet": "btwn Nelson & Huntington", "lat": 40.6763148986937, "lng": -73.99884566971876, "labeledLatLngs": [{"label": "display", "lat": 40.6763148986937, "lng": -73.99884566971876}], "distance": 456, "postalCode": "11231", "cc": "US", "city": "Brooklyn", "state": "NY", "country": "United States", "formattedAddress": ["512 Court St (btwn Nelson & Huntington)", "Brooklyn, NY 11231", "United States"]}, "categories": [{"id": "4bf58dd8d48988d1d2941735", "name": "Sushi Restaurant", "pluralName": "Sushi Restaurants", "shortName": "Sushi", "icon": {"prefix": "https://ss3.4sqi.net/img/categories_v2/food/sushi_", "suffix": ".png"}, "primary": true}], "delivery": {"id": "1012833", "url": "https://www.seamless.com/menu/kumo-ii-sushi-512-court-st-brooklyn/1012833?affiliate=1131&utm_source=foursquare-affiliate-network&utm_medium=affiliate&utm_campaign=1131&utm_content=1012833", "provider": {"name": "seamless", "icon": {"prefix": "https://fastly.4sqi.net/img/general/cap/", "sizes": [40, 50], "name": "/delivery_provider_seamless_20180129.png"}}}, "photos": {"count": 0, "groups": []}, "venuePage": {"id": "129944704"}}, "referralId": "e-0-500f4976011c45bfb43c5e3f-40"}, {"reasons": {"count": 0, "items": [{"summary": "This spot is popular", "type": "general", "reasonName": "globalInteractionReason"}]}, "venue": {"id": "582390b37b454a0e884dee4e", "name": "Take A Break & I\u2019ll Bake Cafe & Creperie", "location": {"address": "489 Court St", "lat": 40.6762605721118, "lng": -73.99875640869139, "labeledLatLngs": [{"label": "display", "lat": 40.6762605721118, "lng": -73.99875640869139}], "distance": 447, "postalCode": "11231", "cc": "US", "city": "Brooklyn", "state": "NY", "country": "United States", "formattedAddress": ["489 Court St", "Brooklyn, NY 11231", "United States"]}, "categories": [{"id": "4bf58dd8d48988d16d941735", "name": "Caf\u00e9", "pluralName": "Caf\u00e9s", "shortName": "Caf\u00e9", "icon": {"prefix": "https://ss3.4sqi.net/img/categories_v2/food/cafe_", "suffix": ".png"}, "primary": true}], "photos": {"count": 0, "groups": []}, "venuePage": {"id": "496310469"}}, "referralId": "e-0-582390b37b454a0e884dee4e-41"}, {"reasons": {"count": 0, "items": [{"summary": "This spot is popular", "type": "general", "reasonName": "globalInteractionReason"}]}, "venue": {"id": "4b533aaaf964a5202a9327e3", "name": "Brooklyn Dance Project", "location": {"address": "157 11th St", "lat": 40.67034221328753, "lng": -73.9919673153322, "labeledLatLngs": [{"label": "display", "lat": 40.67034221328753, "lng": -73.9919673153322}, {"label": "entrance", "lat": 40.670521, "lng": -73.992368}], "distance": 450, "postalCode": "11215", "cc": "US", "city": "Brooklyn", "state": "NY", "country": "United States", "formattedAddress": ["157 11th St", "Brooklyn, NY 11215", "United States"]}, "categories": [{"id": "4bf58dd8d48988d134941735", "name": "Dance Studio", "pluralName": "Dance Studios", "shortName": "Dance Studio", "icon": {"prefix": "https://ss3.4sqi.net/img/categories_v2/arts_entertainment/performingarts_dancestudio_", "suffix": ".png"}, "primary": true}], "photos": {"count": 0, "groups": []}}, "referralId": "e-0-4b533aaaf964a5202a9327e3-42"}, {"reasons": {"count": 0, "items": [{"summary": "This spot is popular", "type": "general", "reasonName": "globalInteractionReason"}]}, "venue": {"id": "4a2a7215f964a52011961fe3", "name": "Enterprise Rent-A-Car", "location": {"address": "453 3rd Ave", "lat": 40.67157401911997, "lng": -73.99046596886365, "labeledLatLngs": [{"label": "display", "lat": 40.67157401911997, "lng": -73.99046596886365}, {"label": "entrance", "lat": 40.671611, "lng": -73.990537}], "distance": 425, "postalCode": "11215", "cc": "US", "city": "Brooklyn", "state": "NY", "country": "United States", "formattedAddress": ["453 3rd Ave", "Brooklyn, NY 11215", "United States"]}, "categories": [{"id": "4bf58dd8d48988d1ef941735", "name": "Rental Car Location", "pluralName": "Rental Car Locations", "shortName": "Rental Car", "icon": {"prefix": "https://ss3.4sqi.net/img/categories_v2/shops/airport_rentalcar_", "suffix": ".png"}, "primary": true}], "photos": {"count": 0, "groups": []}}, "referralId": "e-0-4a2a7215f964a52011961fe3-43"}, {"reasons": {"count": 0, "items": [{"summary": "This spot is popular", "type": "general", "reasonName": "globalInteractionReason"}]}, "venue": {"id": "503381f4e4b0a71825a43c84", "name": "Fletcher's Brooklyn Barbecue", "location": {"address": "433 3rd Ave", "crossStreet": "btwn 7th & 8th Sts", "lat": 40.67226301707202, "lng": -73.99034767726954, "labeledLatLngs": [{"label": "display", "lat": 40.67226301707202, "lng": -73.99034767726954}], "distance": 392, "postalCode": "11215", "cc": "US", "city": "Brooklyn", "state": "NY", "country": "United States", "formattedAddress": ["433 3rd Ave (btwn 7th & 8th Sts)", "Brooklyn, NY 11215", "United States"]}, "categories": [{"id": "4bf58dd8d48988d1df931735", "name": "BBQ Joint", "pluralName": "BBQ Joints", "shortName": "BBQ", "icon": {"prefix": "https://ss3.4sqi.net/img/categories_v2/food/bbqalt_", "suffix": ".png"}, "primary": true}], "delivery": {"id": "287048", "url": "https://www.seamless.com/menu/fletchers-brooklyn-barbecue-433-3rd-ave-brooklyn/287048?affiliate=1131&utm_source=foursquare-affiliate-network&utm_medium=affiliate&utm_campaign=1131&utm_content=287048", "provider": {"name": "seamless", "icon": {"prefix": "https://fastly.4sqi.net/img/general/cap/", "sizes": [40, 50], "name": "/delivery_provider_seamless_20180129.png"}}}, "photos": {"count": 0, "groups": []}, "venuePage": {"id": "67214904"}}, "referralId": "e-0-503381f4e4b0a71825a43c84-44"}, {"reasons": {"count": 0, "items": [{"summary": "This spot is popular", "type": "general", "reasonName": "globalInteractionReason"}]}, "venue": {"id": "4cec578fd7268cfa1b7fbc4e", "name": "Baskin-Robbins", "location": {"address": "137 12th St", "lat": 40.672071887201824, "lng": -73.99684812479607, "labeledLatLngs": [{"label": "display", "lat": 40.672071887201824, "lng": -73.99684812479607}], "distance": 290, "postalCode": "11215", "cc": "US", "city": "Brooklyn", "state": "NY", "country": "United States", "formattedAddress": ["137 12th St", "Brooklyn, NY 11215", "United States"]}, "categories": [{"id": "4bf58dd8d48988d1c9941735", "name": "Ice Cream Shop", "pluralName": "Ice Cream Shops", "shortName": "Ice Cream", "icon": {"prefix": "https://ss3.4sqi.net/img/categories_v2/food/icecream_", "suffix": ".png"}, "primary": true}], "photos": {"count": 0, "groups": []}}, "referralId": "e-0-4cec578fd7268cfa1b7fbc4e-45"}, {"reasons": {"count": 0, "items": [{"summary": "This spot is popular", "type": "general", "reasonName": "globalInteractionReason"}]}, "venue": {"id": "4c60a7cede6920a15f9d9664", "name": "Michael and Ping's", "location": {"address": "437 3rd Ave", "crossStreet": "btwn 7th & 8th St.", "lat": 40.67216239483681, "lng": -73.99037941409061, "labeledLatLngs": [{"label": "display", "lat": 40.67216239483681, "lng": -73.99037941409061}, {"label": "entrance", "lat": 40.67216, "lng": -73.990273}], "distance": 395, "postalCode": "11215", "cc": "US", "city": "Brooklyn", "state": "NY", "country": "United States", "formattedAddress": ["437 3rd Ave (btwn 7th & 8th St.)", "Brooklyn, NY 11215", "United States"]}, "categories": [{"id": "4bf58dd8d48988d145941735", "name": "Chinese Restaurant", "pluralName": "Chinese Restaurants", "shortName": "Chinese", "icon": {"prefix": "https://ss3.4sqi.net/img/categories_v2/food/asian_", "suffix": ".png"}, "primary": true}], "photos": {"count": 0, "groups": []}, "venuePage": {"id": "56151843"}}, "referralId": "e-0-4c60a7cede6920a15f9d9664-46"}, {"reasons": {"count": 0, "items": [{"summary": "This spot is popular", "type": "general", "reasonName": "globalInteractionReason"}]}, "venue": {"id": "56443138498ef54a0d940e69", "name": "Retro Fitness", "location": {"address": "25 12th St Ste 3", "lat": 40.6717649, "lng": -73.9966734, "labeledLatLngs": [{"label": "display", "lat": 40.6717649, "lng": -73.9966734}, {"label": "entrance", "lat": 40.671948, "lng": -73.997053}], "distance": 306, "postalCode": "11215", "cc": "US", "city": "Brooklyn", "state": "NY", "country": "United States", "formattedAddress": ["25 12th St Ste 3", "Brooklyn, NY 11215", "United States"]}, "categories": [{"id": "4bf58dd8d48988d175941735", "name": "Gym / Fitness Center", "pluralName": "Gyms or Fitness Centers", "shortName": "Gym / Fitness", "icon": {"prefix": "https://ss3.4sqi.net/img/categories_v2/building/gym_", "suffix": ".png"}, "primary": true}], "photos": {"count": 0, "groups": []}}, "referralId": "e-0-56443138498ef54a0d940e69-47"}, {"reasons": {"count": 0, "items": [{"summary": "This spot is popular", "type": "general", "reasonName": "globalInteractionReason"}]}, "venue": {"id": "53e8d7f7498e6074234e8e33", "name": "Aperture Restaurant", "location": {"address": "552 Court St", "crossStreet": "W 9th Street", "lat": 40.67497422943018, "lng": -73.99956636391882, "labeledLatLngs": [{"label": "display", "lat": 40.67497422943018, "lng": -73.99956636391882}, {"label": "entrance", "lat": 40.674986, "lng": -73.999589}], "distance": 448, "postalCode": "11231", "cc": "US", "city": "Brooklyn", "state": "NY", "country": "United States", "formattedAddress": ["552 Court St (W 9th Street)", "Brooklyn, NY 11231", "United States"]}, "categories": [{"id": "4bf58dd8d48988d110941735", "name": "Italian Restaurant", "pluralName": "Italian Restaurants", "shortName": "Italian", "icon": {"prefix": "https://ss3.4sqi.net/img/categories_v2/food/italian_", "suffix": ".png"}, "primary": true}], "photos": {"count": 0, "groups": []}, "venuePage": {"id": "93981509"}}, "referralId": "e-0-53e8d7f7498e6074234e8e33-48"}, {"reasons": {"count": 0, "items": [{"summary": "This spot is popular", "type": "general", "reasonName": "globalInteractionReason"}]}, "venue": {"id": "4e838cfab8f7e9f997a40c57", "name": "Powerplay", "location": {"address": "432 3rd Ave", "lat": 40.67244903996017, "lng": -73.99024485872656, "labeledLatLngs": [{"label": "display", "lat": 40.67244903996017, "lng": -73.99024485872656}], "distance": 390, "postalCode": "11215", "cc": "US", "city": "Brooklyn", "state": "NY", "country": "United States", "formattedAddress": ["432 3rd Ave", "Brooklyn, NY 11215", "United States"]}, "categories": [{"id": "4bf58dd8d48988d175941735", "name": "Gym / Fitness Center", "pluralName": "Gyms or Fitness Centers", "shortName": "Gym / Fitness", "icon": {"prefix": "https://ss3.4sqi.net/img/categories_v2/building/gym_", "suffix": ".png"}, "primary": true}], "photos": {"count": 0, "groups": []}}, "referralId": "e-0-4e838cfab8f7e9f997a40c57-49"}, {"reasons": {"count": 0, "items": [{"summary": "This spot is popular", "type": "general", "reasonName": "globalInteractionReason"}]}, "venue": {"id": "4ad279faf964a520d6e120e3", "name": "Las Americas Deli Grocery", "location": {"address": "506 Court St", "lat": 40.676406001765784, "lng": -73.99876237716191, "labeledLatLngs": [{"label": "display", "lat": 40.676406001765784, "lng": -73.99876237716191}, {"label": "entrance", "lat": 40.676615, "lng": -73.99882}], "distance": 457, "postalCode": "11231", "cc": "US", "city": "Brooklyn", "state": "NY", "country": "United States", "formattedAddress": ["506 Court St", "Brooklyn, NY 11231", "United States"]}, "categories": [{"id": "4bf58dd8d48988d146941735", "name": "Deli / Bodega", "pluralName": "Delis / Bodegas", "shortName": "Deli / Bodega", "icon": {"prefix": "https://ss3.4sqi.net/img/categories_v2/food/deli_", "suffix": ".png"}, "primary": true}], "photos": {"count": 0, "groups": []}}, "referralId": "e-0-4ad279faf964a520d6e120e3-50"}, {"reasons": {"count": 0, "items": [{"summary": "This spot is popular", "type": "general", "reasonName": "globalInteractionReason"}]}, "venue": {"id": "4cf087e66195721e81453cc1", "name": "Dunkin'", "location": {"address": "137 12th St", "lat": 40.67186990812208, "lng": -73.9969143592886, "labeledLatLngs": [{"label": "display", "lat": 40.67186990812208, "lng": -73.9969143592886}], "distance": 310, "postalCode": "11215", "cc": "US", "city": "Brooklyn", "state": "NY", "country": "United States", "formattedAddress": ["137 12th St", "Brooklyn, NY 11215", "United States"]}, "categories": [{"id": "4bf58dd8d48988d148941735", "name": "Donut Shop", "pluralName": "Donut Shops", "shortName": "Donuts", "icon": {"prefix": "https://ss3.4sqi.net/img/categories_v2/food/donuts_", "suffix": ".png"}, "primary": true}], "photos": {"count": 0, "groups": []}}, "referralId": "e-0-4cf087e66195721e81453cc1-51"}, {"reasons": {"count": 0, "items": [{"summary": "This spot is popular", "type": "general", "reasonName": "globalInteractionReason"}]}, "venue": {"id": "4a99998ff964a520582f20e3", "name": "FIND Home Furnishings", "location": {"address": "43C 9th St", "crossStreet": "btwn 2nd Ave & Smith St", "lat": 40.67392712755854, "lng": -73.99576545931211, "labeledLatLngs": [{"label": "display", "lat": 40.67392712755854, "lng": -73.99576545931211}], "distance": 111, "postalCode": "11215", "cc": "US", "city": "Brooklyn", "state": "NY", "country": "United States", "formattedAddress": ["43C 9th St (btwn 2nd Ave & Smith St)", "Brooklyn, NY 11215", "United States"]}, "categories": [{"id": "4bf58dd8d48988d1f8941735", "name": "Furniture / Home Store", "pluralName": "Furniture / Home Stores", "shortName": "Furniture / Home", "icon": {"prefix": "https://ss3.4sqi.net/img/categories_v2/shops/furniture_", "suffix": ".png"}, "primary": true}], "photos": {"count": 0, "groups": []}}, "referralId": "e-0-4a99998ff964a520582f20e3-52"}, {"reasons": {"count": 0, "items": [{"summary": "This spot is popular", "type": "general", "reasonName": "globalInteractionReason"}]}, "venue": {"id": "4a52389ef964a52069b11fe3", "name": "Lowe's", "location": {"address": "118 2nd Avenue", "crossStreet": "at 10th St", "lat": 40.6717774, "lng": -73.9951671, "labeledLatLngs": [{"label": "display", "lat": 40.6717774, "lng": -73.9951671}], "distance": 247, "postalCode": "11215", "cc": "US", "city": "Brooklyn", "state": "NY", "country": "United States", "formattedAddress": ["118 2nd Avenue (at 10th St)", "Brooklyn, NY 11215", "United States"]}, "categories": [{"id": "4bf58dd8d48988d112951735", "name": "Hardware Store", "pluralName": "Hardware Stores", "shortName": "Hardware", "icon": {"prefix": "https://ss3.4sqi.net/img/categories_v2/shops/hardware_", "suffix": ".png"}, "primary": true}], "photos": {"count": 0, "groups": []}}, "referralId": "e-0-4a52389ef964a52069b11fe3-53"}, {"reasons": {"count": 0, "items": [{"summary": "This spot is popular", "type": "general", "reasonName": "globalInteractionReason"}]}, "venue": {"id": "4e572493b0fbc75800b47c24", "name": "Art Studio 75 10th St", "location": {"address": "75 10th St", "crossStreet": "Next to lowes", "lat": 40.672627, "lng": -73.9949887666545, "labeledLatLngs": [{"label": "display", "lat": 40.672627, "lng": -73.9949887666545}], "distance": 152, "postalCode": "11215", "cc": "US", "city": "Brooklyn", "state": "NY", "country": "United States", "formattedAddress": ["75 10th St (Next to lowes)", "Brooklyn, NY 11215", "United States"]}, "categories": [{"id": "4bf58dd8d48988d1e2931735", "name": "Art Gallery", "pluralName": "Art Galleries", "shortName": "Art Gallery", "icon": {"prefix": "https://ss3.4sqi.net/img/categories_v2/arts_entertainment/artgallery_", "suffix": ".png"}, "primary": true}], "photos": {"count": 0, "groups": []}}, "referralId": "e-0-4e572493b0fbc75800b47c24-54"}, {"reasons": {"count": 0, "items": [{"summary": "This spot is popular", "type": "general", "reasonName": "globalInteractionReason"}]}, "venue": {"id": "4b96bde1f964a5209de134e3", "name": "Wing Hua", "location": {"address": "508 Court St", "crossStreet": "at Nelson St.", "lat": 40.67640604703912, "lng": -73.9987493733775, "labeledLatLngs": [{"label": "display", "lat": 40.67640604703912, "lng": -73.9987493733775}, {"label": "entrance", "lat": 40.676432, "lng": -73.998892}], "distance": 456, "postalCode": "11231", "cc": "US", "city": "Brooklyn", "state": "NY", "country": "United States", "formattedAddress": ["508 Court St (at Nelson St.)", "Brooklyn, NY 11231", "United States"]}, "categories": [{"id": "4bf58dd8d48988d145941735", "name": "Chinese Restaurant", "pluralName": "Chinese Restaurants", "shortName": "Chinese", "icon": {"prefix": "https://ss3.4sqi.net/img/categories_v2/food/asian_", "suffix": ".png"}, "primary": true}], "photos": {"count": 0, "groups": []}}, "referralId": "e-0-4b96bde1f964a5209de134e3-55"}, {"reasons": {"count": 0, "items": [{"summary": "This spot is popular", "type": "general", "reasonName": "globalInteractionReason"}]}, "venue": {"id": "4d3781c8f1b06ea832a60d55", "name": "Secret Science Club", "location": {"address": "149 7th St", "lat": 40.67375668620161, "lng": -73.99170582722886, "labeledLatLngs": [{"label": "display", "lat": 40.67375668620161, "lng": -73.99170582722886}], "distance": 231, "postalCode": "11215", "cc": "US", "city": "Brooklyn", "state": "NY", "country": "United States", "formattedAddress": ["149 7th St", "Brooklyn, NY 11215", "United States"]}, "categories": [{"id": "4bf58dd8d48988d1f1931735", "name": "General Entertainment", "pluralName": "General Entertainment", "shortName": "Entertainment", "icon": {"prefix": "https://ss3.4sqi.net/img/categories_v2/arts_entertainment/default_", "suffix": ".png"}, "primary": true}], "photos": {"count": 0, "groups": []}}, "referralId": "e-0-4d3781c8f1b06ea832a60d55-56"}, {"reasons": {"count": 0, "items": [{"summary": "This spot is popular", "type": "general", "reasonName": "globalInteractionReason"}]}, "venue": {"id": "517bec2c498ef2a2f82950b4", "name": "grill zone food truck @ Lowe's", "location": {"lat": 40.67212199420248, "lng": -73.9959356642583, "labeledLatLngs": [{"label": "display", "lat": 40.67212199420248, "lng": -73.9959356642583}], "distance": 237, "cc": "US", "city": "Brooklyn", "state": "NY", "country": "United States", "formattedAddress": ["Brooklyn, NY", "United States"]}, "categories": [{"id": "4bf58dd8d48988d1cb941735", "name": "Food Truck", "pluralName": "Food Trucks", "shortName": "Food Truck", "icon": {"prefix": "https://ss3.4sqi.net/img/categories_v2/food/streetfood_", "suffix": ".png"}, "primary": true}], "photos": {"count": 0, "groups": []}}, "referralId": "e-0-517bec2c498ef2a2f82950b4-57"}, {"reasons": {"count": 0, "items": [{"summary": "This spot is popular", "type": "general", "reasonName": "globalInteractionReason"}]}, "venue": {"id": "47b723cef964a520b24d1fe3", "name": "Gowanus Studio Space", "location": {"address": "166 7th St", "crossStreet": "2nd and 3rd Ave", "lat": 40.67321855686046, "lng": -73.99136115838274, "labeledLatLngs": [{"label": "display", "lat": 40.67321855686046, "lng": -73.99136115838274}], "distance": 271, "postalCode": "11215", "cc": "US", "city": "Brooklyn", "state": "NY", "country": "United States", "formattedAddress": ["166 7th St (2nd and 3rd Ave)", "Brooklyn, NY 11215", "United States"]}, "categories": [{"id": "4bf58dd8d48988d174941735", "name": "Coworking Space", "pluralName": "Coworking Spaces", "shortName": "Coworking Space", "icon": {"prefix": "https://ss3.4sqi.net/img/categories_v2/building/office_coworkingspace_", "suffix": ".png"}, "primary": true}], "photos": {"count": 0, "groups": []}}, "referralId": "e-0-47b723cef964a520b24d1fe3-58"}, {"reasons": {"count": 0, "items": [{"summary": "This spot is popular", "type": "general", "reasonName": "globalInteractionReason"}]}, "venue": {"id": "4c648056f67ec928bb285527", "name": "BP", "location": {"address": "327 Hamilton Ave", "lat": 40.67478812092183, "lng": -73.99999137899817, "labeledLatLngs": [{"label": "display", "lat": 40.67478812092183, "lng": -73.99999137899817}], "distance": 478, "postalCode": "11231", "cc": "US", "city": "Brooklyn", "state": "NY", "country": "United States", "formattedAddress": ["327 Hamilton Ave", "Brooklyn, NY 11231", "United States"]}, "categories": [{"id": "4bf58dd8d48988d113951735", "name": "Gas Station", "pluralName": "Gas Stations", "shortName": "Gas Station", "icon": {"prefix": "https://ss3.4sqi.net/img/categories_v2/shops/gas_", "suffix": ".png"}, "primary": true}], "photos": {"count": 0, "groups": []}}, "referralId": "e-0-4c648056f67ec928bb285527-59"}, {"reasons": {"count": 0, "items": [{"summary": "This spot is popular", "type": "general", "reasonName": "globalInteractionReason"}]}, "venue": {"id": "4ba06696f964a5202b6c37e3", "name": "Captain Quinn's Boot Camp", "location": {"address": "3rd Street", "crossStreet": "Fourth Avenue", "lat": 40.672396630117674, "lng": -73.99124118699014, "labeledLatLngs": [{"label": "display", "lat": 40.672396630117674, "lng": -73.99124118699014}], "distance": 319, "postalCode": "11215", "cc": "US", "city": "Brooklyn", "state": "NY", "country": "United States", "formattedAddress": ["3rd Street (Fourth Avenue)", "Brooklyn, NY 11215", "United States"]}, "categories": [{"id": "4bf58dd8d48988d175941735", "name": "Gym / Fitness Center", "pluralName": "Gyms or Fitness Centers", "shortName": "Gym / Fitness", "icon": {"prefix": "https://ss3.4sqi.net/img/categories_v2/building/gym_", "suffix": ".png"}, "primary": true}], "photos": {"count": 0, "groups": []}}, "referralId": "e-0-4ba06696f964a5202b6c37e3-60"}, {"reasons": {"count": 0, "items": [{"summary": "This spot is popular", "type": "general", "reasonName": "globalInteractionReason"}]}, "venue": {"id": "4bed723d75feef3b950597e6", "name": "Lumber Liquidators, Inc.", "location": {"address": "64 12th St", "lat": 40.67102632151093, "lng": -73.9956757337469, "labeledLatLngs": [{"label": "display", "lat": 40.67102632151093, "lng": -73.9956757337469}, {"label": "entrance", "lat": 40.671015, "lng": -73.995565}], "distance": 339, "postalCode": "11215", "cc": "US", "city": "Brooklyn", "state": "NY", "country": "United States", "formattedAddress": ["64 12th St", "Brooklyn, NY 11215", "United States"]}, "categories": [{"id": "4bf58dd8d48988d112951735", "name": "Hardware Store", "pluralName": "Hardware Stores", "shortName": "Hardware", "icon": {"prefix": "https://ss3.4sqi.net/img/categories_v2/shops/hardware_", "suffix": ".png"}, "primary": true}], "photos": {"count": 0, "groups": []}}, "referralId": "e-0-4bed723d75feef3b950597e6-61"}, {"reasons": {"count": 0, "items": [{"summary": "This spot is popular", "type": "general", "reasonName": "globalInteractionReason"}]}, "venue": {"id": "55a00b13498e3c31f6704eeb", "name": "Brooklyn Brigade", "location": {"address": "200 6th St", "crossStreet": "3rd Ave", "lat": 40.673404999999995, "lng": -73.990329, "labeledLatLngs": [{"label": "display", "lat": 40.673404999999995, "lng": -73.990329}, {"label": "entrance", "lat": 40.673502, "lng": -73.99019}], "distance": 352, "postalCode": "11215", "cc": "US", "city": "Brooklyn", "state": "NY", "country": "United States", "formattedAddress": ["200 6th St (3rd Ave)", "Brooklyn, NY 11215", "United States"]}, "categories": [{"id": "554a5e17498efabeda6cc559", "name": "Photography Studio", "pluralName": "Photography Studios", "shortName": "Photo Studio", "icon": {"prefix": "https://ss3.4sqi.net/img/categories_v2/shops/camerastore_", "suffix": ".png"}, "primary": true}], "photos": {"count": 0, "groups": []}}, "referralId": "e-0-55a00b13498e3c31f6704eeb-62"}, {"reasons": {"count": 0, "items": [{"summary": "This spot is popular", "type": "general", "reasonName": "globalInteractionReason"}]}, "venue": {"id": "4bdc857afed22d7f0f8e58c9", "name": "Carousel Beverages", "location": {"address": "436 3rd Ave", "crossStreet": "8th St", "lat": 40.672473, "lng": -73.990561, "labeledLatLngs": [{"label": "display", "lat": 40.672473, "lng": -73.990561}, {"label": "entrance", "lat": 40.672399, "lng": -73.990407}], "distance": 365, "postalCode": "11215", "cc": "US", "city": "Brooklyn", "state": "NY", "country": "United States", "formattedAddress": ["436 3rd Ave (8th St)", "Brooklyn, NY 11215", "United States"]}, "categories": [{"id": "4bf58dd8d48988d186941735", "name": "Liquor Store", "pluralName": "Liquor Stores", "shortName": "Liquor Store", "icon": {"prefix": "https://ss3.4sqi.net/img/categories_v2/shops/food_liquor_", "suffix": ".png"}, "primary": true}], "photos": {"count": 0, "groups": []}}, "referralId": "e-0-4bdc857afed22d7f0f8e58c9-63"}, {"reasons": {"count": 0, "items": [{"summary": "This spot is popular", "type": "general", "reasonName": "globalInteractionReason"}]}, "venue": {"id": "4ee52e736c25be963121d29e", "name": "3rd Ave Deli Grocery", "location": {"address": "454 3rd Ave", "crossStreet": "9th Street", "lat": 40.671834000000004, "lng": -73.990978, "labeledLatLngs": [{"label": "display", "lat": 40.671834000000004, "lng": -73.990978}, {"label": "entrance", "lat": 40.671798, "lng": -73.990903}], "distance": 374, "postalCode": "11215", "cc": "US", "city": "Brooklyn", "state": "NY", "country": "United States", "formattedAddress": ["454 3rd Ave (9th Street)", "Brooklyn, NY 11215", "United States"]}, "categories": [{"id": "4bf58dd8d48988d146941735", "name": "Deli / Bodega", "pluralName": "Delis / Bodegas", "shortName": "Deli / Bodega", "icon": {"prefix": "https://ss3.4sqi.net/img/categories_v2/food/deli_", "suffix": ".png"}, "primary": true}], "photos": {"count": 0, "groups": []}}, "referralId": "e-0-4ee52e736c25be963121d29e-64"}, {"reasons": {"count": 0, "items": [{"summary": "This spot is popular", "type": "general", "reasonName": "globalInteractionReason"}]}, "venue": {"id": "4c4d8532fb742d7fda16dc2c", "name": "TGI OFFICE AUTOMATION", "location": {"address": "120 3rd St", "crossStreet": "Bond Street", "lat": 40.67696535248198, "lng": -73.99198117691493, "labeledLatLngs": [{"label": "display", "lat": 40.67696535248198, "lng": -73.99198117691493}, {"label": "entrance", "lat": 40.676949, "lng": -73.99215}], "distance": 396, "postalCode": "11231", "cc": "US", "city": "Brooklyn", "state": "NY", "country": "United States", "formattedAddress": ["120 3rd St (Bond Street)", "Brooklyn, NY 11231", "United States"]}, "categories": [{"id": "4bf58dd8d48988d121951735", "name": "Paper / Office Supplies Store", "pluralName": "Paper / Office Supplies Stores", "shortName": "Office Supplies", "icon": {"prefix": "https://ss3.4sqi.net/img/categories_v2/shops/papergoods_", "suffix": ".png"}, "primary": true}], "photos": {"count": 0, "groups": []}, "venuePage": {"id": "182329608"}}, "referralId": "e-0-4c4d8532fb742d7fda16dc2c-65"}, {"reasons": {"count": 0, "items": [{"summary": "This spot is popular", "type": "general", "reasonName": "globalInteractionReason"}]}, "venue": {"id": "4da901d593a04642f05cc31c", "name": "Carriage House", "location": {"address": "312 7th Ave", "lat": 40.672865548791044, "lng": -73.99929280897226, "labeledLatLngs": [{"label": "display", "lat": 40.672865548791044, "lng": -73.99929280897226}], "distance": 426, "postalCode": "11215", "cc": "US", "city": "Brooklyn", "state": "NY", "country": "United States", "formattedAddress": ["312 7th Ave", "Brooklyn, NY 11215", "United States"]}, "categories": [{"id": "4bf58dd8d48988d116941735", "name": "Bar", "pluralName": "Bars", "shortName": "Bar", "icon": {"prefix": "https://ss3.4sqi.net/img/categories_v2/nightlife/pub_", "suffix": ".png"}, "primary": true}], "photos": {"count": 0, "groups": []}}, "referralId": "e-0-4da901d593a04642f05cc31c-66"}, {"reasons": {"count": 0, "items": [{"summary": "This spot is popular", "type": "general", "reasonName": "globalInteractionReason"}]}, "venue": {"id": "4a2febcdf964a520f1981fe3", "name": "Mezcal's", "location": {"address": "522 Court St", "crossStreet": "at 9th St.", "lat": 40.67604180376487, "lng": -73.99899704560225, "labeledLatLngs": [{"label": "display", "lat": 40.67604180376487, "lng": -73.99899704560225}, {"label": "entrance", "lat": 40.676019, "lng": -73.999094}], "distance": 450, "postalCode": "11231", "cc": "US", "city": "Brooklyn", "state": "NY", "country": "United States", "formattedAddress": ["522 Court St (at 9th St.)", "Brooklyn, NY 11231", "United States"]}, "categories": [{"id": "4bf58dd8d48988d1c1941735", "name": "Mexican Restaurant", "pluralName": "Mexican Restaurants", "shortName": "Mexican", "icon": {"prefix": "https://ss3.4sqi.net/img/categories_v2/food/mexican_", "suffix": ".png"}, "primary": true}], "photos": {"count": 0, "groups": []}, "venuePage": {"id": "68852655"}}, "referralId": "e-0-4a2febcdf964a520f1981fe3-67"}, {"reasons": {"count": 0, "items": [{"summary": "This spot is popular", "type": "general", "reasonName": "globalInteractionReason"}]}, "venue": {"id": "514b1e82e4b05786397c4768", "name": "Flash Blue Printing", "location": {"address": "503 3rd Ave", "crossStreet": "12th St.", "lat": 40.669966693636844, "lng": -73.99225708433067, "labeledLatLngs": [{"label": "display", "lat": 40.669966693636844, "lng": -73.99225708433067}, {"label": "entrance", "lat": 40.669877, "lng": -73.992181}], "distance": 478, "postalCode": "11215", "cc": "US", "city": "Brooklyn", "state": "NY", "country": "United States", "formattedAddress": ["503 3rd Ave (12th St.)", "Brooklyn, NY 11215", "United States"]}, "categories": [{"id": "4bf58dd8d48988d121951735", "name": "Paper / Office Supplies Store", "pluralName": "Paper / Office Supplies Stores", "shortName": "Office Supplies", "icon": {"prefix": "https://ss3.4sqi.net/img/categories_v2/shops/papergoods_", "suffix": ".png"}, "primary": true}], "photos": {"count": 0, "groups": []}}, "referralId": "e-0-514b1e82e4b05786397c4768-68"}, {"reasons": {"count": 0, "items": [{"summary": "This spot is popular", "type": "general", "reasonName": "globalInteractionReason"}]}, "venue": {"id": "5a01be4f83e380624318d1b9", "name": "Whole Foods Promenade", "location": {"lat": 40.6752290173153, "lng": -73.98892382943984, "labeledLatLngs": [{"label": "display", "lat": 40.6752290173153, "lng": -73.98892382943984}], "distance": 487, "postalCode": "11215", "cc": "US", "neighborhood": "Gowanus", "city": "Brooklyn", "state": "NY", "country": "United States", "formattedAddress": ["Brooklyn, NY 11215", "United States"]}, "categories": [{"id": "4bf58dd8d48988d163941735", "name": "Park", "pluralName": "Parks", "shortName": "Park", "icon": {"prefix": "https://ss3.4sqi.net/img/categories_v2/parks_outdoors/park_", "suffix": ".png"}, "primary": true}], "photos": {"count": 0, "groups": []}}, "referralId": "e-0-5a01be4f83e380624318d1b9-69"}]