[{"reasons": {"count": 0, "items": [{"summary": "This spot is popular", "type": "general", "reasonName": "globalInteractionReason"}]}, "venue": {"id": "4bc10a9df8219c745ac0b210", "name": "Michael's Pastry Shop", "location": {"address": "2923 Avenue R", "lat": 40.60738531197826, "lng": -73.94337609670534, "labeledLatLngs": [{"label": "display", "lat": 40.60738531197826, "lng": -73.94337609670534}, {"label": "entrance", "lat": 40.607472, "lng": -73.94349}], "distance": 480, "postalCode": "11229", "cc": "US", "city": "Brooklyn", "state": "NY", "country": "United States", "formattedAddress": ["2923 Avenue R", "Brooklyn, NY 11229", "United States"]}, "categories": [{"id": "4bf58dd8d48988d1d0941735", "name": "Dessert Shop", "pluralName": "Dessert Shops", "shortName": "Desserts", "icon": {"prefix": "https://ss3.4sqi.net/img/categories_v2/food/dessert_", "suffix": ".png"}, "primary": true}], "photos": {"count": 0, "groups": []}}, "referralId": "e-0-4bc10a9df8219c745ac0b210-0"}, {"reasons": {"count": 0, "items": [{"summary": "This spot is popular", "type": "general", "reasonName": "globalInteractionReason"}]}, "venue": {"id": "42508380f964a520c1201fe3", "name": "Michael's", "location": {"address": "2929 Avenue R", "crossStreet": "at Nostrand Ave", "lat": 40.607520171283014, "lng": -73.94304390996611, "labeledLatLngs": [{"label": "display", "lat": 40.607520171283014, "lng": -73.94304390996611}], "distance": 498, "postalCode": "11229", "cc": "US", "city": "Brooklyn", "state": "NY", "country": "United States", "formattedAddress": ["2929 Avenue R (at Nostrand Ave)", "Brooklyn, NY 11229", "United States"]}, "categories": [{"id": "4bf58dd8d48988d110941735", "name": "Italian Restaurant", "pluralName": "Italian Restaurants", "shortName": "Italian", "icon": {"prefix": "https://ss3.4sqi.net/img/categories_v2/food/italian_", "suffix": ".png"}, "primary": true}], "photos": {"count": 0, "groups": []}}, "referralId": "e-0-42508380f964a520c1201fe3-1"}, {"reasons": {"count": 0, "items": [{"summary": "This spot is popular", "type": "general", "reasonName": "globalInteractionReason"}]}, "venue": {"id": "519ae750498ec2ce85fe11d7", "name": "Highway Bagels", "location": {"address": "1923 Kings Hwy", "crossStreet": "Ocean Ave", "lat": 40.6106861, "lng": -73.953962, "labeledLatLngs": [{"label": "display", "lat": 40.6106861, "lng": -73.953962}, {"label": "entrance", "lat": 40.610651, "lng": -73.953947}], "distance": 490, "postalCode": "11229", "cc": "US", "city": "Brooklyn", "state": "NY", "country": "United States", "formattedAddress": ["1923 Kings Hwy (Ocean Ave)", "Brooklyn, NY 11229", "United States"]}, "categories": [{"id": "4bf58dd8d48988d179941735", "name": "Bagel Shop", "pluralName": "Bagel Shops", "shortName": "Bagels", "icon": {"prefix": "https://ss3.4sqi.net/img/categories_v2/food/bagels_", "suffix": ".png"}, "primary": true}], "delivery": {"id": "2179476", "url": "https://www.seamless.com/menu/highway-bagels-1923-kings-hwy-brooklyn/2179476?affiliate=1131&utm_source=foursquare-affiliate-network&utm_medium=affiliate&utm_campaign=1131&utm_content=2179476", "provider": {"name": "seamless", "icon": {"prefix": "https://fastly.4sqi.net/img/general/cap/", "sizes": [40, 50], "name": "/delivery_provider_seamless_20180129.png"}}}, "photos": {"count": 0, "groups": []}, "venuePage": {"id": "462982102"}}, "referralId": "e-0-519ae750498ec2ce85fe11d7-2"}, {"reasons": {"count": 0, "items": [{"summary": "This spot is popular", "type": "general", "reasonName": "globalInteractionReason"}]}, "venue": {"id": "4bf66b2e5e800f47d53fe7d4", "name": "My Favorite Bagel", "location": {"address": "3053 Nostrand Ave", "lat": 40.60999286911172, "lng": -73.94364162614673, "labeledLatLngs": [{"label": "display", "lat": 40.60999286911172, "lng": -73.94364162614673}, {"label": "entrance", "lat": 40.610031, "lng": -73.943489}], "distance": 409, "postalCode": "11229", "cc": "US", "city": "Brooklyn", "state": "NY", "country": "United States", "formattedAddress": ["3053 Nostrand Ave", "Brooklyn, NY 11229", "United States"]}, "categories": [{"id": "4bf58dd8d48988d179941735", "name": "Bagel Shop", "pluralName": "Bagel Shops", "shortName": "Bagels", "icon": {"prefix": "https://ss3.4sqi.net/img/categories_v2/food/bagels_", "suffix": ".png"}, "primary": true}], "photos": {"count": 0, "groups": []}}, "referralId": "e-0-4bf66b2e5e800f47d53fe7d4-3"}, {"reasons": {"count": 0, "items": [{"summary": "This spot is popular", "type": "general", "reasonName": "globalInteractionReason"}]}, "venue": {"id": "4bd8da12e914a59300db54fa", "name": "J&R Pizza", "location": {"address": "1916 Kings Hwy", "crossStreet": "Btw Ocean Ave. & 19th St.", "lat": 40.61044020590256, "lng": -73.95417350233517, "labeledLatLngs": [{"label": "display", "lat": 40.61044020590256, "lng": -73.95417350233517}, {"label": "entrance", "lat": 40.610341, "lng": -73.95413}], "distance": 500, "postalCode": "11229", "cc": "US", "city": "Brooklyn", "state": "NY", "country": "United States", "formattedAddress": ["1916 Kings Hwy (Btw Ocean Ave. & 19th St.)", "Brooklyn, NY 11229", "United States"]}, "categories": [{"id": "4bf58dd8d48988d1ca941735", "name": "Pizza Place", "pluralName": "Pizza Places", "shortName": "Pizza", "icon": {"prefix": "https://ss3.4sqi.net/img/categories_v2/food/pizza_", "suffix": ".png"}, "primary": true}], "photos": {"count": 0, "groups": []}}, "referralId": "e-0-4bd8da12e914a59300db54fa-4"}, {"reasons": {"count": 0, "items": [{"summary": "This spot is popular", "type": "general", "reasonName": "globalInteractionReason"}]}, "venue": {"id": "519fe2cc498e5eaff2a7aa92", "name": "Bk Pilates", "location": {"address": "3036 Nostrand Ave", "lat": 40.610324, "lng": -73.94404200000001, "labeledLatLngs": [{"label": "display", "lat": 40.610324, "lng": -73.94404200000001}, {"label": "entrance", "lat": 40.610334, "lng": -73.943944}], "distance": 384, "postalCode": "11229", "cc": "US", "city": "Brooklyn", "state": "NY", "country": "United States", "formattedAddress": ["3036 Nostrand Ave", "Brooklyn, NY 11229", "United States"]}, "categories": [{"id": "5744ccdfe4b0c0459246b4b2", "name": "Pilates Studio", "pluralName": "Pilates Studios", "shortName": "Pilates Studio", "icon": {"prefix": "https://ss3.4sqi.net/img/categories_v2/shops/gym_yogastudio_", "suffix": ".png"}, "primary": true}], "photos": {"count": 0, "groups": []}}, "referralId": "e-0-519fe2cc498e5eaff2a7aa92-5"}, {"reasons": {"count": 0, "items": [{"summary": "This spot is popular", "type": "general", "reasonName": "globalInteractionReason"}]}, "venue": {"id": "4ba663baf964a520314d39e3", "name": "Jomart Chocolates", "location": {"address": "2917 Avenue R", "lat": 40.607568, "lng": -73.943569, "labeledLatLngs": [{"label": "display", "lat": 40.607568, "lng": -73.943569}, {"label": "entrance", "lat": 40.607459, "lng": -73.943609}], "distance": 456, "postalCode": "11229", "cc": "US", "city": "Brooklyn", "state": "NY", "country": "United States", "formattedAddress": ["2917 Avenue R", "Brooklyn, NY 11229", "United States"]}, "categories": [{"id": "4bf58dd8d48988d117951735", "name": "Candy Store", "pluralName": "Candy Stores", "shortName": "Candy Store", "icon": {"prefix": "https://ss3.4sqi.net/img/categories_v2/shops/candystore_", "suffix": ".png"}, "primary": true}], "delivery": {"id": "1997380", "url": "https://www.seamless.com/menu/jomart-chocolates-2917-avenue-r-brooklyn/1997380?affiliate=1131&utm_source=foursquare-affiliate-network&utm_medium=affiliate&utm_campaign=1131&utm_content=1997380", "provider": {"name": "seamless", "icon": {"prefix": "https://fastly.4sqi.net/img/general/cap/", "sizes": [40, 50], "name": "/delivery_provider_seamless_20180129.png"}}}, "photos": {"count": 0, "groups": []}}, "referralId": "e-0-4ba663baf964a520314d39e3-6"}, {"reasons": {"count": 0, "items": [{"summary": "This spot is popular", "type": "general", "reasonName": "globalInteractionReason"}]}, "venue": {"id": "4c4c8143712ac928f477706e", "name": "Savor Cafe", "location": {"address": "2925 Avenue P", "crossStreet": "at Nostrand Ave.", "lat": 40.61225, "lng": -73.944312, "labeledLatLngs": [{"label": "display", "lat": 40.61225, "lng": -73.944312}, {"label": "entrance", "lat": 40.612116, "lng": -73.944286}], "distance": 471, "postalCode": "11229", "cc": "US", "city": "Brooklyn", "state": "NY", "country": "United States", "formattedAddress": ["2925 Avenue P (at Nostrand Ave.)", "Brooklyn, NY 11229", "United States"]}, "categories": [{"id": "4bf58dd8d48988d1c4941735", "name": "Restaurant", "pluralName": "Restaurants", "shortName": "Restaurant", "icon": {"prefix": "https://ss3.4sqi.net/img/categories_v2/food/default_", "suffix": ".png"}, "primary": true}], "photos": {"count": 0, "groups": []}}, "referralId": "e-0-4c4c8143712ac928f477706e-7"}, {"reasons": {"count": 0, "items": [{"summary": "This spot is popular", "type": "general", "reasonName": "globalInteractionReason"}]}, "venue": {"id": "4dc47a6c45dd264552582f48", "name": "Gorgeous Nail & Beauty Salon", "location": {"address": "2916 Avenue R", "lat": 40.607107, "lng": -73.943578, "labeledLatLngs": [{"label": "display", "lat": 40.607107, "lng": -73.943578}, {"label": "entrance", "lat": 40.607245, "lng": -73.943603}], "distance": 480, "postalCode": "11229", "cc": "US", "city": "Brooklyn", "state": "NY", "country": "United States", "formattedAddress": ["2916 Avenue R", "Brooklyn, NY 11229", "United States"]}, "categories": [{"id": "4bf58dd8d48988d1ed941735", "name": "Spa", "pluralName": "Spas", "shortName": "Spa", "icon": {"prefix": "https://ss3.4sqi.net/img/categories_v2/shops/spa_", "suffix": ".png"}, "primary": true}], "photos": {"count": 0, "groups": []}}, "referralId": "e-0-4dc47a6c45dd264552582f48-8"}, {"reasons": {"count": 0, "items": [{"summary": "This spot is popular", "type": "general", "reasonName": "globalInteractionReason"}]}, "venue": {"id": "4de444557d8b2547eb2fd0c5", "name": "Mini Mart", "location": {"address": "2918 Avenue R", "lat": 40.60735976527195, "lng": -73.94334631018135, "labeledLatLngs": [{"label": "display", "lat": 40.60735976527195, "lng": -73.94334631018135}, {"label": "entrance", "lat": 40.60727, "lng": -73.943366}], "distance": 483, "postalCode": "11229", "cc": "US", "city": "Brooklyn", "state": "NY", "country": "United States", "formattedAddress": ["2918 Avenue R", "Brooklyn, NY 11229", "United States"]}, "categories": [{"id": "4bf58dd8d48988d146941735", "name": "Deli / Bodega", "pluralName": "Delis / Bodegas", "shortName": "Deli / Bodega", "icon": {"prefix": "https://ss3.4sqi.net/img/categories_v2/food/deli_", "suffix": ".png"}, "primary": true}], "delivery": {"id": "320426", "url": "https://www.seamless.com/menu/ave-r-mini-mart-2924-avenue-r-brooklyn/320426?affiliate=1131&utm_source=foursquare-affiliate-network&utm_medium=affiliate&utm_campaign=1131&utm_content=320426", "provider": {"name": "seamless", "icon": {"prefix": "https://fastly.4sqi.net/img/general/cap/", "sizes": [40, 50], "name": "/delivery_provider_seamless_20180129.png"}}}, "photos": {"count": 0, "groups": []}}, "referralId": "e-0-4de444557d8b2547eb2fd0c5-9"}]