[{"reasons": {"count": 0, "items": [{"summary": "This spot is popular", "type": "general", "reasonName": "globalInteractionReason"}]}, "venue": {"id": "4ba54182f964a52071f238e3", "name": "Staples", "location": {"address": "1880 Coney Island Avenue", "lat": 40.6119467, "lng": -73.9629501, "labeledLatLngs": [{"label": "display", "lat": 40.6119467, "lng": -73.9629501}], "distance": 474, "postalCode": "11230", "cc": "US", "city": "Brooklyn", "state": "NY", "country": "United States", "formattedAddress": ["1880 Coney Island Avenue", "Brooklyn, NY 11230", "United States"]}, "categories": [{"id": "4bf58dd8d48988d121951735", "name": "Paper / Office Supplies Store", "pluralName": "Paper / Office Supplies Stores", "shortName": "Office Supplies", "icon": {"prefix": "https://ss3.4sqi.net/img/categories_v2/shops/papergoods_", "suffix": ".png"}, "primary": true}], "photos": {"count": 0, "groups": []}}, "referralId": "e-0-4ba54182f964a52071f238e3-0"}, {"reasons": {"count": 0, "items": [{"summary": "This spot is popular", "type": "general", "reasonName": "globalInteractionReason"}]}, "venue": {"id": "50199599011cecae1f8b8968", "name": "Moldova Restaurant Brooklyn", "location": {"address": "1827 Coney Island Ave", "crossStreet": "Coney Island Ave and Ave O", "lat": 40.61294186114433, "lng": -73.96286899619373, "labeledLatLngs": [{"label": "display", "lat": 40.61294186114433, "lng": -73.96286899619373}, {"label": "entrance", "lat": 40.612926, "lng": -73.962746}], "distance": 464, "postalCode": "11230", "cc": "US", "city": "Brooklyn", "state": "NY", "country": "United States", "formattedAddress": ["1827 Coney Island Ave (Coney Island Ave and Ave O)", "Brooklyn, NY 11230", "United States"]}, "categories": [{"id": "4bf58dd8d48988d1cc941735", "name": "Steakhouse", "pluralName": "Steakhouses", "shortName": "Steakhouse", "icon": {"prefix": "https://ss3.4sqi.net/img/categories_v2/food/steakhouse_", "suffix": ".png"}, "primary": true}], "photos": {"count": 0, "groups": []}}, "referralId": "e-0-50199599011cecae1f8b8968-1"}, {"reasons": {"count": 0, "items": [{"summary": "This spot is popular", "type": "general", "reasonName": "globalInteractionReason"}]}, "venue": {"id": "4be0b1bbcb81c9b61abd668b", "name": "Oh! Bagel", "location": {"address": "1755 Coney Island Ave", "crossStreet": "Ave N", "lat": 40.614620194064045, "lng": -73.96320566611656, "labeledLatLngs": [{"label": "display", "lat": 40.614620194064045, "lng": -73.96320566611656}], "distance": 469, "postalCode": "11230", "cc": "US", "city": "Brooklyn", "state": "NY", "country": "United States", "formattedAddress": ["1755 Coney Island Ave (Ave N)", "Brooklyn, NY 11230", "United States"]}, "categories": [{"id": "4bf58dd8d48988d179941735", "name": "Bagel Shop", "pluralName": "Bagel Shops", "shortName": "Bagels", "icon": {"prefix": "https://ss3.4sqi.net/img/categories_v2/food/bagels_", "suffix": ".png"}, "primary": true}], "photos": {"count": 0, "groups": []}}, "referralId": "e-0-4be0b1bbcb81c9b61abd668b-2"}, {"reasons": {"count": 0, "items": [{"summary": "This spot is popular", "type": "general", "reasonName": "globalInteractionReason"}]}, "venue": {"id": "4e910d629a52db7dba84fcb8", "name": "Russian Night Club Taous", "location": {"address": "1814 Coney Island ave (between Avenue N & Avenue O) Neighborhoods: Ocean Parkway, Midwood", "lat": 40.61314765780938, "lng": -73.96333100591771, "labeledLatLngs": [{"label": "display", "lat": 40.61314765780938, "lng": -73.96333100591771}], "distance": 425, "postalCode": "11230", "cc": "US", "city": "Brooklyn", "state": "NY", "country": "United States", "formattedAddress": ["1814 Coney Island ave (between Avenue N & Avenue O) Neighborhoods: Ocean Parkway, Midwood", "Brooklyn, NY 11230", "United States"]}, "categories": [{"id": "4bf58dd8d48988d1f1931735", "name": "General Entertainment", "pluralName": "General Entertainment", "shortName": "Entertainment", "icon": {"prefix": "https://ss3.4sqi.net/img/categories_v2/arts_entertainment/default_", "suffix": ".png"}, "primary": true}], "photos": {"count": 0, "groups": []}}, "referralId": "e-0-4e910d629a52db7dba84fcb8-3"}, {"reasons": {"count": 0, "items": [{"summary": "This spot is popular", "type": "general", "reasonName": "globalInteractionReason"}]}, "venue": {"id": "5713c023498e6653dfa1855d", "name": "Dunkin", "location": {"address": "1775 Coney Island Ave", "crossStreet": "Avenue N", "lat": 40.61436636178479, "lng": -73.96287380369449, "labeledLatLngs": [{"label": "display", "lat": 40.61436636178479, "lng": -73.96287380369449}], "distance": 486, "postalCode": "11230", "cc": "US", "city": "Brooklyn", "state": "NY", "country": "United States", "formattedAddress": ["1775 Coney Island Ave (Avenue N)", "Brooklyn, NY 11230", "United States"]}, "categories": [{"id": "4bf58dd8d48988d148941735", "name": "Donut Shop", "pluralName": "Donut Shops", "shortName": "Donuts", "icon": {"prefix": "https://ss3.4sqi.net/img/categories_v2/food/donuts_", "suffix": ".png"}, "primary": true}], "photos": {"count": 0, "groups": []}}, "referralId": "e-0-5713c023498e6653dfa1855d-4"}, {"reasons": {"count": 0, "items": [{"summary": "This spot is popular", "type": "general", "reasonName": "globalInteractionReason"}]}, "venue": {"id": "4dab6c73fa8cc764974ce304", "name": "Pomegrante", "location": {"address": "1507 Coney Island Ave", "lat": 40.614242187381365, "lng": -73.96523084802386, "labeledLatLngs": [{"label": "display", "lat": 40.614242187381365, "lng": -73.96523084802386}], "distance": 295, "postalCode": "11230", "cc": "US", "city": "Brooklyn", "state": "NY", "country": "United States", "formattedAddress": ["1507 Coney Island Ave", "Brooklyn, NY 11230", "United States"]}, "categories": [{"id": "4bf58dd8d48988d118951735", "name": "Grocery Store", "pluralName": "Grocery Stores", "shortName": "Grocery Store", "icon": {"prefix": "https://ss3.4sqi.net/img/categories_v2/shops/food_grocery_", "suffix": ".png"}, "primary": true}], "photos": {"count": 0, "groups": []}}, "referralId": "e-0-4dab6c73fa8cc764974ce304-5"}, {"reasons": {"count": 0, "items": [{"summary": "This spot is popular", "type": "general", "reasonName": "globalInteractionReason"}]}, "venue": {"id": "4e054958b61c60b045375381", "name": "Colonel David Marcus Playground", "location": {"lat": 40.61020127610596, "lng": -73.9686576336712, "labeledLatLngs": [{"label": "display", "lat": 40.61020127610596, "lng": -73.9686576336712}], "distance": 319, "postalCode": "11223", "cc": "US", "city": "Brooklyn", "state": "NY", "country": "United States", "formattedAddress": ["Brooklyn, NY 11223", "United States"]}, "categories": [{"id": "4bf58dd8d48988d1e7941735", "name": "Playground", "pluralName": "Playgrounds", "shortName": "Playground", "icon": {"prefix": "https://ss3.4sqi.net/img/categories_v2/parks_outdoors/playground_", "suffix": ".png"}, "primary": true}], "photos": {"count": 0, "groups": []}}, "referralId": "e-0-4e054958b61c60b045375381-6"}, {"reasons": {"count": 0, "items": [{"summary": "This spot is popular", "type": "general", "reasonName": "globalInteractionReason"}]}, "venue": {"id": "4b4a5b6af964a520158526e3", "name": "FYBO Gym", "location": {"address": "Ave N", "crossStreet": "E. 51st St.", "lat": 40.61515685154206, "lng": -73.97190597555279, "labeledLatLngs": [{"label": "display", "lat": 40.61515685154206, "lng": -73.97190597555279}], "distance": 379, "postalCode": "11230", "cc": "US", "city": "Brooklyn", "state": "NY", "country": "United States", "formattedAddress": ["Ave N (E. 51st St.)", "Brooklyn, NY 11230", "United States"]}, "categories": [{"id": "4bf58dd8d48988d176941735", "name": "Gym", "pluralName": "Gyms", "shortName": "Gym", "icon": {"prefix": "https://ss3.4sqi.net/img/categories_v2/building/gym_", "suffix": ".png"}, "primary": true}], "photos": {"count": 0, "groups": []}}, "referralId": "e-0-4b4a5b6af964a520158526e3-7"}, {"reasons": {"count": 0, "items": [{"summary": "This spot is popular", "type": "general", "reasonName": "globalInteractionReason"}]}, "venue": {"id": "4e73883952b145ffbf9c5409", "name": "MTA B9 Bus stop", "location": {"address": "Avenue N", "crossStreet": "East 5th", "lat": 40.61525841126051, "lng": -73.9718863288735, "labeledLatLngs": [{"label": "display", "lat": 40.61525841126051, "lng": -73.9718863288735}], "distance": 385, "postalCode": "11223", "cc": "US", "city": "Brooklyn", "state": "NY", "country": "United States", "formattedAddress": ["Avenue N (East 5th)", "Brooklyn, NY 11223", "United States"]}, "categories": [{"id": "4bf58dd8d48988d1fe931735", "name": "Bus Station", "pluralName": "Bus Stations", "shortName": "Bus Station", "icon": {"prefix": "https://ss3.4sqi.net/img/categories_v2/travel/busstation_", "suffix": ".png"}, "primary": true}], "photos": {"count": 0, "groups": []}}, "referralId": "e-0-4e73883952b145ffbf9c5409-8"}, {"reasons": {"count": 0, "items": [{"summary": "This spot is popular", "type": "general", "reasonName": "globalInteractionReason"}]}, "venue": {"id": "4edff3149911bd13a89d1ddd", "name": "Boogie Man", "location": {"address": "At", "crossStreet": "Gg", "lat": 40.61527547678351, "lng": -73.97191745450665, "labeledLatLngs": [{"label": "display", "lat": 40.61527547678351, "lng": -73.97191745450665}], "distance": 388, "postalCode": "11230", "cc": "US", "city": "Ghjgyy", "state": "NY", "country": "United States", "formattedAddress": ["At (Gg)", "Ghjgyy, NY 11230", "United States"]}, "categories": [{"id": "4bf58dd8d48988d11c941735", "name": "Sake Bar", "pluralName": "Sake Bars", "shortName": "Sake Bar", "icon": {"prefix": "https://ss3.4sqi.net/img/categories_v2/nightlife/sake_", "suffix": ".png"}, "primary": true}], "photos": {"count": 0, "groups": []}}, "referralId": "e-0-4edff3149911bd13a89d1ddd-9"}, {"reasons": {"count": 0, "items": [{"summary": "This spot is popular", "type": "general", "reasonName": "globalInteractionReason"}]}, "venue": {"id": "4bef5f335e4aa593b9fa58bb", "name": "Passion Night Club", "location": {"address": "1814 Coney Island Ave", "crossStreet": "Ave N and Ave O", "lat": 40.613149, "lng": -73.963337, "labeledLatLngs": [{"label": "display", "lat": 40.613149, "lng": -73.963337}], "distance": 425, "postalCode": "11230", "cc": "US", "city": "Brooklyn", "state": "NY", "country": "United States", "formattedAddress": ["1814 Coney Island Ave (Ave N and Ave O)", "Brooklyn, NY 11230", "United States"]}, "categories": [{"id": "4bf58dd8d48988d11f941735", "name": "Nightclub", "pluralName": "Nightclubs", "shortName": "Nightclub", "icon": {"prefix": "https://ss3.4sqi.net/img/categories_v2/nightlife/nightclub_", "suffix": ".png"}, "primary": true}], "photos": {"count": 0, "groups": []}}, "referralId": "e-0-4bef5f335e4aa593b9fa58bb-10"}, {"reasons": {"count": 0, "items": [{"summary": "This spot is popular", "type": "general", "reasonName": "globalInteractionReason"}]}, "venue": {"id": "4eebab200e61df3826e97bb2", "name": "M Spa", "location": {"address": "Avenue M", "lat": 40.61665, "lng": -73.970731, "labeledLatLngs": [{"label": "display", "lat": 40.61665, "lng": -73.970731}, {"label": "entrance", "lat": 40.616717, "lng": -73.970744}], "distance": 446, "postalCode": "11230", "cc": "US", "city": "Brooklyn", "state": "NY", "country": "United States", "formattedAddress": ["Avenue M", "Brooklyn, NY 11230", "United States"]}, "categories": [{"id": "4bf58dd8d48988d1ed941735", "name": "Spa", "pluralName": "Spas", "shortName": "Spa", "icon": {"prefix": "https://ss3.4sqi.net/img/categories_v2/shops/spa_", "suffix": ".png"}, "primary": true}], "photos": {"count": 0, "groups": []}}, "referralId": "e-0-4eebab200e61df3826e97bb2-11"}, {"reasons": {"count": 0, "items": [{"summary": "This spot is popular", "type": "general", "reasonName": "globalInteractionReason"}]}, "venue": {"id": "5e7d0c491a23b10008452f6a", "name": "UPS Access Point location", "location": {"address": "406 AVENUE M", "lat": 40.616583, "lng": -73.97109, "labeledLatLngs": [{"label": "display", "lat": 40.616583, "lng": -73.97109}], "distance": 454, "postalCode": "11230", "cc": "US", "city": "Brooklyn", "state": "NY", "country": "United States", "formattedAddress": ["406 AVENUE M", "Brooklyn, NY 11230", "United States"]}, "categories": [{"id": "52f2ab2ebcbc57f1066b8b1f", "name": "Shipping Store", "pluralName": "Shipping Stores", "shortName": "Shipping Store", "icon": {"prefix": "https://ss3.4sqi.net/img/categories_v2/shops/default_", "suffix": ".png"}, "primary": true}], "photos": {"count": 0, "groups": []}}, "referralId": "e-0-5e7d0c491a23b10008452f6a-12"}, {"reasons": {"count": 0, "items": [{"summary": "This spot is popular", "type": "general", "reasonName": "globalInteractionReason"}]}, "venue": {"id": "4bc1e7bd461576b03f767c32", "name": "Kitchen Caboodles", "location": {"address": "492 Avenue P", "lat": 40.608999, "lng": -73.969261, "labeledLatLngs": [{"label": "display", "lat": 40.608999, "lng": -73.969261}, {"label": "entrance", "lat": 40.609086, "lng": -73.969276}], "distance": 458, "postalCode": "11223", "cc": "US", "city": "Brooklyn", "state": "NY", "country": "United States", "formattedAddress": ["492 Avenue P", "Brooklyn, NY 11223", "United States"]}, "categories": [{"id": "4bf58dd8d48988d1f9941735", "name": "Food & Drink Shop", "pluralName": "Food & Drink Shops", "shortName": "Food & Drink", "icon": {"prefix": "https://ss3.4sqi.net/img/categories_v2/shops/foodanddrink_", "suffix": ".png"}, "primary": true}], "photos": {"count": 0, "groups": []}}, "referralId": "e-0-4bc1e7bd461576b03f767c32-13"}, {"reasons": {"count": 0, "items": [{"summary": "This spot is popular", "type": "general", "reasonName": "globalInteractionReason"}]}, "venue": {"id": "4d88d33a6daeb60c50b842e0", "name": "Schnapps Kosher Wine & Whiskey Shop", "location": {"address": "404 Avenue M", "crossStreet": "btwn e 4st and e 4th st", "lat": 40.616609000000004, "lng": -73.971163, "labeledLatLngs": [{"label": "display", "lat": 40.616609000000004, "lng": -73.971163}, {"label": "entrance", "lat": 40.61667, "lng": -73.971174}], "distance": 460, "postalCode": "11230", "cc": "US", "city": "Brooklyn", "state": "NY", "country": "United States", "formattedAddress": ["404 Avenue M (btwn e 4st and e 4th st)", "Brooklyn, NY 11230", "United States"]}, "categories": [{"id": "4bf58dd8d48988d186941735", "name": "Liquor Store", "pluralName": "Liquor Stores", "shortName": "Liquor Store", "icon": {"prefix": "https://ss3.4sqi.net/img/categories_v2/shops/food_liquor_", "suffix": ".png"}, "primary": true}], "photos": {"count": 0, "groups": []}, "venuePage": {"id": "47107875"}}, "referralId": "e-0-4d88d33a6daeb60c50b842e0-14"}, {"reasons": {"count": 0, "items": [{"summary": "This spot is popular", "type": "general", "reasonName": "globalInteractionReason"}]}, "venue": {"id": "4cf5b3d5d3a8a1cdf95bcd43", "name": "Sushi Royale", "location": {"address": "462 Avenue P", "crossStreet": "btwn E 3rd St. & E 4th St.", "lat": 40.60914607618763, "lng": -73.9703328057674, "labeledLatLngs": [{"label": "display", "lat": 40.60914607618763, "lng": -73.9703328057674}], "distance": 466, "postalCode": "11223", "cc": "US", "city": "Brooklyn", "state": "NY", "country": "United States", "formattedAddress": ["462 Avenue P (btwn E 3rd St. & E 4th St.)", "Brooklyn, NY 11223", "United States"]}, "categories": [{"id": "4bf58dd8d48988d1d2941735", "name": "Sushi Restaurant", "pluralName": "Sushi Restaurants", "shortName": "Sushi", "icon": {"prefix": "https://ss3.4sqi.net/img/categories_v2/food/sushi_", "suffix": ".png"}, "primary": true}], "photos": {"count": 0, "groups": []}}, "referralId": "e-0-4cf5b3d5d3a8a1cdf95bcd43-15"}, {"reasons": {"count": 0, "items": [{"summary": "This spot is popular", "type": "general", "reasonName": "globalInteractionReason"}]}, "venue": {"id": "5123ca00f2e768a41314ff41", "name": "Day 5 Sushi", "location": {"address": "1724 Coney Island Ave", "crossStreet": "btwn Roder Ave & Ave N", "lat": 40.615394, "lng": -73.963735, "labeledLatLngs": [{"label": "display", "lat": 40.615394, "lng": -73.963735}], "distance": 469, "postalCode": "11230", "cc": "US", "city": "Brooklyn", "state": "NY", "country": "United States", "formattedAddress": ["1724 Coney Island Ave (btwn Roder Ave & Ave N)", "Brooklyn, NY 11230", "United States"]}, "categories": [{"id": "4bf58dd8d48988d1d2941735", "name": "Sushi Restaurant", "pluralName": "Sushi Restaurants", "shortName": "Sushi", "icon": {"prefix": "https://ss3.4sqi.net/img/categories_v2/food/sushi_", "suffix": ".png"}, "primary": true}], "photos": {"count": 0, "groups": []}, "venuePage": {"id": "76803812"}}, "referralId": "e-0-5123ca00f2e768a41314ff41-16"}, {"reasons": {"count": 0, "items": [{"summary": "This spot is popular", "type": "general", "reasonName": "globalInteractionReason"}]}, "venue": {"id": "4d939621b803b60ca8463947", "name": "La Piccola", "location": {"address": "1591 McDonald Ave", "crossStreet": "Ave N", "lat": 40.614253999999995, "lng": -73.973706, "labeledLatLngs": [{"label": "display", "lat": 40.614253999999995, "lng": -73.973706}, {"label": "entrance", "lat": 40.614242, "lng": -73.973842}], "distance": 470, "postalCode": "11230", "cc": "US", "city": "Brooklyn", "state": "NY", "country": "United States", "formattedAddress": ["1591 McDonald Ave (Ave N)", "Brooklyn, NY 11230", "United States"]}, "categories": [{"id": "4bf58dd8d48988d146941735", "name": "Deli / Bodega", "pluralName": "Delis / Bodegas", "shortName": "Deli / Bodega", "icon": {"prefix": "https://ss3.4sqi.net/img/categories_v2/food/deli_", "suffix": ".png"}, "primary": true}], "photos": {"count": 0, "groups": []}}, "referralId": "e-0-4d939621b803b60ca8463947-17"}, {"reasons": {"count": 0, "items": [{"summary": "This spot is popular", "type": "general", "reasonName": "globalInteractionReason"}]}, "venue": {"id": "51c76c2b498efa785c3710a7", "name": "King Solomon Glatt Kosher", "location": {"address": "1787 Coney Island Ave", "crossStreet": "Between Ave. O & Ave. N", "lat": 40.613704373192526, "lng": -73.96279721005405, "labeledLatLngs": [{"label": "display", "lat": 40.613704373192526, "lng": -73.96279721005405}], "distance": 476, "postalCode": "11230", "cc": "US", "city": "Brooklyn", "state": "NY", "country": "United States", "formattedAddress": ["1787 Coney Island Ave (Between Ave. O & Ave. N)", "Brooklyn, NY 11230", "United States"]}, "categories": [{"id": "4bf58dd8d48988d109941735", "name": "Eastern European Restaurant", "pluralName": "Eastern European Restaurants", "shortName": "Eastern European", "icon": {"prefix": "https://ss3.4sqi.net/img/categories_v2/food/default_", "suffix": ".png"}, "primary": true}], "photos": {"count": 0, "groups": []}}, "referralId": "e-0-51c76c2b498efa785c3710a7-18"}, {"reasons": {"count": 0, "items": [{"summary": "This spot is popular", "type": "general", "reasonName": "globalInteractionReason"}]}, "venue": {"id": "5235cb9c11d2d885f19ab018", "name": "Pizza Boss", "location": {"address": "410 Avenue M", "lat": 40.616811, "lng": -73.971095, "labeledLatLngs": [{"label": "display", "lat": 40.616811, "lng": -73.971095}, {"label": "entrance", "lat": 40.616686, "lng": -73.971032}], "distance": 476, "postalCode": "11230", "cc": "US", "city": "Brooklyn", "state": "NY", "country": "United States", "formattedAddress": ["410 Avenue M", "Brooklyn, NY 11230", "United States"]}, "categories": [{"id": "4bf58dd8d48988d1ca941735", "name": "Pizza Place", "pluralName": "Pizza Places", "shortName": "Pizza", "icon": {"prefix": "https://ss3.4sqi.net/img/categories_v2/food/pizza_", "suffix": ".png"}, "primary": true}], "photos": {"count": 0, "groups": []}}, "referralId": "e-0-5235cb9c11d2d885f19ab018-19"}, {"reasons": {"count": 0, "items": [{"summary": "This spot is popular", "type": "general", "reasonName": "globalInteractionReason"}]}, "venue": {"id": "4f3225d719836c91c7bada65", "name": "Bar Sushi Tai", "location": {"address": "462 Avenue P", "lat": 40.608891, "lng": -73.97022700000001, "labeledLatLngs": [{"label": "display", "lat": 40.608891, "lng": -73.97022700000001}, {"label": "entrance", "lat": 40.608977, "lng": -73.970254}], "distance": 489, "postalCode": "11223", "cc": "US", "city": "Brooklyn", "state": "NY", "country": "United States", "formattedAddress": ["462 Avenue P", "Brooklyn, NY 11223", "United States"]}, "categories": [{"id": "4d4b7105d754a06374d81259", "name": "Food", "pluralName": "Food", "shortName": "Food", "icon": {"prefix": "https://ss3.4sqi.net/img/categories_v2/food/default_", "suffix": ".png"}, "primary": true}], "photos": {"count": 0, "groups": []}}, "referralId": "e-0-4f3225d719836c91c7bada65-20"}, {"reasons": {"count": 0, "items": [{"summary": "This spot is popular", "type": "general", "reasonName": "globalInteractionReason"}]}, "venue": {"id": "53a5b3ea498edce8c31cae9d", "name": "MTA Bus - B9 (Ave N & McDonald Ave)", "location": {"lat": 40.61362264521764, "lng": -73.97413861919574, "labeledLatLngs": [{"label": "display", "lat": 40.61362264521764, "lng": -73.97413861919574}], "distance": 491, "cc": "US", "city": "Brooklyn", "state": "NY", "country": "United States", "formattedAddress": ["Brooklyn, NY", "United States"]}, "categories": [{"id": "52f2ab2ebcbc57f1066b8b4f", "name": "Bus Stop", "pluralName": "Bus Stops", "shortName": "Bus Stop", "icon": {"prefix": "https://ss3.4sqi.net/img/categories_v2/travel/busstation_", "suffix": ".png"}, "primary": true}], "photos": {"count": 0, "groups": []}}, "referralId": "e-0-53a5b3ea498edce8c31cae9d-21"}]