[{"reasons": {"count": 0, "items": [{"summary": "This spot is popular", "type": "general", "reasonName": "globalInteractionReason"}]}, "venue": {"id": "4cc5a0bb4935bfb77ddfd0d8", "name": "Popeyes Louisiana Kitchen", "location": {"address": "736 Linden Blvd", "crossStreet": "Utica Ave", "lat": 40.653587414034426, "lng": -73.93070805396981, "labeledLatLngs": [{"label": "display", "lat": 40.653587414034426, "lng": -73.93070805396981}], "distance": 391, "postalCode": "11203", "cc": "US", "city": "Brooklyn", "state": "NY", "country": "United States", "formattedAddress": ["736 Linden Blvd (Utica Ave)", "Brooklyn, NY 11203", "United States"]}, "categories": [{"id": "4d4ae6fc7a7b7dea34424761", "name": "Fried Chicken Joint", "pluralName": "Fried Chicken Joints", "shortName": "Fried Chicken", "icon": {"prefix": "https://ss3.4sqi.net/img/categories_v2/food/friedchicken_", "suffix": ".png"}, "primary": true}], "delivery": {"id": "1202626", "url": "https://www.seamless.com/menu/popeyes-736-linden-blvd-brooklyn/1202626?affiliate=1131&utm_source=foursquare-affiliate-network&utm_medium=affiliate&utm_campaign=1131&utm_content=1202626", "provider": {"name": "seamless", "icon": {"prefix": "https://fastly.4sqi.net/img/general/cap/", "sizes": [40, 50], "name": "/delivery_provider_seamless_20180129.png"}}}, "photos": {"count": 0, "groups": []}}, "referralId": "e-0-4cc5a0bb4935bfb77ddfd0d8-0"}, {"reasons": {"count": 0, "items": [{"summary": "This spot is popular", "type": "general", "reasonName": "globalInteractionReason"}]}, "venue": {"id": "505b7783e4b07c8ee4116706", "name": "Fun City", "location": {"address": "5602 Church Ave", "crossStreet": "56th And 57th", "lat": 40.65246449010839, "lng": -73.92449871674812, "labeledLatLngs": [{"label": "display", "lat": 40.65246449010839, "lng": -73.92449871674812}], "distance": 400, "postalCode": "11203", "cc": "US", "city": "Brooklyn", "state": "NY", "country": "United States", "formattedAddress": ["5602 Church Ave (56th And 57th)", "Brooklyn, NY 11203", "United States"]}, "categories": [{"id": "4bf58dd8d48988d1ce941735", "name": "Seafood Restaurant", "pluralName": "Seafood Restaurants", "shortName": "Seafood", "icon": {"prefix": "https://ss3.4sqi.net/img/categories_v2/food/seafood_", "suffix": ".png"}, "primary": true}], "photos": {"count": 0, "groups": []}}, "referralId": "e-0-505b7783e4b07c8ee4116706-1"}, {"reasons": {"count": 0, "items": [{"summary": "This spot is popular", "type": "general", "reasonName": "globalInteractionReason"}]}, "venue": {"id": "5ccc8bd6898bdc002cdec39e", "name": "Wingstop", "location": {"address": "700 Utica Ave", "crossStreet": "Corner of Clarkson Avenue", "lat": 40.656343, "lng": -73.93127700000001, "labeledLatLngs": [{"label": "display", "lat": 40.656343, "lng": -73.93127700000001}, {"label": "entrance", "lat": 40.656308, "lng": -73.931135}], "distance": 380, "postalCode": "11203", "cc": "US", "city": "Brooklyn", "state": "NY", "country": "United States", "formattedAddress": ["700 Utica Ave (Corner of Clarkson Avenue)", "Brooklyn, NY 11203", "United States"]}, "categories": [{"id": "4bf58dd8d48988d14c941735", "name": "Wings Joint", "pluralName": "Wings Joints", "shortName": "Wings", "icon": {"prefix": "https://ss3.4sqi.net/img/categories_v2/food/wings_", "suffix": ".png"}, "primary": true}], "photos": {"count": 0, "groups": []}}, "referralId": "e-0-5ccc8bd6898bdc002cdec39e-2"}, {"reasons": {"count": 0, "items": [{"summary": "This spot is popular", "type": "general", "reasonName": "globalInteractionReason"}]}, "venue": {"id": "4cf930afde096dcb66288d79", "name": "T-Mobile", "location": {"address": "839 Utica Ave", "crossStreet": "Linen Blvd", "lat": 40.652649, "lng": -73.930155, "labeledLatLngs": [{"label": "display", "lat": 40.652649, "lng": -73.930155}, {"label": "entrance", "lat": 40.652603, "lng": -73.930294}], "distance": 426, "postalCode": "11203", "cc": "US", "city": "Brooklyn", "state": "NY", "country": "United States", "formattedAddress": ["839 Utica Ave (Linen Blvd)", "Brooklyn, NY 11203", "United States"]}, "categories": [{"id": "4f04afc02fb6e1c99f3db0bc", "name": "Mobile Phone Shop", "pluralName": "Mobile Phone Shops", "shortName": "Mobile Phones", "icon": {"prefix": "https://ss3.4sqi.net/img/categories_v2/shops/mobilephoneshop_", "suffix": ".png"}, "primary": true}], "photos": {"count": 0, "groups": []}}, "referralId": "e-0-4cf930afde096dcb66288d79-3"}, {"reasons": {"count": 0, "items": [{"summary": "This spot is popular", "type": "general", "reasonName": "globalInteractionReason"}]}, "venue": {"id": "4c374e51298e9c74c6f807e3", "name": "Walgreens", "location": {"address": "5001 Church Ave", "lat": 40.65193930219445, "lng": -73.93011787602518, "labeledLatLngs": [{"label": "display", "lat": 40.65193930219445, "lng": -73.93011787602518}], "distance": 488, "postalCode": "11203", "cc": "US", "city": "Brooklyn", "state": "NY", "country": "United States", "formattedAddress": ["5001 Church Ave", "Brooklyn, NY 11203", "United States"]}, "categories": [{"id": "4bf58dd8d48988d10f951735", "name": "Pharmacy", "pluralName": "Pharmacies", "shortName": "Pharmacy", "icon": {"prefix": "https://ss3.4sqi.net/img/categories_v2/shops/pharmacy_", "suffix": ".png"}, "primary": true}], "photos": {"count": 0, "groups": []}}, "referralId": "e-0-4c374e51298e9c74c6f807e3-4"}, {"reasons": {"count": 0, "items": [{"summary": "This spot is popular", "type": "general", "reasonName": "globalInteractionReason"}]}, "venue": {"id": "4bc4c577abf49521628bc593", "name": "C & J Jamaican Restaurant", "location": {"address": "817 Utica Ave", "crossStreet": "at Linden Blvd", "lat": 40.65323183619257, "lng": -73.93049282607896, "labeledLatLngs": [{"label": "display", "lat": 40.65323183619257, "lng": -73.93049282607896}, {"label": "entrance", "lat": 40.653157, "lng": -73.930354}], "distance": 401, "postalCode": "11203", "cc": "US", "city": "Brooklyn", "state": "NY", "country": "United States", "formattedAddress": ["817 Utica Ave (at Linden Blvd)", "Brooklyn, NY 11203", "United States"]}, "categories": [{"id": "4bf58dd8d48988d144941735", "name": "Caribbean Restaurant", "pluralName": "Caribbean Restaurants", "shortName": "Caribbean", "icon": {"prefix": "https://ss3.4sqi.net/img/categories_v2/food/caribbean_", "suffix": ".png"}, "primary": true}], "photos": {"count": 0, "groups": []}}, "referralId": "e-0-4bc4c577abf49521628bc593-5"}, {"reasons": {"count": 0, "items": [{"summary": "This spot is popular", "type": "general", "reasonName": "globalInteractionReason"}]}, "venue": {"id": "4b6ee91af964a52089d02ce3", "name": "Mike's Diner", "location": {"address": "630 Utica Ave", "crossStreet": "Winthrop St", "lat": 40.65818090276009, "lng": -73.93120328987789, "labeledLatLngs": [{"label": "display", "lat": 40.65818090276009, "lng": -73.93120328987789}, {"label": "entrance", "lat": 40.658093, "lng": -73.931262}], "distance": 466, "postalCode": "11203", "cc": "US", "city": "Brooklyn", "state": "NY", "country": "United States", "formattedAddress": ["630 Utica Ave (Winthrop St)", "Brooklyn, NY 11203", "United States"]}, "categories": [{"id": "4bf58dd8d48988d147941735", "name": "Diner", "pluralName": "Diners", "shortName": "Diner", "icon": {"prefix": "https://ss3.4sqi.net/img/categories_v2/food/diner_", "suffix": ".png"}, "primary": true}], "photos": {"count": 0, "groups": []}}, "referralId": "e-0-4b6ee91af964a52089d02ce3-6"}, {"reasons": {"count": 0, "items": [{"summary": "This spot is popular", "type": "general", "reasonName": "globalInteractionReason"}]}, "venue": {"id": "4fb533867beb65c72e11e4a2", "name": "Chase Bank", "location": {"address": "5015 Church Ave", "lat": 40.65209727901707, "lng": -73.92973837990282, "labeledLatLngs": [{"label": "entrance", "lat": 40.651967, "lng": -73.929721}, {"label": "display", "lat": 40.65209727901707, "lng": -73.92973837990282}], "distance": 455, "postalCode": "11203", "cc": "US", "city": "Brooklyn", "state": "NY", "country": "United States", "formattedAddress": ["5015 Church Ave", "Brooklyn, NY 11203", "United States"]}, "categories": [{"id": "4bf58dd8d48988d10a951735", "name": "Bank", "pluralName": "Banks", "shortName": "Bank", "icon": {"prefix": "https://ss3.4sqi.net/img/categories_v2/shops/financial_", "suffix": ".png"}, "primary": true}], "photos": {"count": 0, "groups": []}}, "referralId": "e-0-4fb533867beb65c72e11e4a2-7"}, {"reasons": {"count": 0, "items": [{"summary": "This spot is popular", "type": "general", "reasonName": "globalInteractionReason"}]}, "venue": {"id": "4be6247a9026ef3bcbcf0a38", "name": "Subway", "location": {"address": "5107 Church Ave", "crossStreet": "E. 51 St", "lat": 40.65223280787367, "lng": -73.92905927116396, "labeledLatLngs": [{"label": "display", "lat": 40.65223280787367, "lng": -73.92905927116396}, {"label": "entrance", "lat": 40.652148, "lng": -73.929052}], "distance": 414, "postalCode": "11203", "cc": "US", "city": "Brooklyn", "state": "NY", "country": "United States", "formattedAddress": ["5107 Church Ave (E. 51 St)", "Brooklyn, NY 11203", "United States"]}, "categories": [{"id": "4bf58dd8d48988d1c5941735", "name": "Sandwich Place", "pluralName": "Sandwich Places", "shortName": "Sandwiches", "icon": {"prefix": "https://ss3.4sqi.net/img/categories_v2/food/deli_", "suffix": ".png"}, "primary": true}], "delivery": {"id": "1068094", "url": "https://www.seamless.com/menu/subway-5107-church-ave-brooklyn/1068094?affiliate=1131&utm_source=foursquare-affiliate-network&utm_medium=affiliate&utm_campaign=1131&utm_content=1068094", "provider": {"name": "seamless", "icon": {"prefix": "https://fastly.4sqi.net/img/general/cap/", "sizes": [40, 50], "name": "/delivery_provider_seamless_20180129.png"}}}, "photos": {"count": 0, "groups": []}}, "referralId": "e-0-4be6247a9026ef3bcbcf0a38-8"}, {"reasons": {"count": 0, "items": [{"summary": "This spot is popular", "type": "general", "reasonName": "globalInteractionReason"}]}, "venue": {"id": "4b5521e4f964a5204bdc27e3", "name": "Domino's Pizza", "location": {"address": "835 Clarkson Ave", "lat": 40.65680875610549, "lng": -73.9306953549385, "labeledLatLngs": [{"label": "display", "lat": 40.65680875610549, "lng": -73.9306953549385}, {"label": "entrance", "lat": 40.656742, "lng": -73.930527}], "distance": 350, "postalCode": "11203", "cc": "US", "city": "Brooklyn", "state": "NY", "country": "United States", "formattedAddress": ["835 Clarkson Ave", "Brooklyn, NY 11203", "United States"]}, "categories": [{"id": "4bf58dd8d48988d1ca941735", "name": "Pizza Place", "pluralName": "Pizza Places", "shortName": "Pizza", "icon": {"prefix": "https://ss3.4sqi.net/img/categories_v2/food/pizza_", "suffix": ".png"}, "primary": true}], "photos": {"count": 0, "groups": []}}, "referralId": "e-0-4b5521e4f964a5204bdc27e3-9"}, {"reasons": {"count": 0, "items": [{"summary": "This spot is popular", "type": "general", "reasonName": "globalInteractionReason"}]}, "venue": {"id": "4c7efb7d1009a0932f46464e", "name": "CTown Supermarkets", "location": {"address": "5311 Church Ave", "lat": 40.652521412738125, "lng": -73.92704553902149, "labeledLatLngs": [{"label": "display", "lat": 40.652521412738125, "lng": -73.92704553902149}, {"label": "entrance", "lat": 40.652461, "lng": -73.927022}], "distance": 339, "postalCode": "11203", "cc": "US", "city": "Brooklyn", "state": "NY", "country": "United States", "formattedAddress": ["5311 Church Ave", "Brooklyn, NY 11203", "United States"]}, "categories": [{"id": "4bf58dd8d48988d118951735", "name": "Grocery Store", "pluralName": "Grocery Stores", "shortName": "Grocery Store", "icon": {"prefix": "https://ss3.4sqi.net/img/categories_v2/shops/food_grocery_", "suffix": ".png"}, "primary": true}], "photos": {"count": 0, "groups": []}}, "referralId": "e-0-4c7efb7d1009a0932f46464e-10"}, {"reasons": {"count": 0, "items": [{"summary": "This spot is popular", "type": "general", "reasonName": "globalInteractionReason"}]}, "venue": {"id": "4cbdab3f43ec6dcbf554b831", "name": "Linda's Restaurant", "location": {"address": "5401 Church Ave", "lat": 40.652162, "lng": -73.92674, "labeledLatLngs": [{"label": "display", "lat": 40.652162, "lng": -73.92674}, {"label": "entrance", "lat": 40.652262, "lng": -73.926752}], "distance": 379, "postalCode": "11203", "cc": "US", "city": "Brooklyn", "state": "NY", "country": "United States", "formattedAddress": ["5401 Church Ave", "Brooklyn, NY 11203", "United States"]}, "categories": [{"id": "4bf58dd8d48988d144941735", "name": "Caribbean Restaurant", "pluralName": "Caribbean Restaurants", "shortName": "Caribbean", "icon": {"prefix": "https://ss3.4sqi.net/img/categories_v2/food/caribbean_", "suffix": ".png"}, "primary": true}], "photos": {"count": 0, "groups": []}}, "referralId": "e-0-4cbdab3f43ec6dcbf554b831-11"}, {"reasons": {"count": 0, "items": [{"summary": "This spot is popular", "type": "general", "reasonName": "globalInteractionReason"}]}, "venue": {"id": "503150e2e4b0f8a001b02024", "name": "Caribbean Supermarket", "location": {"lat": 40.65487369116989, "lng": -73.9304392784145, "labeledLatLngs": [{"label": "display", "lat": 40.65487369116989, "lng": -73.9304392784145}], "distance": 310, "postalCode": "11212", "cc": "US", "city": "Brooklyn", "state": "NY", "country": "United States", "formattedAddress": ["Brooklyn, NY 11212", "United States"]}, "categories": [{"id": "4bf58dd8d48988d118951735", "name": "Grocery Store", "pluralName": "Grocery Stores", "shortName": "Grocery Store", "icon": {"prefix": "https://ss3.4sqi.net/img/categories_v2/shops/food_grocery_", "suffix": ".png"}, "primary": true}], "photos": {"count": 0, "groups": []}}, "referralId": "e-0-503150e2e4b0f8a001b02024-12"}, {"reasons": {"count": 0, "items": [{"summary": "This spot is popular", "type": "general", "reasonName": "globalInteractionReason"}]}, "venue": {"id": "4cc1afbcf4448cfadc905898", "name": "Fine Fare", "location": {"address": "405 Remsen Ave", "lat": 40.65624283972171, "lng": -73.92372839828631, "labeledLatLngs": [{"label": "display", "lat": 40.65624283972171, "lng": -73.92372839828631}, {"label": "entrance", "lat": 40.655919, "lng": -73.923214}], "distance": 276, "postalCode": "11212", "cc": "US", "city": "Brooklyn", "state": "NY", "country": "United States", "formattedAddress": ["405 Remsen Ave", "Brooklyn, NY 11212", "United States"]}, "categories": [{"id": "52f2ab2ebcbc57f1066b8b46", "name": "Supermarket", "pluralName": "Supermarkets", "shortName": "Supermarket", "icon": {"prefix": "https://ss3.4sqi.net/img/categories_v2/shops/food_grocery_", "suffix": ".png"}, "primary": true}], "photos": {"count": 0, "groups": []}}, "referralId": "e-0-4cc1afbcf4448cfadc905898-13"}, {"reasons": {"count": 0, "items": [{"summary": "This spot is popular", "type": "general", "reasonName": "globalInteractionReason"}]}, "venue": {"id": "4d34f189c6cba35de647387a", "name": "Capital One Bank", "location": {"address": "5102 Church Ave", "crossStreet": "E. 51st St.", "lat": 40.651759, "lng": -73.929094, "labeledLatLngs": [{"label": "display", "lat": 40.651759, "lng": -73.929094}, {"label": "entrance", "lat": 40.651889, "lng": -73.929115}], "distance": 463, "postalCode": "11203", "cc": "US", "city": "Brooklyn", "state": "NY", "country": "United States", "formattedAddress": ["5102 Church Ave (E. 51st St.)", "Brooklyn, NY 11203", "United States"]}, "categories": [{"id": "4bf58dd8d48988d10a951735", "name": "Bank", "pluralName": "Banks", "shortName": "Bank", "icon": {"prefix": "https://ss3.4sqi.net/img/categories_v2/shops/financial_", "suffix": ".png"}, "primary": true}], "photos": {"count": 0, "groups": []}}, "referralId": "e-0-4d34f189c6cba35de647387a-14"}, {"reasons": {"count": 0, "items": [{"summary": "This spot is popular", "type": "general", "reasonName": "globalInteractionReason"}]}, "venue": {"id": "518b9a63498e3e240f8fa088", "name": "Simone's Jamaican Cuisine", "location": {"address": "846 Clarkson Ave", "lat": 40.656459999999996, "lng": -73.930174, "labeledLatLngs": [{"label": "display", "lat": 40.656459999999996, "lng": -73.930174}], "distance": 295, "postalCode": "11203", "cc": "US", "city": "Brooklyn", "state": "NY", "country": "United States", "formattedAddress": ["846 Clarkson Ave", "Brooklyn, NY 11203", "United States"]}, "categories": [{"id": "4bf58dd8d48988d144941735", "name": "Caribbean Restaurant", "pluralName": "Caribbean Restaurants", "shortName": "Caribbean", "icon": {"prefix": "https://ss3.4sqi.net/img/categories_v2/food/caribbean_", "suffix": ".png"}, "primary": true}], "photos": {"count": 0, "groups": []}}, "referralId": "e-0-518b9a63498e3e240f8fa088-15"}, {"reasons": {"count": 0, "items": [{"summary": "This spot is popular", "type": "general", "reasonName": "globalInteractionReason"}]}, "venue": {"id": "4c2f515d3896e21e66aae390", "name": "Salon Fodera @ the Regis Hotel", "location": {"address": "2 E 55th St", "crossStreet": "5th Ave", "lat": 40.658259, "lng": -73.92652199999999, "labeledLatLngs": [{"label": "display", "lat": 40.658259, "lng": -73.92652199999999}], "distance": 300, "postalCode": "10022", "cc": "US", "city": "New York", "state": "NY", "country": "United States", "formattedAddress": ["2 E 55th St (5th Ave)", "New York, NY 10022", "United States"]}, "categories": [{"id": "4bf58dd8d48988d110951735", "name": "Salon / Barbershop", "pluralName": "Salons / Barbershops", "shortName": "Salon / Barbershop", "icon": {"prefix": "https://ss3.4sqi.net/img/categories_v2/shops/salon_barber_", "suffix": ".png"}, "primary": true}], "photos": {"count": 0, "groups": []}}, "referralId": "e-0-4c2f515d3896e21e66aae390-16"}, {"reasons": {"count": 0, "items": [{"summary": "This spot is popular", "type": "general", "reasonName": "globalInteractionReason"}]}, "venue": {"id": "58688884b210145ef65045e2", "name": "Munchiez Deli", "location": {"address": "967 Lenox Rd", "crossStreet": "Remsen Ave.", "lat": 40.656335999999996, "lng": -73.92344, "labeledLatLngs": [{"label": "display", "lat": 40.656335999999996, "lng": -73.92344}, {"label": "entrance", "lat": 40.656286, "lng": -73.923462}], "distance": 302, "postalCode": "11212", "cc": "US", "city": "Brooklyn", "state": "NY", "country": "United States", "formattedAddress": ["967 Lenox Rd (Remsen Ave.)", "Brooklyn, NY 11212", "United States"]}, "categories": [{"id": "4bf58dd8d48988d146941735", "name": "Deli / Bodega", "pluralName": "Delis / Bodegas", "shortName": "Deli / Bodega", "icon": {"prefix": "https://ss3.4sqi.net/img/categories_v2/food/deli_", "suffix": ".png"}, "primary": true}], "photos": {"count": 0, "groups": []}}, "referralId": "e-0-58688884b210145ef65045e2-17"}]